<?xml version="1.0" encoding="UTF-8" standalone="yes"?>
<stationCollection totalCount="46020" pageCount="461" pageSize="100" page="201">
  <station>
    <id>GHCND:USC00314363</id>
    <displayName>HYATT CREEK, NC US</displayName>
    <minDate>1949-01-01</minDate>
    <maxDate>1962-03-31</maxDate>
    <latitude>35.2</latitude>
    <longitude>-83.95</longitude>
    <elevation>747.1</elevation>
    <locationLabels>
      <type>CNTRY</type>
      <id>FIPS:US</id>
      <displayName>United States</displayName>
    </locationLabels>
    <coverage>0.9919</coverage>
  </station>
  <station>
    <id>GHCND:USC00414397</id>
    <displayName>HYATT, TX US</displayName>
    <minDate>1935-04-01</minDate>
    <maxDate>1953-10-31</maxDate>
    <latitude>30.56667</latitude>
    <longitude>-94.4</longitude>
    <elevation>34.1</elevation>
    <locationLabels>
      <type>CNTRY</type>
      <id>FIPS:US</id>
      <displayName>United States</displayName>
    </locationLabels>
    <coverage>0.9067</coverage>
  </station>
  <station>
    <id>GHCND:US1MDPG0034</id>
    <displayName>HYATTSVILLE 0.4 S, MD US</displayName>
    <minDate>2006-02-17</minDate>
    <maxDate>2007-07-31</maxDate>
    <latitude>38.9533</latitude>
    <longitude>-76.9546</longitude>
    <elevation>18</elevation>
    <locationLabels>
      <type>CNTRY</type>
      <id>FIPS:US</id>
      <displayName>United States</displayName>
    </locationLabels>
    <coverage>1</coverage>
  </station>
  <station>
    <id>GHCND:USC00484796</id>
    <displayName>HYATTVILLE, WY US</displayName>
    <minDate>1899-05-08</minDate>
    <maxDate>1952-12-31</maxDate>
    <latitude>44.25</latitude>
    <longitude>-107.58333</longitude>
    <elevation>1363.1</elevation>
    <locationLabels>
      <type>CNTRY</type>
      <id>FIPS:US</id>
      <displayName>United States</displayName>
    </locationLabels>
    <coverage>0.4168</coverage>
  </station>
  <station>
    <id>GHCND:US1UTCH0014</id>
    <displayName>HYDE PARK 0.7 NW, UT US</displayName>
    <minDate>2009-09-09</minDate>
    <maxDate>2012-12-10</maxDate>
    <latitude>41.8051</latitude>
    <longitude>-111.8233</longitude>
    <elevation>1375.6</elevation>
    <locationLabels>
      <type>CNTRY</type>
      <id>FIPS:US</id>
      <displayName>United States</displayName>
    </locationLabels>
    <coverage>0.5997</coverage>
  </station>
  <station>
    <id>GHCND:US1NYDT0007</id>
    <displayName>HYDE PARK 1.5 W, NY US</displayName>
    <minDate>2011-12-03</minDate>
    <maxDate>2012-10-31</maxDate>
    <latitude>41.7887</latitude>
    <longitude>-73.9356</longitude>
    <elevation>55.5</elevation>
    <locationLabels>
      <type>CNTRY</type>
      <id>FIPS:US</id>
      <displayName>United States</displayName>
    </locationLabels>
    <coverage>0.6437</coverage>
  </station>
  <station>
    <id>GHCND:US1VTLM0007</id>
    <displayName>HYDE PARK 2.9 NE, VT US</displayName>
    <minDate>2010-04-27</minDate>
    <maxDate>2013-01-16</maxDate>
    <latitude>44.6208</latitude>
    <longitude>-72.5725</longitude>
    <elevation>314.6</elevation>
    <locationLabels>
      <type>CNTRY</type>
      <id>FIPS:US</id>
      <displayName>United States</displayName>
    </locationLabels>
    <coverage>0.9337</coverage>
  </station>
  <station>
    <id>GHCND:USC00193826</id>
    <displayName>HYDE PARK, MA US</displayName>
    <minDate>1895-01-06</minDate>
    <maxDate>1898-12-31</maxDate>
    <latitude>42.216667</latitude>
    <longitude>-71.116667</longitude>
    <elevation>18.3</elevation>
    <locationLabels>
      <type>CNTRY</type>
      <id>FIPS:US</id>
      <displayName>United States</displayName>
    </locationLabels>
    <coverage>0.3379</coverage>
  </station>
  <station>
    <id>GHCND:USC00434075</id>
    <displayName>HYDE PARK, VT US</displayName>
    <minDate>1892-11-01</minDate>
    <maxDate>1918-11-30</maxDate>
    <latitude>44.6</latitude>
    <longitude>-72.616667</longitude>
    <elevation>175.6</elevation>
    <locationLabels>
      <type>CNTRY</type>
      <id>FIPS:US</id>
      <displayName>United States</displayName>
    </locationLabels>
    <coverage>0.2899</coverage>
  </station>
  <station>
    <id>GHCND:USC00154097</id>
    <displayName>HYDEN 4 E, KY US</displayName>
    <minDate>1978-05-01</minDate>
    <maxDate>1990-10-31</maxDate>
    <latitude>37.13333</latitude>
    <longitude>-83.33333</longitude>
    <elevation>359.7</elevation>
    <locationLabels>
      <type>CNTRY</type>
      <id>FIPS:US</id>
      <displayName>United States</displayName>
    </locationLabels>
    <coverage>0.9954</coverage>
  </station>
  <station>
    <id>GHCND:USC00154095</id>
    <displayName>HYDEN 4 NW, KY US</displayName>
    <minDate>2007-10-01</minDate>
    <maxDate>2008-06-30</maxDate>
    <latitude>37.18528</latitude>
    <longitude>-83.43417</longitude>
    <elevation>275.8</elevation>
    <locationLabels>
      <type>CNTRY</type>
      <id>FIPS:US</id>
      <displayName>United States</displayName>
    </locationLabels>
    <coverage>0.7737</coverage>
  </station>
  <station>
    <id>GHCND:USC00154093</id>
    <displayName>HYDEN, KY US</displayName>
    <minDate>1940-04-12</minDate>
    <maxDate>2008-01-31</maxDate>
    <latitude>37.15</latitude>
    <longitude>-83.36667</longitude>
    <elevation>295.7</elevation>
    <locationLabels>
      <type>CNTRY</type>
      <id>FIPS:US</id>
      <displayName>United States</displayName>
    </locationLabels>
    <coverage>0.6725</coverage>
  </station>
  <station>
    <id>GHCND:USC00503821</id>
    <displayName>HYDER, US</displayName>
    <minDate>1936-10-01</minDate>
    <maxDate>2013-01-03</maxDate>
    <latitude>55.9152</latitude>
    <longitude>-130.0269</longitude>
    <elevation>24.4</elevation>
    <locationLabels>
      <type>CNTRY</type>
      <id>FIPS:US</id>
      <displayName>United States</displayName>
    </locationLabels>
    <coverage>0.1686</coverage>
  </station>
  <station>
    <id>GHCND:USC00414402</id>
    <displayName>HYE, TX US</displayName>
    <minDate>1948-03-01</minDate>
    <maxDate>2012-11-30</maxDate>
    <latitude>30.2533</latitude>
    <longitude>-98.5711</longitude>
    <elevation>443.8</elevation>
    <locationLabels>
      <type>CNTRY</type>
      <id>FIPS:US</id>
      <displayName>United States</displayName>
    </locationLabels>
    <coverage>0.9458</coverage>
  </station>
  <station>
    <id>GHCND:US1COBO0099</id>
    <displayName>HYGIENE .79 N, CO US</displayName>
    <minDate>2003-06-13</minDate>
    <maxDate>2013-01-16</maxDate>
    <latitude>40.1998</latitude>
    <longitude>-105.1785</longitude>
    <elevation>1574.9</elevation>
    <locationLabels>
      <type>CNTRY</type>
      <id>FIPS:US</id>
      <displayName>United States</displayName>
    </locationLabels>
    <coverage>0.7827</coverage>
  </station>
  <station>
    <id>GHCND:USC00124216</id>
    <displayName>HYMERA, IN US</displayName>
    <minDate>1948-11-01</minDate>
    <maxDate>1949-05-31</maxDate>
    <latitude>39.16667</latitude>
    <longitude>-87.3</longitude>
    <elevation>149</elevation>
    <locationLabels>
      <type>CNTRY</type>
      <id>FIPS:US</id>
      <displayName>United States</displayName>
    </locationLabels>
    <coverage>0.7925</coverage>
  </station>
  <station>
    <id>GHCND:US1PABD0008</id>
    <displayName>HYNDMAN 5.1 N, PA US</displayName>
    <minDate>2006-06-02</minDate>
    <maxDate>2007-05-19</maxDate>
    <latitude>39.8938</latitude>
    <longitude>-78.7032</longitude>
    <elevation>452.9</elevation>
    <locationLabels>
      <type>CNTRY</type>
      <id>FIPS:US</id>
      <displayName>United States</displayName>
    </locationLabels>
    <coverage>0.5426</coverage>
  </station>
  <station>
    <id>GHCND:USS0014F16S</id>
    <displayName>HYNDMAN, ID US</displayName>
    <minDate>1980-10-01</minDate>
    <maxDate>2013-01-13</maxDate>
    <latitude>43.7</latitude>
    <longitude>-114.1667</longitude>
    <elevation>2267.7</elevation>
    <locationLabels>
      <type>CNTRY</type>
      <id>FIPS:US</id>
      <displayName>United States</displayName>
    </locationLabels>
    <coverage>0.8968</coverage>
  </station>
  <station>
    <id>GHCND:USC00364190</id>
    <displayName>HYNDMAN, PA US</displayName>
    <minDate>1906-01-01</minDate>
    <maxDate>1993-12-31</maxDate>
    <latitude>39.81667</latitude>
    <longitude>-78.73333</longitude>
    <elevation>292.6</elevation>
    <locationLabels>
      <type>CNTRY</type>
      <id>FIPS:US</id>
      <displayName>United States</displayName>
    </locationLabels>
    <coverage>0.9004</coverage>
  </station>
  <station>
    <id>GHCND:USC00424160</id>
    <displayName>HYRUM, UT US</displayName>
    <minDate>2011-12-01</minDate>
    <maxDate>2012-10-31</maxDate>
    <latitude>41.6395</latitude>
    <longitude>-111.8654</longitude>
    <elevation>1417.6</elevation>
    <locationLabels>
      <type>CNTRY</type>
      <id>FIPS:US</id>
      <displayName>United States</displayName>
    </locationLabels>
    <coverage>1</coverage>
  </station>
  <station>
    <id>GHCND:US1MTTR0002</id>
    <displayName>HYSHAM 0.4 ESE, MT US</displayName>
    <minDate>2010-11-18</minDate>
    <maxDate>2013-01-15</maxDate>
    <latitude>46.2898</latitude>
    <longitude>-107.2279</longitude>
    <elevation>813.2</elevation>
    <locationLabels>
      <type>CNTRY</type>
      <id>FIPS:US</id>
      <displayName>United States</displayName>
    </locationLabels>
    <coverage>0.9494</coverage>
  </station>
  <station>
    <id>GHCND:USC00244364</id>
    <displayName>HYSHAM 25 SSE, MT US</displayName>
    <minDate>1951-12-17</minDate>
    <maxDate>2013-01-16</maxDate>
    <latitude>45.9352</latitude>
    <longitude>-107.1375</longitude>
    <elevation>944.9</elevation>
    <locationLabels>
      <type>CNTRY</type>
      <id>FIPS:US</id>
      <displayName>United States</displayName>
    </locationLabels>
    <coverage>0.7998</coverage>
  </station>
  <station>
    <id>GHCND:US1MTTR0001</id>
    <displayName>HYSHAM 8.0 W, MT US</displayName>
    <minDate>2010-04-25</minDate>
    <maxDate>2013-01-15</maxDate>
    <latitude>46.273</latitude>
    <longitude>-107.3943</longitude>
    <elevation>831.5</elevation>
    <locationLabels>
      <type>CNTRY</type>
      <id>FIPS:US</id>
      <displayName>United States</displayName>
    </locationLabels>
    <coverage>0.9779</coverage>
  </station>
  <station>
    <id>GHCND:USC00244358</id>
    <displayName>HYSHAM, MT US</displayName>
    <minDate>1945-11-01</minDate>
    <maxDate>2013-01-15</maxDate>
    <latitude>46.2941</latitude>
    <longitude>-107.2277</longitude>
    <elevation>810.8</elevation>
    <locationLabels>
      <type>CNTRY</type>
      <id>FIPS:US</id>
      <displayName>United States</displayName>
    </locationLabels>
    <coverage>0.9868</coverage>
  </station>
  <station>
    <id>GHCND:US1COAD0093</id>
    <displayName>HYT 5 S, CO US</displayName>
    <minDate>1999-06-14</minDate>
    <maxDate>2005-07-16</maxDate>
    <latitude>39.8994</latitude>
    <longitude>-104.0558</longitude>
    <elevation>1478.9</elevation>
    <locationLabels>
      <type>CNTRY</type>
      <id>FIPS:US</id>
      <displayName>United States</displayName>
    </locationLabels>
    <coverage>0.3784</coverage>
  </station>
  <station>
    <id>GHCND:USC00014099</id>
    <displayName>HYTOP, AL US</displayName>
    <minDate>1935-05-01</minDate>
    <maxDate>1962-03-31</maxDate>
    <latitude>34.81667</latitude>
    <longitude>-86.11667</longitude>
    <elevation>494.1</elevation>
    <locationLabels>
      <type>CNTRY</type>
      <id>FIPS:US</id>
      <displayName>United States</displayName>
    </locationLabels>
    <coverage>0.9704</coverage>
  </station>
  <station>
    <id>GHCND:USC00263940</id>
    <displayName>I L RANCH, NV US</displayName>
    <minDate>1962-08-01</minDate>
    <maxDate>1969-08-31</maxDate>
    <latitude>41.56667</latitude>
    <longitude>-116.4</longitude>
    <elevation>1585.9</elevation>
    <locationLabels>
      <type>CNTRY</type>
      <id>FIPS:US</id>
      <displayName>United States</displayName>
    </locationLabels>
    <coverage>0.8474</coverage>
  </station>
  <station>
    <id>GHCND:USC00464408</id>
    <displayName>IAEGER 1 SW, WV US</displayName>
    <minDate>1941-12-23</minDate>
    <maxDate>2012-11-15</maxDate>
    <latitude>37.4502</latitude>
    <longitude>-81.8236</longitude>
    <elevation>326.1</elevation>
    <locationLabels>
      <type>CNTRY</type>
      <id>FIPS:US</id>
      <displayName>United States</displayName>
    </locationLabels>
    <coverage>0.8032</coverage>
  </station>
  <station>
    <id>GHCND:USC00424178</id>
    <displayName>IBAPAH NEAR, UT US</displayName>
    <minDate>1906-10-01</minDate>
    <maxDate>1911-08-31</maxDate>
    <latitude>39.816667</latitude>
    <longitude>-113.966667</longitude>
    <elevation>2407.9</elevation>
    <locationLabels>
      <type>CNTRY</type>
      <id>FIPS:US</id>
      <displayName>United States</displayName>
    </locationLabels>
    <coverage>0.7823</coverage>
  </station>
  <station>
    <id>GHCND:USC00424174</id>
    <displayName>IBAPAH, UT US</displayName>
    <minDate>1903-01-01</minDate>
    <maxDate>2012-11-30</maxDate>
    <latitude>40.0379</latitude>
    <longitude>-113.9885</longitude>
    <elevation>1609</elevation>
    <locationLabels>
      <type>CNTRY</type>
      <id>FIPS:US</id>
      <displayName>United States</displayName>
    </locationLabels>
    <coverage>0.8262</coverage>
  </station>
  <station>
    <id>GHCND:USC00424180</id>
    <displayName>IBAX, UT US</displayName>
    <minDate>1909-10-28</minDate>
    <maxDate>1914-02-28</maxDate>
    <latitude>39.25</latitude>
    <longitude>-113.35</longitude>
    <elevation>1706.9</elevation>
    <locationLabels>
      <type>CNTRY</type>
      <id>FIPS:US</id>
      <displayName>United States</displayName>
    </locationLabels>
    <coverage>0.5073</coverage>
  </station>
  <station>
    <id>GHCND:US1MOFSA131</id>
    <displayName>IBERIA 5.6 NE, MO US</displayName>
    <minDate>2006-05-01</minDate>
    <maxDate>2013-01-14</maxDate>
    <latitude>38.1564</latitude>
    <longitude>-92.2358</longitude>
    <elevation>277.1</elevation>
    <locationLabels>
      <type>CNTRY</type>
      <id>FIPS:US</id>
      <displayName>United States</displayName>
    </locationLabels>
    <coverage>0.9955</coverage>
  </station>
  <station>
    <id>GHCND:US1MOML0002</id>
    <displayName>IBERIA 6.6 NE, MO US</displayName>
    <minDate>2007-03-28</minDate>
    <maxDate>2012-11-04</maxDate>
    <latitude>38.1479</latitude>
    <longitude>-92.1989</longitude>
    <elevation>255.1</elevation>
    <locationLabels>
      <type>CNTRY</type>
      <id>FIPS:US</id>
      <displayName>United States</displayName>
    </locationLabels>
    <coverage>0.553</coverage>
  </station>
  <station>
    <id>GHCND:USC00234136</id>
    <displayName>IBERIA, MO US</displayName>
    <minDate>1974-05-01</minDate>
    <maxDate>2012-12-31</maxDate>
    <latitude>38.0848</latitude>
    <longitude>-92.4255</longitude>
    <elevation>284.1</elevation>
    <locationLabels>
      <type>CNTRY</type>
      <id>FIPS:US</id>
      <displayName>United States</displayName>
    </locationLabels>
    <coverage>0.8855</coverage>
  </station>
  <station>
    <id>GHCND:USC00354119</id>
    <displayName>IBEX MINE, OR US</displayName>
    <minDate>1909-03-01</minDate>
    <maxDate>1923-07-31</maxDate>
    <latitude>44.766667</latitude>
    <longitude>-118.283333</longitude>
    <elevation>1828.8</elevation>
    <locationLabels>
      <type>CNTRY</type>
      <id>FIPS:US</id>
      <displayName>United States</displayName>
    </locationLabels>
    <coverage>0.9856</coverage>
  </station>
  <station>
    <id>GHCND:USC00453883</id>
    <displayName>ICE HARBOR DAM, WA US</displayName>
    <minDate>1957-03-21</minDate>
    <maxDate>2012-10-31</maxDate>
    <latitude>46.2447</latitude>
    <longitude>-118.8786</longitude>
    <elevation>112.2</elevation>
    <locationLabels>
      <type>CNTRY</type>
      <id>FIPS:US</id>
      <displayName>United States</displayName>
    </locationLabels>
    <coverage>0.9783</coverage>
  </station>
  <station>
    <id>GHCND:USC00033570</id>
    <displayName>ICELEDO, AR US</displayName>
    <minDate>1947-09-01</minDate>
    <maxDate>1949-11-30</maxDate>
    <latitude>35.86667</latitude>
    <longitude>-92.98333</longitude>
    <elevation>415.1</elevation>
    <locationLabels>
      <type>CNTRY</type>
      <id>FIPS:US</id>
      <displayName>United States</displayName>
    </locationLabels>
    <coverage>0.4805</coverage>
  </station>
  <station>
    <id>GHCND:USC00134038</id>
    <displayName>IDA GROVE 5 NW, IA US</displayName>
    <minDate>1902-10-01</minDate>
    <maxDate>2007-12-31</maxDate>
    <latitude>42.3941</latitude>
    <longitude>-95.515</longitude>
    <elevation>402.3</elevation>
    <locationLabels>
      <type>CNTRY</type>
      <id>FIPS:US</id>
      <displayName>United States</displayName>
    </locationLabels>
    <coverage>0.6091</coverage>
  </station>
  <station>
    <id>GHCND:USC00344451</id>
    <displayName>IDABEL, OK US</displayName>
    <minDate>1907-02-22</minDate>
    <maxDate>2013-01-15</maxDate>
    <latitude>33.93361</latitude>
    <longitude>-94.82778</longitude>
    <elevation>111.3</elevation>
    <locationLabels>
      <type>CNTRY</type>
      <id>FIPS:US</id>
      <displayName>United States</displayName>
    </locationLabels>
    <coverage>0.8303</coverage>
  </station>
  <station>
    <id>GHCND:USC00104450</id>
    <displayName>IDAHO CITY 11 SW, ID US</displayName>
    <minDate>1948-08-01</minDate>
    <maxDate>1963-07-31</maxDate>
    <latitude>43.71667</latitude>
    <longitude>-116</longitude>
    <elevation>1524.9</elevation>
    <locationLabels>
      <type>CNTRY</type>
      <id>FIPS:US</id>
      <displayName>United States</displayName>
    </locationLabels>
    <coverage>0.9967</coverage>
  </station>
  <station>
    <id>GHCND:USC00104442</id>
    <displayName>IDAHO CITY, ID US</displayName>
    <minDate>1894-01-17</minDate>
    <maxDate>2013-01-14</maxDate>
    <latitude>43.8383</latitude>
    <longitude>-115.832</longitude>
    <elevation>1208.5</elevation>
    <locationLabels>
      <type>CNTRY</type>
      <id>FIPS:US</id>
      <displayName>United States</displayName>
    </locationLabels>
    <coverage>0.8879</coverage>
  </station>
  <station>
    <id>GHCND:US1IDBV0006</id>
    <displayName>IDAHO FALLS 11.7 NE, ID US</displayName>
    <minDate>2009-06-20</minDate>
    <maxDate>2013-01-16</maxDate>
    <latitude>43.6176</latitude>
    <longitude>-111.884</longitude>
    <elevation>1487.4</elevation>
    <locationLabels>
      <type>CNTRY</type>
      <id>FIPS:US</id>
      <displayName>United States</displayName>
    </locationLabels>
    <coverage>0.9962</coverage>
  </station>
  <station>
    <id>GHCND:USC00104456</id>
    <displayName>IDAHO FALLS 16 SE, ID US</displayName>
    <minDate>1955-11-10</minDate>
    <maxDate>2013-01-16</maxDate>
    <latitude>43.3455</latitude>
    <longitude>-111.7847</longitude>
    <elevation>1776.4</elevation>
    <locationLabels>
      <type>CNTRY</type>
      <id>FIPS:US</id>
      <displayName>United States</displayName>
    </locationLabels>
    <coverage>0.977</coverage>
  </station>
  <station>
    <id>GHCND:USC00104455</id>
    <displayName>IDAHO FALLS 2 ESE, ID US</displayName>
    <minDate>1952-05-20</minDate>
    <maxDate>2013-01-15</maxDate>
    <latitude>43.514</latitude>
    <longitude>-112.0126</longitude>
    <elevation>1445.4</elevation>
    <locationLabels>
      <type>CNTRY</type>
      <id>FIPS:US</id>
      <displayName>United States</displayName>
    </locationLabels>
    <coverage>0.9319</coverage>
  </station>
  <station>
    <id>GHCND:USW00094144</id>
    <displayName>IDAHO FALLS 42 NW WEATHER BUREAU, ID US</displayName>
    <minDate>1954-03-01</minDate>
    <maxDate>1969-06-30</maxDate>
    <latitude>43.83333</latitude>
    <longitude>-112.68333</longitude>
    <elevation>1460.9</elevation>
    <locationLabels>
      <type>CNTRY</type>
      <id>FIPS:US</id>
      <displayName>United States</displayName>
    </locationLabels>
    <coverage>0.9457</coverage>
  </station>
  <station>
    <id>GHCND:USW00094143</id>
    <displayName>IDAHO FALLS 46 W, ID US</displayName>
    <minDate>1954-04-01</minDate>
    <maxDate>2012-12-26</maxDate>
    <latitude>43.5316</latitude>
    <longitude>-112.9422</longitude>
    <elevation>1505.1</elevation>
    <locationLabels>
      <type>CNTRY</type>
      <id>FIPS:US</id>
      <displayName>United States</displayName>
    </locationLabels>
    <coverage>0.996</coverage>
  </station>
  <station>
    <id>GHCND:USC00107536</id>
    <displayName>IDAHO FALLS 46 W, ID US</displayName>
    <minDate>1952-01-01</minDate>
    <maxDate>1954-03-31</maxDate>
    <latitude>43.5316</latitude>
    <longitude>-112.9422</longitude>
    <elevation>1505.1</elevation>
    <locationLabels>
      <type>CNTRY</type>
      <id>FIPS:US</id>
      <displayName>United States</displayName>
    </locationLabels>
    <coverage>0.9976</coverage>
  </station>
  <station>
    <id>GHCND:USW00024145</id>
    <displayName>IDAHO FALLS FANNING FIELD, ID US</displayName>
    <minDate>1948-08-01</minDate>
    <maxDate>2013-01-14</maxDate>
    <latitude>43.51639</latitude>
    <longitude>-112.06722</longitude>
    <elevation>1441.4</elevation>
    <locationLabels>
      <type>CNTRY</type>
      <id>FIPS:US</id>
      <displayName>United States</displayName>
    </locationLabels>
    <coverage>0.9373</coverage>
  </station>
  <station>
    <id>GHCND:US1COCC0015</id>
    <displayName>IDAHO SPRINGS 1.4 NNE, CO US</displayName>
    <minDate>2006-03-08</minDate>
    <maxDate>2007-01-15</maxDate>
    <latitude>39.7596</latitude>
    <longitude>-105.5032</longitude>
    <elevation>2685</elevation>
    <locationLabels>
      <type>CNTRY</type>
      <id>FIPS:US</id>
      <displayName>United States</displayName>
    </locationLabels>
    <coverage>0.8917</coverage>
  </station>
  <station>
    <id>GHCND:US1COCC0014</id>
    <displayName>IDAHO SPRINGS 1.7 WSW, CO US</displayName>
    <minDate>2005-10-01</minDate>
    <maxDate>2012-12-19</maxDate>
    <latitude>39.7297</latitude>
    <longitude>-105.5406</longitude>
    <elevation>2377.4</elevation>
    <locationLabels>
      <type>CNTRY</type>
      <id>FIPS:US</id>
      <displayName>United States</displayName>
    </locationLabels>
    <coverage>0.49</coverage>
  </station>
  <station>
    <id>GHCND:US1COCC0007</id>
    <displayName>IDAHO SPRINGS 4.7 SSE, CO US</displayName>
    <minDate>2004-01-01</minDate>
    <maxDate>2013-01-13</maxDate>
    <latitude>39.6782</latitude>
    <longitude>-105.4735</longitude>
    <elevation>2987</elevation>
    <locationLabels>
      <type>CNTRY</type>
      <id>FIPS:US</id>
      <displayName>United States</displayName>
    </locationLabels>
    <coverage>0.3035</coverage>
  </station>
  <station>
    <id>GHCND:US1COCC0019</id>
    <displayName>IDAHO SPRINGS 4.9 NW, CO US</displayName>
    <minDate>2008-08-12</minDate>
    <maxDate>2013-01-16</maxDate>
    <latitude>39.7948</latitude>
    <longitude>-105.573</longitude>
    <elevation>2819.1</elevation>
    <locationLabels>
      <type>CNTRY</type>
      <id>FIPS:US</id>
      <displayName>United States</displayName>
    </locationLabels>
    <coverage>0.9246</coverage>
  </station>
  <station>
    <id>GHCND:USC00054234</id>
    <displayName>IDAHO SPRINGS, CO US</displayName>
    <minDate>1893-01-01</minDate>
    <maxDate>1974-06-30</maxDate>
    <latitude>39.75</latitude>
    <longitude>-105.51667</longitude>
    <elevation>2302.8</elevation>
    <locationLabels>
      <type>CNTRY</type>
      <id>FIPS:US</id>
      <displayName>United States</displayName>
    </locationLabels>
    <coverage>0.8232</coverage>
  </station>
  <station>
    <id>GHCND:US1COYU0009</id>
    <displayName>IDALIA 2 NE, CO US</displayName>
    <minDate>2000-05-22</minDate>
    <maxDate>2012-12-31</maxDate>
    <latitude>39.7106</latitude>
    <longitude>-102.2532</longitude>
    <elevation>1200</elevation>
    <locationLabels>
      <type>CNTRY</type>
      <id>FIPS:US</id>
      <displayName>United States</displayName>
    </locationLabels>
    <coverage>0.1439</coverage>
  </station>
  <station>
    <id>GHCND:USC00054242</id>
    <displayName>IDALIA, CO US</displayName>
    <minDate>1941-08-01</minDate>
    <maxDate>2013-01-16</maxDate>
    <latitude>39.70333</latitude>
    <longitude>-102.29389</longitude>
    <elevation>1208.5</elevation>
    <locationLabels>
      <type>CNTRY</type>
      <id>FIPS:US</id>
      <displayName>United States</displayName>
    </locationLabels>
    <coverage>0.8879</coverage>
  </station>
  <station>
    <id>GHCND:US1COYU0032</id>
    <displayName>IDALIA, CO US</displayName>
    <minDate>2000-05-01</minDate>
    <maxDate>2000-09-30</maxDate>
    <latitude>39.7041</latitude>
    <longitude>-102.2929</longitude>
    <elevation>1211</elevation>
    <locationLabels>
      <type>CNTRY</type>
      <id>FIPS:US</id>
      <displayName>United States</displayName>
    </locationLabels>
    <coverage>1</coverage>
  </station>
  <station>
    <id>GHCND:US1KSCY0001</id>
    <displayName>IDANA 0.3 SSE, KS US</displayName>
    <minDate>2007-10-01</minDate>
    <maxDate>2013-01-16</maxDate>
    <latitude>39.3558</latitude>
    <longitude>-97.2619</longitude>
    <elevation>384</elevation>
    <locationLabels>
      <type>CNTRY</type>
      <id>FIPS:US</id>
      <displayName>United States</displayName>
    </locationLabels>
    <coverage>0.8997</coverage>
  </station>
  <station>
    <id>GHCND:USS0007M27S</id>
    <displayName>IDARADO, CO US</displayName>
    <minDate>1980-07-23</minDate>
    <maxDate>2013-01-13</maxDate>
    <latitude>37.9333</latitude>
    <longitude>-107.6667</longitude>
    <elevation>2987</elevation>
    <locationLabels>
      <type>CNTRY</type>
      <id>FIPS:US</id>
      <displayName>United States</displayName>
    </locationLabels>
    <coverage>0.897</coverage>
  </station>
  <station>
    <id>GHCND:USC00014115</id>
    <displayName>IDER, AL US</displayName>
    <minDate>1956-01-01</minDate>
    <maxDate>1962-03-31</maxDate>
    <latitude>34.71667</latitude>
    <longitude>-85.68333</longitude>
    <elevation>467</elevation>
    <locationLabels>
      <type>CNTRY</type>
      <id>FIPS:US</id>
      <displayName>United States</displayName>
    </locationLabels>
    <coverage>0.9934</coverage>
  </station>
  <station>
    <id>GHCND:USC00044202</id>
    <displayName>IDLEWILD HIGHWAY MNTNC S, CA US</displayName>
    <minDate>1959-05-01</minDate>
    <maxDate>1977-06-30</maxDate>
    <latitude>41.9</latitude>
    <longitude>-123.76667</longitude>
    <elevation>381</elevation>
    <locationLabels>
      <type>CNTRY</type>
      <id>FIPS:US</id>
      <displayName>United States</displayName>
    </locationLabels>
    <coverage>0.9286</coverage>
  </station>
  <station>
    <id>GHCND:USC00314385</id>
    <displayName>IDLEWILD, NC US</displayName>
    <minDate>1940-03-29</minDate>
    <maxDate>1998-03-31</maxDate>
    <latitude>36.31194</latitude>
    <longitude>-81.45889</longitude>
    <elevation>883.9</elevation>
    <locationLabels>
      <type>CNTRY</type>
      <id>FIPS:US</id>
      <displayName>United States</displayName>
    </locationLabels>
    <coverage>0.9211</coverage>
  </station>
  <station>
    <id>GHCND:US1ORDG0012</id>
    <displayName>IDLEYLD PARK 4 ESE, OR US</displayName>
    <minDate>2008-01-04</minDate>
    <maxDate>2013-01-14</maxDate>
    <latitude>43.3087</latitude>
    <longitude>-122.9396</longitude>
    <elevation>496.2</elevation>
    <locationLabels>
      <type>CNTRY</type>
      <id>FIPS:US</id>
      <displayName>United States</displayName>
    </locationLabels>
    <coverage>0.8749</coverage>
  </station>
  <station>
    <id>GHCND:USC00354126</id>
    <displayName>IDLEYLD PARK 4 NE, OR US</displayName>
    <minDate>1958-02-15</minDate>
    <maxDate>2013-01-15</maxDate>
    <latitude>43.3708</latitude>
    <longitude>-122.9652</longitude>
    <elevation>329.2</elevation>
    <locationLabels>
      <type>CNTRY</type>
      <id>FIPS:US</id>
      <displayName>United States</displayName>
    </locationLabels>
    <coverage>0.9904</coverage>
  </station>
  <station>
    <id>GHCND:USC00354129</id>
    <displayName>IDLEYLD PARK 4 NE, OR US</displayName>
    <minDate>1955-03-03</minDate>
    <maxDate>1956-05-24</maxDate>
    <latitude>43.3708</latitude>
    <longitude>-122.9652</longitude>
    <elevation>329.2</elevation>
    <locationLabels>
      <type>CNTRY</type>
      <id>FIPS:US</id>
      <displayName>United States</displayName>
    </locationLabels>
    <coverage>1</coverage>
  </station>
  <station>
    <id>GHCND:USC00354125</id>
    <displayName>IDLEYLD PARK 4 NE, OR US</displayName>
    <minDate>1956-05-25</minDate>
    <maxDate>1958-01-12</maxDate>
    <latitude>43.3708</latitude>
    <longitude>-122.9652</longitude>
    <elevation>329.2</elevation>
    <locationLabels>
      <type>CNTRY</type>
      <id>FIPS:US</id>
      <displayName>United States</displayName>
    </locationLabels>
    <coverage>1</coverage>
  </station>
  <station>
    <id>GHCND:USC00044204</id>
    <displayName>IDRIA, CA US</displayName>
    <minDate>1918-05-01</minDate>
    <maxDate>1976-12-31</maxDate>
    <latitude>36.41667</latitude>
    <longitude>-120.66667</longitude>
    <elevation>808</elevation>
    <locationLabels>
      <type>CNTRY</type>
      <id>FIPS:US</id>
      <displayName>United States</displayName>
    </locationLabels>
    <coverage>0.946</coverage>
  </station>
  <station>
    <id>GHCND:USC00044208</id>
    <displayName>IDYLLWILD 1 NE, CA US</displayName>
    <minDate>1901-01-06</minDate>
    <maxDate>1951-09-30</maxDate>
    <latitude>33.75</latitude>
    <longitude>-116.7</longitude>
    <elevation>1647.1</elevation>
    <locationLabels>
      <type>CNTRY</type>
      <id>FIPS:US</id>
      <displayName>United States</displayName>
    </locationLabels>
    <coverage>0.2375</coverage>
  </station>
  <station>
    <id>GHCND:US1CARV0002</id>
    <displayName>IDYLLWILD 1.8 NW, CA US</displayName>
    <minDate>2008-10-09</minDate>
    <maxDate>2013-01-14</maxDate>
    <latitude>33.7631</latitude>
    <longitude>-116.735</longitude>
    <elevation>1927.9</elevation>
    <locationLabels>
      <type>CNTRY</type>
      <id>FIPS:US</id>
      <displayName>United States</displayName>
    </locationLabels>
    <coverage>0.9917</coverage>
  </station>
  <station>
    <id>GHCND:USC00044211</id>
    <displayName>IDYLLWILD FIRE DEPARTMENT, CA US</displayName>
    <minDate>1943-10-01</minDate>
    <maxDate>2013-01-15</maxDate>
    <latitude>33.7572</latitude>
    <longitude>-116.7066</longitude>
    <elevation>1639.8</elevation>
    <locationLabels>
      <type>CNTRY</type>
      <id>FIPS:US</id>
      <displayName>United States</displayName>
    </locationLabels>
    <coverage>0.9739</coverage>
  </station>
  <station>
    <id>GHCND:USC00503871</id>
    <displayName>IGLOO LODGE, AK US</displayName>
    <minDate>2001-08-01</minDate>
    <maxDate>2003-07-31</maxDate>
    <latitude>63.16389</latitude>
    <longitude>-149.77778</longitude>
    <elevation>658.4</elevation>
    <locationLabels>
      <type>CNTRY</type>
      <id>FIPS:US</id>
      <displayName>United States</displayName>
    </locationLabels>
    <coverage>0.6041</coverage>
  </station>
  <station>
    <id>GHCND:USC00503868</id>
    <displayName>IGLOO, AK US</displayName>
    <minDate>1919-11-01</minDate>
    <maxDate>1928-12-31</maxDate>
    <latitude>65.15</latitude>
    <longitude>-165.06667</longitude>
    <elevation>0.9</elevation>
    <locationLabels>
      <type>CNTRY</type>
      <id>FIPS:US</id>
      <displayName>United States</displayName>
    </locationLabels>
    <coverage>0.4688</coverage>
  </station>
  <station>
    <id>GHCND:US1CAMR0007</id>
    <displayName>IGNACIO 0.6 SW, CA US</displayName>
    <minDate>2008-11-27</minDate>
    <maxDate>2013-01-10</maxDate>
    <latitude>38.0652</latitude>
    <longitude>-122.5465</longitude>
    <elevation>17.4</elevation>
    <locationLabels>
      <type>CNTRY</type>
      <id>FIPS:US</id>
      <displayName>United States</displayName>
    </locationLabels>
    <coverage>0.239</coverage>
  </station>
  <station>
    <id>GHCND:USC00054250</id>
    <displayName>IGNACIO 1 N, CO US</displayName>
    <minDate>1909-07-01</minDate>
    <maxDate>1993-07-31</maxDate>
    <latitude>37.13639</latitude>
    <longitude>-107.62639</longitude>
    <elevation>1969</elevation>
    <locationLabels>
      <type>CNTRY</type>
      <id>FIPS:US</id>
      <displayName>United States</displayName>
    </locationLabels>
    <coverage>0.9108</coverage>
  </station>
  <station>
    <id>GHCND:US1COLP0009</id>
    <displayName>IGNACIO 2.1 NNE, CO US</displayName>
    <minDate>2003-04-17</minDate>
    <maxDate>2005-12-16</maxDate>
    <latitude>37.1439</latitude>
    <longitude>-107.6211</longitude>
    <elevation>2000.1</elevation>
    <locationLabels>
      <type>CNTRY</type>
      <id>FIPS:US</id>
      <displayName>United States</displayName>
    </locationLabels>
    <coverage>0.4605</coverage>
  </station>
  <station>
    <id>GHCND:US1COLP0048</id>
    <displayName>IGNACIO 6.9 NW, CO US</displayName>
    <minDate>2009-06-28</minDate>
    <maxDate>2012-12-16</maxDate>
    <latitude>37.1896</latitude>
    <longitude>-107.7204</longitude>
    <elevation>2053.4</elevation>
    <locationLabels>
      <type>CNTRY</type>
      <id>FIPS:US</id>
      <displayName>United States</displayName>
    </locationLabels>
    <coverage>0.8651</coverage>
  </station>
  <station>
    <id>GHCND:US1COLP0038</id>
    <displayName>IGNACIO 7.9 SSE, CO US</displayName>
    <minDate>2009-04-26</minDate>
    <maxDate>2011-06-27</maxDate>
    <latitude>37.0048</latitude>
    <longitude>-107.6046</longitude>
    <elevation>1898</elevation>
    <locationLabels>
      <type>CNTRY</type>
      <id>FIPS:US</id>
      <displayName>United States</displayName>
    </locationLabels>
    <coverage>0.5334</coverage>
  </station>
  <station>
    <id>GHCND:USC00054254</id>
    <displayName>IGNACIO 8 E, CO US</displayName>
    <minDate>2001-01-01</minDate>
    <maxDate>2013-01-16</maxDate>
    <latitude>37.0855</latitude>
    <longitude>-107.5333</longitude>
    <elevation>1995.8</elevation>
    <locationLabels>
      <type>CNTRY</type>
      <id>FIPS:US</id>
      <displayName>United States</displayName>
    </locationLabels>
    <coverage>0.9991</coverage>
  </station>
  <station>
    <id>GHCND:US1CASH0037</id>
    <displayName>IGO 0.2 S, CA US</displayName>
    <minDate>2011-01-07</minDate>
    <maxDate>2013-01-16</maxDate>
    <latitude>40.5032</latitude>
    <longitude>-122.5413</longitude>
    <elevation>327.4</elevation>
    <locationLabels>
      <type>CNTRY</type>
      <id>FIPS:US</id>
      <displayName>United States</displayName>
    </locationLabels>
    <coverage>0.6194</coverage>
  </station>
  <station>
    <id>GHCND:US1GAMA0008</id>
    <displayName>ILA 4.1 SW, GA US</displayName>
    <minDate>2008-04-28</minDate>
    <maxDate>2013-01-11</maxDate>
    <latitude>34.1236</latitude>
    <longitude>-83.3355</longitude>
    <elevation>257.3</elevation>
    <locationLabels>
      <type>CNTRY</type>
      <id>FIPS:US</id>
      <displayName>United States</displayName>
    </locationLabels>
    <coverage>0.6488</coverage>
  </station>
  <station>
    <id>GHCND:USC00244368</id>
    <displayName>ILIAD, MT US</displayName>
    <minDate>1950-03-01</minDate>
    <maxDate>2001-07-31</maxDate>
    <latitude>47.80556</latitude>
    <longitude>-109.81</longitude>
    <elevation>903.7</elevation>
    <locationLabels>
      <type>CNTRY</type>
      <id>FIPS:US</id>
      <displayName>United States</displayName>
    </locationLabels>
    <coverage>0.76</coverage>
  </station>
  <station>
    <id>GHCND:USW00025506</id>
    <displayName>ILIAMNA AIRPORT, AK US</displayName>
    <minDate>1920-02-01</minDate>
    <maxDate>2013-01-14</maxDate>
    <latitude>59.7494</latitude>
    <longitude>-154.9089</longitude>
    <elevation>43.6</elevation>
    <locationLabels>
      <type>CNTRY</type>
      <id>FIPS:US</id>
      <displayName>United States</displayName>
    </locationLabels>
    <coverage>0.7556</coverage>
  </station>
  <station>
    <id>GHCND:US1COLG0031</id>
    <displayName>ILIFF 5.7 NNE, CO US</displayName>
    <minDate>2005-05-10</minDate>
    <maxDate>2008-05-04</maxDate>
    <latitude>40.8348</latitude>
    <longitude>-103.0177</longitude>
    <elevation>1196.9</elevation>
    <locationLabels>
      <type>CNTRY</type>
      <id>FIPS:US</id>
      <displayName>United States</displayName>
    </locationLabels>
    <coverage>0.6563</coverage>
  </station>
  <station>
    <id>GHCND:US1COLG0048</id>
    <displayName>ILIFF 8.0 N, CO US</displayName>
    <minDate>2011-06-24</minDate>
    <maxDate>2012-10-05</maxDate>
    <latitude>40.8736</latitude>
    <longitude>-103.0571</longitude>
    <elevation>1238.1</elevation>
    <locationLabels>
      <type>CNTRY</type>
      <id>FIPS:US</id>
      <displayName>United States</displayName>
    </locationLabels>
    <coverage>0.2681</coverage>
  </station>
  <station>
    <id>GHCND:USC00512222</id>
    <displayName>ILIILIULA INTK 1050, HI US</displayName>
    <minDate>1949-10-08</minDate>
    <maxDate>1987-01-31</maxDate>
    <latitude>22.03333</latitude>
    <longitude>-159.46667</longitude>
    <elevation>320</elevation>
    <locationLabels>
      <type>CNTRY</type>
      <id>FIPS:US</id>
      <displayName>United States</displayName>
    </locationLabels>
    <coverage>0.7777</coverage>
  </station>
  <station>
    <id>GHCND:US1NYHR0004</id>
    <displayName>ILION 0.8 WNW, NY US</displayName>
    <minDate>2008-06-13</minDate>
    <maxDate>2012-12-22</maxDate>
    <latitude>43.0166</latitude>
    <longitude>-75.0553</longitude>
    <elevation>150.6</elevation>
    <locationLabels>
      <type>CNTRY</type>
      <id>FIPS:US</id>
      <displayName>United States</displayName>
    </locationLabels>
    <coverage>0.4323</coverage>
  </station>
  <station>
    <id>GHCND:USC00354133</id>
    <displayName>ILLAHE, OR US</displayName>
    <minDate>1938-10-01</minDate>
    <maxDate>2007-06-30</maxDate>
    <latitude>42.62861</latitude>
    <longitude>-124.0575</longitude>
    <elevation>106.1</elevation>
    <locationLabels>
      <type>CNTRY</type>
      <id>FIPS:US</id>
      <displayName>United States</displayName>
    </locationLabels>
    <coverage>0.9004</coverage>
  </station>
  <station>
    <id>GHCND:USC00354135</id>
    <displayName>ILLAHE, OR US</displayName>
    <minDate>1963-03-01</minDate>
    <maxDate>1967-05-31</maxDate>
    <latitude>42.62861</latitude>
    <longitude>-124.0575</longitude>
    <elevation>106.1</elevation>
    <locationLabels>
      <type>CNTRY</type>
      <id>FIPS:US</id>
      <displayName>United States</displayName>
    </locationLabels>
    <coverage>0.8796</coverage>
  </station>
  <station>
    <id>GHCND:USC00114355</id>
    <displayName>ILLINOIS CITY DAM 16, IL US</displayName>
    <minDate>1943-06-01</minDate>
    <maxDate>2013-01-16</maxDate>
    <latitude>41.4255</latitude>
    <longitude>-91.0094</longitude>
    <elevation>167.6</elevation>
    <locationLabels>
      <type>CNTRY</type>
      <id>FIPS:US</id>
      <displayName>United States</displayName>
    </locationLabels>
    <coverage>0.9727</coverage>
  </station>
  <station>
    <id>GHCND:USC00503908</id>
    <displayName>ILLINOIS CREEK, AK US</displayName>
    <minDate>1991-02-01</minDate>
    <maxDate>2004-11-30</maxDate>
    <latitude>64.05</latitude>
    <longitude>-157.83333</longitude>
    <elevation>298.7</elevation>
    <locationLabels>
      <type>CNTRY</type>
      <id>FIPS:US</id>
      <displayName>United States</displayName>
    </locationLabels>
    <coverage>0.596</coverage>
  </station>
  <station>
    <id>GHCND:USR0000OILL</id>
    <displayName>ILLINOIS VALLEY AIRPORT OREGON, OR US</displayName>
    <minDate>1985-01-23</minDate>
    <maxDate>2012-08-31</maxDate>
    <latitude>42.1039</latitude>
    <longitude>-123.6853</longitude>
    <elevation>423.4</elevation>
    <locationLabels>
      <type>CNTRY</type>
      <id>FIPS:US</id>
      <displayName>United States</displayName>
    </locationLabels>
    <coverage>0.959</coverage>
  </station>
  <station>
    <id>GHCND:USC00294296</id>
    <displayName>IMA, NM US</displayName>
    <minDate>1915-10-01</minDate>
    <maxDate>1917-03-26</maxDate>
    <latitude>34.916667</latitude>
    <longitude>-104.066667</longitude>
    <elevation>1615.4</elevation>
    <locationLabels>
      <type>CNTRY</type>
      <id>FIPS:US</id>
      <displayName>United States</displayName>
    </locationLabels>
    <coverage>0.3112</coverage>
  </station>
  <station>
    <id>GHCND:US1ARRN0003</id>
    <displayName>IMBODEN 6.8 NE, AR US</displayName>
    <minDate>2012-04-24</minDate>
    <maxDate>2012-12-31</maxDate>
    <latitude>36.2704</latitude>
    <longitude>-91.0911</longitude>
    <elevation>100.9</elevation>
    <locationLabels>
      <type>CNTRY</type>
      <id>FIPS:US</id>
      <displayName>United States</displayName>
    </locationLabels>
    <coverage>0.8056</coverage>
  </station>
  <station>
    <id>GHCND:USC00484799</id>
    <displayName>IML AIR SCIENCE, WY US</displayName>
    <minDate>2007-04-01</minDate>
    <maxDate>2013-01-16</maxDate>
    <latitude>44.7812</latitude>
    <longitude>-106.9644</longitude>
    <elevation>1174.4</elevation>
    <locationLabels>
      <type>CNTRY</type>
      <id>FIPS:US</id>
      <displayName>United States</displayName>
    </locationLabels>
    <coverage>0.9046</coverage>
  </station>
  <station>
    <id>GHCND:USC00263957</id>
    <displayName>IMLAY, NV US</displayName>
    <minDate>1914-03-01</minDate>
    <maxDate>2012-12-31</maxDate>
    <latitude>40.6564</latitude>
    <longitude>-118.1631</longitude>
    <elevation>1298.4</elevation>
    <locationLabels>
      <type>CNTRY</type>
      <id>FIPS:US</id>
      <displayName>United States</displayName>
    </locationLabels>
    <coverage>0.897</coverage>
  </station>
  <station>
    <id>GHCND:USR0000NIMM</id>
    <displayName>IMMIGRATION WASH NEVADA, NV US</displayName>
    <minDate>1990-06-12</minDate>
    <maxDate>2012-08-31</maxDate>
    <latitude>37.9214</latitude>
    <longitude>-114.1597</longitude>
    <elevation>1898.9</elevation>
    <locationLabels>
      <type>CNTRY</type>
      <id>FIPS:US</id>
      <displayName>United States</displayName>
    </locationLabels>
    <coverage>0.969</coverage>
  </station>
  <station>
    <id>GHCND:US1FLCR0005</id>
    <displayName>IMMOKALEE 10.9 SW, FL US</displayName>
    <minDate>2007-10-06</minDate>
    <maxDate>2008-10-25</maxDate>
    <latitude>26.3183</latitude>
    <longitude>-81.5592</longitude>
    <elevation>4</elevation>
    <locationLabels>
      <type>CNTRY</type>
      <id>FIPS:US</id>
      <displayName>United States</displayName>
    </locationLabels>
    <coverage>0.3601</coverage>
  </station>
  <station>
    <id>GHCND:USC00084210</id>
    <displayName>IMMOKALEE, FL US</displayName>
    <minDate>1970-06-01</minDate>
    <maxDate>2013-01-15</maxDate>
    <latitude>26.46222</latitude>
    <longitude>-81.44056</longitude>
    <elevation>10.7</elevation>
    <locationLabels>
      <type>CNTRY</type>
      <id>FIPS:US</id>
      <displayName>United States</displayName>
    </locationLabels>
    <coverage>0.8894</coverage>
  </station>
  <station>
    <id>GHCND:USC00354149</id>
    <displayName>IMNAHA 2, OR US</displayName>
    <minDate>1962-02-08</minDate>
    <maxDate>1965-08-31</maxDate>
    <latitude>45.56667</latitude>
    <longitude>-116.83333</longitude>
    <elevation>604.1</elevation>
    <locationLabels>
      <type>CNTRY</type>
      <id>FIPS:US</id>
      <displayName>United States</displayName>
    </locationLabels>
    <coverage>0.5604</coverage>
  </station>
  <station>
    <id>GHCND:USC00354151</id>
    <displayName>IMNAHA 5 N, OR US</displayName>
    <minDate>1969-09-01</minDate>
    <maxDate>1974-12-31</maxDate>
    <latitude>45.63333</latitude>
    <longitude>-116.85</longitude>
    <elevation>537.1</elevation>
    <locationLabels>
      <type>CNTRY</type>
      <id>FIPS:US</id>
      <displayName>United States</displayName>
    </locationLabels>
    <coverage>0.999</coverage>
  </station>
  <station>
    <id>GHCND:USC00354147</id>
    <displayName>IMNAHA, OR US</displayName>
    <minDate>1950-02-01</minDate>
    <maxDate>1951-09-30</maxDate>
    <latitude>45.5622</latitude>
    <longitude>-116.8331</longitude>
    <elevation>599.8</elevation>
    <locationLabels>
      <type>CNTRY</type>
      <id>FIPS:US</id>
      <displayName>United States</displayName>
    </locationLabels>
    <coverage>0.9703</coverage>
  </station>
</stationCollection>
