<?xml version="1.0" encoding="UTF-8" standalone="yes"?>
<stationCollection totalCount="46020" pageCount="461" pageSize="100" page="162">
  <station>
    <id>GHCND:US1NCBK0004</id>
    <displayName>GLEN ALPINE 0.7 WSW, NC US</displayName>
    <minDate>2010-04-03</minDate>
    <maxDate>2013-01-16</maxDate>
    <latitude>35.7266</latitude>
    <longitude>-81.7902</longitude>
    <elevation>384.7</elevation>
    <locationLabels>
      <type>CNTRY</type>
      <id>FIPS:US</id>
      <displayName>United States</displayName>
    </locationLabels>
    <coverage>0.9931</coverage>
  </station>
  <station>
    <id>GHCND:US1NCBK0002</id>
    <displayName>GLEN ALPINE 2.8 S, NC US</displayName>
    <minDate>2007-10-05</minDate>
    <maxDate>2013-01-16</maxDate>
    <latitude>35.6887</latitude>
    <longitude>-81.786</longitude>
    <elevation>343.8</elevation>
    <locationLabels>
      <type>CNTRY</type>
      <id>FIPS:US</id>
      <displayName>United States</displayName>
    </locationLabels>
    <coverage>0.5474</coverage>
  </station>
  <station>
    <id>GHCND:USC00503299</id>
    <displayName>GLEN ALPS, AK US</displayName>
    <minDate>1971-01-28</minDate>
    <maxDate>2012-11-30</maxDate>
    <latitude>61.1</latitude>
    <longitude>-149.6936</longitude>
    <elevation>671.2</elevation>
    <locationLabels>
      <type>CNTRY</type>
      <id>FIPS:US</id>
      <displayName>United States</displayName>
    </locationLabels>
    <coverage>0.879</coverage>
  </station>
  <station>
    <id>GHCND:USC00203176</id>
    <displayName>GLEN ARBOR 4 NE, MI US</displayName>
    <minDate>1954-09-01</minDate>
    <maxDate>1958-11-30</maxDate>
    <latitude>44.93333</latitude>
    <longitude>-85.91667</longitude>
    <elevation>192</elevation>
    <locationLabels>
      <type>CNTRY</type>
      <id>FIPS:US</id>
      <displayName>United States</displayName>
    </locationLabels>
    <coverage>1</coverage>
  </station>
  <station>
    <id>GHCND:USC00203178</id>
    <displayName>GLEN ARBOR LEELANAU SCHOOL, MI US</displayName>
    <minDate>1948-05-01</minDate>
    <maxDate>1954-08-31</maxDate>
    <latitude>44.91667</latitude>
    <longitude>-85.96667</longitude>
    <elevation>184.7</elevation>
    <locationLabels>
      <type>CNTRY</type>
      <id>FIPS:US</id>
      <displayName>United States</displayName>
    </locationLabels>
    <coverage>0.9814</coverage>
  </station>
  <station>
    <id>GHCND:USC00053331</id>
    <displayName>GLEN COMFORT, CO US</displayName>
    <minDate>1995-04-01</minDate>
    <maxDate>1999-03-12</maxDate>
    <latitude>40.38972</latitude>
    <longitude>-105.45028</longitude>
    <elevation>2240.3</elevation>
    <locationLabels>
      <type>CNTRY</type>
      <id>FIPS:US</id>
      <displayName>United States</displayName>
    </locationLabels>
    <coverage>0.9861</coverage>
  </station>
  <station>
    <id>GHCND:USC00413579</id>
    <displayName>GLEN COVE 2 NE, TX US</displayName>
    <minDate>2001-10-01</minDate>
    <maxDate>2013-01-10</maxDate>
    <latitude>31.8772</latitude>
    <longitude>-99.6291</longitude>
    <elevation>637</elevation>
    <locationLabels>
      <type>CNTRY</type>
      <id>FIPS:US</id>
      <displayName>United States</displayName>
    </locationLabels>
    <coverage>0.9485</coverage>
  </station>
  <station>
    <id>GHCND:USS0005L11S</id>
    <displayName>GLEN COVE, CO US</displayName>
    <minDate>2004-08-02</minDate>
    <maxDate>2013-01-13</maxDate>
    <latitude>38.8833</latitude>
    <longitude>-105.1</longitude>
    <elevation>3493</elevation>
    <locationLabels>
      <type>CNTRY</type>
      <id>FIPS:US</id>
      <displayName>United States</displayName>
    </locationLabels>
    <coverage>0.9394</coverage>
  </station>
  <station>
    <id>GHCND:USC00173137</id>
    <displayName>GLEN COVE, ME US</displayName>
    <minDate>1948-06-01</minDate>
    <maxDate>1948-11-30</maxDate>
    <latitude>44.13333</latitude>
    <longitude>-69.1</longitude>
    <elevation>11.9</elevation>
    <locationLabels>
      <type>CNTRY</type>
      <id>FIPS:US</id>
      <displayName>United States</displayName>
    </locationLabels>
    <coverage>0.9781</coverage>
  </station>
  <station>
    <id>GHCND:USC00143100</id>
    <displayName>GLEN ELDER LAKE, KS US</displayName>
    <minDate>1964-08-06</minDate>
    <maxDate>2012-11-30</maxDate>
    <latitude>39.5038</latitude>
    <longitude>-98.315</longitude>
    <elevation>457.2</elevation>
    <locationLabels>
      <type>CNTRY</type>
      <id>FIPS:US</id>
      <displayName>United States</displayName>
    </locationLabels>
    <coverage>0.9777</coverage>
  </station>
  <station>
    <id>GHCND:US1CASN0080</id>
    <displayName>GLEN ELLEN 1.5 N, CA US</displayName>
    <minDate>2009-04-07</minDate>
    <maxDate>2013-01-16</maxDate>
    <latitude>38.3778</latitude>
    <longitude>-122.5343</longitude>
    <elevation>102.7</elevation>
    <locationLabels>
      <type>CNTRY</type>
      <id>FIPS:US</id>
      <displayName>United States</displayName>
    </locationLabels>
    <coverage>0.987</coverage>
  </station>
  <station>
    <id>GHCND:US1CASN0070</id>
    <displayName>GLEN ELLEN 1.9 WNW, CA US</displayName>
    <minDate>2009-02-25</minDate>
    <maxDate>2013-01-16</maxDate>
    <latitude>38.3651</latitude>
    <longitude>-122.5718</longitude>
    <elevation>291.4</elevation>
    <locationLabels>
      <type>CNTRY</type>
      <id>FIPS:US</id>
      <displayName>United States</displayName>
    </locationLabels>
    <coverage>0.9768</coverage>
  </station>
  <station>
    <id>GHCND:US1ILDP0060</id>
    <displayName>GLEN ELLYN 0.8 NW, IL US</displayName>
    <minDate>2008-04-07</minDate>
    <maxDate>2012-07-18</maxDate>
    <latitude>41.8739</latitude>
    <longitude>-88.0744</longitude>
    <elevation>235</elevation>
    <locationLabels>
      <type>CNTRY</type>
      <id>FIPS:US</id>
      <displayName>United States</displayName>
    </locationLabels>
    <coverage>0.8184</coverage>
  </station>
  <station>
    <id>GHCND:US1ILDP0069</id>
    <displayName>GLEN ELLYN 1.0 NE, IL US</displayName>
    <minDate>2008-05-01</minDate>
    <maxDate>2013-01-16</maxDate>
    <latitude>41.8786</latitude>
    <longitude>-88.0505</longitude>
    <elevation>220.1</elevation>
    <locationLabels>
      <type>CNTRY</type>
      <id>FIPS:US</id>
      <displayName>United States</displayName>
    </locationLabels>
    <coverage>0.8746</coverage>
  </station>
  <station>
    <id>GHCND:US1ILDP0104</id>
    <displayName>GLEN ELLYN 1.4 NNW, IL US</displayName>
    <minDate>2012-01-01</minDate>
    <maxDate>2012-11-12</maxDate>
    <latitude>41.8859</latitude>
    <longitude>-88.0707</longitude>
    <elevation>238</elevation>
    <locationLabels>
      <type>CNTRY</type>
      <id>FIPS:US</id>
      <displayName>United States</displayName>
    </locationLabels>
    <coverage>0.4826</coverage>
  </station>
  <station>
    <id>GHCND:US1ILDP0047</id>
    <displayName>GLEN ELLYN 1.4 SE, IL US</displayName>
    <minDate>2007-10-22</minDate>
    <maxDate>2013-01-16</maxDate>
    <latitude>41.8515</latitude>
    <longitude>-88.0453</longitude>
    <elevation>218.8</elevation>
    <locationLabels>
      <type>CNTRY</type>
      <id>FIPS:US</id>
      <displayName>United States</displayName>
    </locationLabels>
    <coverage>0.7832</coverage>
  </station>
  <station>
    <id>GHCND:US1ILDP0029</id>
    <displayName>GLEN ELLYN 1.6 SSE, IL US</displayName>
    <minDate>2007-03-28</minDate>
    <maxDate>2013-01-16</maxDate>
    <latitude>41.8441</latitude>
    <longitude>-88.0554</longitude>
    <elevation>226.2</elevation>
    <locationLabels>
      <type>CNTRY</type>
      <id>FIPS:US</id>
      <displayName>United States</displayName>
    </locationLabels>
    <coverage>0.8091</coverage>
  </station>
  <station>
    <id>GHCND:US1ILDP0081</id>
    <displayName>GLEN ELLYN 2.3 N, IL US</displayName>
    <minDate>2009-05-30</minDate>
    <maxDate>2012-03-15</maxDate>
    <latitude>41.8993</latitude>
    <longitude>-88.0604</longitude>
    <elevation>221.6</elevation>
    <locationLabels>
      <type>CNTRY</type>
      <id>FIPS:US</id>
      <displayName>United States</displayName>
    </locationLabels>
    <coverage>0.5916</coverage>
  </station>
  <station>
    <id>GHCND:USC00113490</id>
    <displayName>GLEN ELLYN 4 S, IL US</displayName>
    <minDate>2002-07-01</minDate>
    <maxDate>2013-01-15</maxDate>
    <latitude>41.8266</latitude>
    <longitude>-88.058</longitude>
    <elevation>208.8</elevation>
    <locationLabels>
      <type>CNTRY</type>
      <id>FIPS:US</id>
      <displayName>United States</displayName>
    </locationLabels>
    <coverage>0.9865</coverage>
  </station>
  <station>
    <id>GHCND:USC00473090</id>
    <displayName>GLEN FLORA, WI US</displayName>
    <minDate>1912-09-01</minDate>
    <maxDate>1917-04-30</maxDate>
    <latitude>45.5</latitude>
    <longitude>-90.91667</longitude>
    <elevation>449.6</elevation>
    <locationLabels>
      <type>CNTRY</type>
      <id>FIPS:US</id>
      <displayName>United States</displayName>
    </locationLabels>
    <coverage>0.889</coverage>
  </station>
  <station>
    <id>GHCND:US1COLR0206</id>
    <displayName>GLEN HAVEN 0.6 NW, CO US</displayName>
    <minDate>2000-04-30</minDate>
    <maxDate>2001-10-17</maxDate>
    <latitude>40.456</latitude>
    <longitude>-105.4566</longitude>
    <elevation>2243.9</elevation>
    <locationLabels>
      <type>CNTRY</type>
      <id>FIPS:US</id>
      <displayName>United States</displayName>
    </locationLabels>
    <coverage>0.2929</coverage>
  </station>
  <station>
    <id>GHCND:US1COLR0868</id>
    <displayName>GLEN HAVEN 1.2 N, CO US</displayName>
    <minDate>2009-12-18</minDate>
    <maxDate>2013-01-16</maxDate>
    <latitude>40.4666</latitude>
    <longitude>-105.4275</longitude>
    <elevation>2165</elevation>
    <locationLabels>
      <type>CNTRY</type>
      <id>FIPS:US</id>
      <displayName>United States</displayName>
    </locationLabels>
    <coverage>0.7931</coverage>
  </station>
  <station>
    <id>GHCND:US1COLR0201</id>
    <displayName>GLEN HAVEN 1.4 N, CO US</displayName>
    <minDate>2000-03-20</minDate>
    <maxDate>2003-09-13</maxDate>
    <latitude>40.4701</latitude>
    <longitude>-105.4493</longitude>
    <elevation>2303.1</elevation>
    <locationLabels>
      <type>CNTRY</type>
      <id>FIPS:US</id>
      <displayName>United States</displayName>
    </locationLabels>
    <coverage>0.4014</coverage>
  </station>
  <station>
    <id>GHCND:US1COLR0219</id>
    <displayName>GLEN HAVEN 1.5 NE, CO US</displayName>
    <minDate>2000-05-08</minDate>
    <maxDate>2004-10-16</maxDate>
    <latitude>40.4688</latitude>
    <longitude>-105.4361</longitude>
    <elevation>2222.9</elevation>
    <locationLabels>
      <type>CNTRY</type>
      <id>FIPS:US</id>
      <displayName>United States</displayName>
    </locationLabels>
    <coverage>0.1257</coverage>
  </station>
  <station>
    <id>GHCND:US1COLR0082</id>
    <displayName>GLEN HAVEN 1.6 NE, CO US</displayName>
    <minDate>2003-11-13</minDate>
    <maxDate>2012-10-25</maxDate>
    <latitude>40.4691</latitude>
    <longitude>-105.4271</longitude>
    <elevation>2222</elevation>
    <locationLabels>
      <type>CNTRY</type>
      <id>FIPS:US</id>
      <displayName>United States</displayName>
    </locationLabels>
    <coverage>0.1798</coverage>
  </station>
  <station>
    <id>GHCND:US1COLR0210</id>
    <displayName>GLEN HAVEN 1.7 NE, CO US</displayName>
    <minDate>2000-04-30</minDate>
    <maxDate>2001-07-16</maxDate>
    <latitude>40.4708</latitude>
    <longitude>-105.4364</longitude>
    <elevation>2222.9</elevation>
    <locationLabels>
      <type>CNTRY</type>
      <id>FIPS:US</id>
      <displayName>United States</displayName>
    </locationLabels>
    <coverage>0.6569</coverage>
  </station>
  <station>
    <id>GHCND:US1COLR0211</id>
    <displayName>GLEN HAVEN 1.8 NE, CO US</displayName>
    <minDate>2000-06-08</minDate>
    <maxDate>2004-06-10</maxDate>
    <latitude>40.4703</latitude>
    <longitude>-105.428</longitude>
    <elevation>2250</elevation>
    <locationLabels>
      <type>CNTRY</type>
      <id>FIPS:US</id>
      <displayName>United States</displayName>
    </locationLabels>
    <coverage>0.2507</coverage>
  </station>
  <station>
    <id>GHCND:US1COLR0205</id>
    <displayName>GLEN HAVEN 4 NW, CO US</displayName>
    <minDate>2000-05-01</minDate>
    <maxDate>2000-10-01</maxDate>
    <latitude>40.4898</latitude>
    <longitude>-105.5015</longitude>
    <elevation>2567.9</elevation>
    <locationLabels>
      <type>CNTRY</type>
      <id>FIPS:US</id>
      <displayName>United States</displayName>
    </locationLabels>
    <coverage>0.8766</coverage>
  </station>
  <station>
    <id>GHCND:US1COLR0216</id>
    <displayName>GLEN HAVEN 6.2 E, CO US</displayName>
    <minDate>2000-04-30</minDate>
    <maxDate>2002-10-02</maxDate>
    <latitude>40.4307</latitude>
    <longitude>-105.3402</longitude>
    <elevation>1891</elevation>
    <locationLabels>
      <type>CNTRY</type>
      <id>FIPS:US</id>
      <displayName>United States</displayName>
    </locationLabels>
    <coverage>0.167</coverage>
  </station>
  <station>
    <id>GHCND:US1COLR0217</id>
    <displayName>GLEN HAVEN 7.2 E, CO US</displayName>
    <minDate>2000-05-02</minDate>
    <maxDate>2001-12-07</maxDate>
    <latitude>40.4549</latitude>
    <longitude>-105.3142</longitude>
    <elevation>2129.9</elevation>
    <locationLabels>
      <type>CNTRY</type>
      <id>FIPS:US</id>
      <displayName>United States</displayName>
    </locationLabels>
    <coverage>0.7658</coverage>
  </station>
  <station>
    <id>GHCND:USC00363310</id>
    <displayName>GLEN HAZEL 1 NE DAM, PA US</displayName>
    <minDate>1948-08-01</minDate>
    <maxDate>1952-12-31</maxDate>
    <latitude>41.55</latitude>
    <longitude>-78.6</longitude>
    <elevation>470</elevation>
    <locationLabels>
      <type>CNTRY</type>
      <id>FIPS:US</id>
      <displayName>United States</displayName>
    </locationLabels>
    <coverage>0.9616</coverage>
  </station>
  <station>
    <id>GHCND:USC00363311</id>
    <displayName>GLEN HAZEL 2 NE DAM, PA US</displayName>
    <minDate>1942-09-11</minDate>
    <maxDate>2013-01-13</maxDate>
    <latitude>41.5631</latitude>
    <longitude>-78.6014</longitude>
    <elevation>524.3</elevation>
    <locationLabels>
      <type>CNTRY</type>
      <id>FIPS:US</id>
      <displayName>United States</displayName>
    </locationLabels>
    <coverage>0.9229</coverage>
  </station>
  <station>
    <id>GHCND:USC00363316</id>
    <displayName>GLEN HOPE, PA US</displayName>
    <minDate>1990-08-01</minDate>
    <maxDate>2001-09-30</maxDate>
    <latitude>40.8</latitude>
    <longitude>-78.5</longitude>
    <elevation>417.6</elevation>
    <locationLabels>
      <type>CNTRY</type>
      <id>FIPS:US</id>
      <displayName>United States</displayName>
    </locationLabels>
    <coverage>0.9814</coverage>
  </station>
  <station>
    <id>GHCND:USC00443397</id>
    <displayName>GLEN LYN, VA US</displayName>
    <minDate>1914-03-01</minDate>
    <maxDate>2006-07-31</maxDate>
    <latitude>37.3733</latitude>
    <longitude>-80.8597</longitude>
    <elevation>463.3</elevation>
    <locationLabels>
      <type>CNTRY</type>
      <id>FIPS:US</id>
      <displayName>United States</displayName>
    </locationLabels>
    <coverage>0.9517</coverage>
  </station>
  <station>
    <id>GHCND:USC00053345</id>
    <displayName>GLEN MAR, CO US</displayName>
    <minDate>1947-07-01</minDate>
    <maxDate>1951-05-31</maxDate>
    <latitude>39.78333</latitude>
    <longitude>-106.01667</longitude>
    <elevation>2649.9</elevation>
    <locationLabels>
      <type>CNTRY</type>
      <id>FIPS:US</id>
      <displayName>United States</displayName>
    </locationLabels>
    <coverage>0.8777</coverage>
  </station>
  <station>
    <id>GHCND:USC00293569</id>
    <displayName>GLEN RIO, NM US</displayName>
    <minDate>1922-04-01</minDate>
    <maxDate>1936-10-31</maxDate>
    <latitude>35.18333</latitude>
    <longitude>-103.05</longitude>
    <elevation>1177.1</elevation>
    <locationLabels>
      <type>CNTRY</type>
      <id>FIPS:US</id>
      <displayName>United States</displayName>
    </locationLabels>
    <coverage>0.9568</coverage>
  </station>
  <station>
    <id>GHCND:US1NJBG0017</id>
    <displayName>GLEN ROCK 0.7 SSE, NJ US</displayName>
    <minDate>2008-08-26</minDate>
    <maxDate>2013-01-16</maxDate>
    <latitude>40.9511</latitude>
    <longitude>-74.1183</longitude>
    <elevation>28</elevation>
    <locationLabels>
      <type>CNTRY</type>
      <id>FIPS:US</id>
      <displayName>United States</displayName>
    </locationLabels>
    <coverage>0.9128</coverage>
  </station>
  <station>
    <id>GHCND:US1PAYR0019</id>
    <displayName>GLEN ROCK 2.2 ESE, PA US</displayName>
    <minDate>2011-09-08</minDate>
    <maxDate>2013-01-11</maxDate>
    <latitude>39.7763</latitude>
    <longitude>-76.6958</longitude>
    <elevation>239.9</elevation>
    <locationLabels>
      <type>CNTRY</type>
      <id>FIPS:US</id>
      <displayName>United States</displayName>
    </locationLabels>
    <coverage>0.8476</coverage>
  </station>
  <station>
    <id>GHCND:USC00363330</id>
    <displayName>GLEN ROCK, PA US</displayName>
    <minDate>1948-05-01</minDate>
    <maxDate>1951-09-30</maxDate>
    <latitude>39.8</latitude>
    <longitude>-76.73333</longitude>
    <elevation>189</elevation>
    <locationLabels>
      <type>CNTRY</type>
      <id>FIPS:US</id>
      <displayName>United States</displayName>
    </locationLabels>
    <coverage>0.9599</coverage>
  </station>
  <station>
    <id>GHCND:USC00413591</id>
    <displayName>GLEN ROSE 2 W, TX US</displayName>
    <minDate>1963-12-01</minDate>
    <maxDate>2000-09-30</maxDate>
    <latitude>32.23417</latitude>
    <longitude>-97.78528</longitude>
    <elevation>199.6</elevation>
    <locationLabels>
      <type>CNTRY</type>
      <id>FIPS:US</id>
      <displayName>United States</displayName>
    </locationLabels>
    <coverage>0.9952</coverage>
  </station>
  <station>
    <id>GHCND:USC00083470</id>
    <displayName>GLEN ST MARY 1 W, FL US</displayName>
    <minDate>1919-12-17</minDate>
    <maxDate>2013-01-16</maxDate>
    <latitude>30.2717</latitude>
    <longitude>-82.1856</longitude>
    <elevation>39</elevation>
    <locationLabels>
      <type>CNTRY</type>
      <id>FIPS:US</id>
      <displayName>United States</displayName>
    </locationLabels>
    <coverage>0.9445</coverage>
  </station>
  <station>
    <id>GHCND:US1FLBK0006</id>
    <displayName>GLEN ST. MARY 1.7 N, FL US</displayName>
    <minDate>2009-10-22</minDate>
    <maxDate>2013-01-16</maxDate>
    <latitude>30.2985</latitude>
    <longitude>-82.1624</longitude>
    <elevation>36.3</elevation>
    <locationLabels>
      <type>CNTRY</type>
      <id>FIPS:US</id>
      <displayName>United States</displayName>
    </locationLabels>
    <coverage>0.9383</coverage>
  </station>
  <station>
    <id>GHCND:US1FLBK0005</id>
    <displayName>GLEN ST. MARY 4.4 SW, FL US</displayName>
    <minDate>2010-11-03</minDate>
    <maxDate>2012-10-08</maxDate>
    <latitude>30.237</latitude>
    <longitude>-82.2189</longitude>
    <elevation>39</elevation>
    <locationLabels>
      <type>CNTRY</type>
      <id>FIPS:US</id>
      <displayName>United States</displayName>
    </locationLabels>
    <coverage>0.7535</coverage>
  </station>
  <station>
    <id>GHCND:US1FLBK0004</id>
    <displayName>GLEN ST. MARY 6.6 NW, FL US</displayName>
    <minDate>2008-07-16</minDate>
    <maxDate>2012-03-13</maxDate>
    <latitude>30.3527</latitude>
    <longitude>-82.2226</longitude>
    <elevation>36.9</elevation>
    <locationLabels>
      <type>CNTRY</type>
      <id>FIPS:US</id>
      <displayName>United States</displayName>
    </locationLabels>
    <coverage>0.7046</coverage>
  </station>
  <station>
    <id>GHCND:US1NDMT0006</id>
    <displayName>GLEN ULLIN 0.3 NE, ND US</displayName>
    <minDate>2012-03-25</minDate>
    <maxDate>2012-12-09</maxDate>
    <latitude>46.8153</latitude>
    <longitude>-101.8281</longitude>
    <elevation>634.9</elevation>
    <locationLabels>
      <type>CNTRY</type>
      <id>FIPS:US</id>
      <displayName>United States</displayName>
    </locationLabels>
    <coverage>0.5154</coverage>
  </station>
  <station>
    <id>GHCND:USC00323501</id>
    <displayName>GLEN ULLIN 13 N, ND US</displayName>
    <minDate>1950-08-01</minDate>
    <maxDate>1958-05-31</maxDate>
    <latitude>47</latitude>
    <longitude>-101.78333</longitude>
    <elevation>677</elevation>
    <locationLabels>
      <type>CNTRY</type>
      <id>FIPS:US</id>
      <displayName>United States</displayName>
    </locationLabels>
    <coverage>0.6924</coverage>
  </station>
  <station>
    <id>GHCND:USC00323496</id>
    <displayName>GLEN ULLIN, ND US</displayName>
    <minDate>1948-08-01</minDate>
    <maxDate>2012-08-02</maxDate>
    <latitude>46.8116</latitude>
    <longitude>-101.8302</longitude>
    <elevation>636.4</elevation>
    <locationLabels>
      <type>CNTRY</type>
      <id>FIPS:US</id>
      <displayName>United States</displayName>
    </locationLabels>
    <coverage>0.4088</coverage>
  </station>
  <station>
    <id>GHCND:US1NYSV0009</id>
    <displayName>GLEN WILD 0.3 SSW, NY US</displayName>
    <minDate>2011-10-12</minDate>
    <maxDate>2012-10-03</maxDate>
    <latitude>41.6501</latitude>
    <longitude>-74.5884</longitude>
    <elevation>401.1</elevation>
    <locationLabels>
      <type>CNTRY</type>
      <id>FIPS:US</id>
      <displayName>United States</displayName>
    </locationLabels>
    <coverage>0.6453</coverage>
  </station>
  <station>
    <id>GHCND:USC00243570</id>
    <displayName>GLEN, MT US</displayName>
    <minDate>1958-04-01</minDate>
    <maxDate>2011-08-31</maxDate>
    <latitude>45.5262</latitude>
    <longitude>-112.7005</longitude>
    <elevation>1540.5</elevation>
    <locationLabels>
      <type>CNTRY</type>
      <id>FIPS:US</id>
      <displayName>United States</displayName>
    </locationLabels>
    <coverage>0.9491</coverage>
  </station>
  <station>
    <id>GHCND:USC00293565</id>
    <displayName>GLEN, NM US</displayName>
    <minDate>1905-12-27</minDate>
    <maxDate>1907-12-31</maxDate>
    <latitude>34.11667</latitude>
    <longitude>-104.3</longitude>
    <elevation>1064.7</elevation>
    <locationLabels>
      <type>CNTRY</type>
      <id>FIPS:US</id>
      <displayName>United States</displayName>
    </locationLabels>
    <coverage>0.9986</coverage>
  </station>
  <station>
    <id>GHCND:US1MOCY0006</id>
    <displayName>GLENAIRE 0.6 W, MO US</displayName>
    <minDate>2008-04-27</minDate>
    <maxDate>2013-01-15</maxDate>
    <latitude>39.2185</latitude>
    <longitude>-94.462</longitude>
    <elevation>249.9</elevation>
    <locationLabels>
      <type>CNTRY</type>
      <id>FIPS:US</id>
      <displayName>United States</displayName>
    </locationLabels>
    <coverage>0.7049</coverage>
  </station>
  <station>
    <id>GHCND:US1ILSG0031</id>
    <displayName>GLENARM 1.3 NW, IL US</displayName>
    <minDate>2009-12-07</minDate>
    <maxDate>2010-09-27</maxDate>
    <latitude>39.6384</latitude>
    <longitude>-89.6651</longitude>
    <elevation>179.2</elevation>
    <locationLabels>
      <type>CNTRY</type>
      <id>FIPS:US</id>
      <displayName>United States</displayName>
    </locationLabels>
    <coverage>0.739</coverage>
  </station>
  <station>
    <id>GHCND:USC00263205</id>
    <displayName>GLENBROOK, NV US</displayName>
    <minDate>1901-01-01</minDate>
    <maxDate>2013-01-15</maxDate>
    <latitude>39.0753</latitude>
    <longitude>-119.9411</longitude>
    <elevation>1935.5</elevation>
    <locationLabels>
      <type>CNTRY</type>
      <id>FIPS:US</id>
      <displayName>United States</displayName>
    </locationLabels>
    <coverage>0.6353</coverage>
  </station>
  <station>
    <id>GHCND:US1PALC0008</id>
    <displayName>GLENBURN 0.7 ESE, PA US</displayName>
    <minDate>2008-08-06</minDate>
    <maxDate>2012-11-28</maxDate>
    <latitude>41.5039</latitude>
    <longitude>-75.7239</longitude>
    <elevation>368.8</elevation>
    <locationLabels>
      <type>CNTRY</type>
      <id>FIPS:US</id>
      <displayName>United States</displayName>
    </locationLabels>
    <coverage>0.8312</coverage>
  </station>
  <station>
    <id>GHCND:USC00273415</id>
    <displayName>GLENCLIFF 2, NH US</displayName>
    <minDate>1978-05-01</minDate>
    <maxDate>2012-08-13</maxDate>
    <latitude>43.9847</latitude>
    <longitude>-71.8947</longitude>
    <elevation>329.2</elevation>
    <locationLabels>
      <type>CNTRY</type>
      <id>FIPS:US</id>
      <displayName>United States</displayName>
    </locationLabels>
    <coverage>0.9704</coverage>
  </station>
  <station>
    <id>GHCND:USC00273409</id>
    <displayName>GLENCLIFF, NH US</displayName>
    <minDate>1909-07-20</minDate>
    <maxDate>1954-04-30</maxDate>
    <latitude>43.98333</latitude>
    <longitude>-71.9</longitude>
    <elevation>502.9</elevation>
    <locationLabels>
      <type>CNTRY</type>
      <id>FIPS:US</id>
      <displayName>United States</displayName>
    </locationLabels>
    <coverage>0.9708</coverage>
  </station>
  <station>
    <id>GHCND:US1ILCK0053</id>
    <displayName>GLENCOE 0.1 NW, IL US</displayName>
    <minDate>2007-03-01</minDate>
    <maxDate>2012-12-24</maxDate>
    <latitude>42.1357</latitude>
    <longitude>-87.7654</longitude>
    <elevation>212.1</elevation>
    <locationLabels>
      <type>CNTRY</type>
      <id>FIPS:US</id>
      <displayName>United States</displayName>
    </locationLabels>
    <coverage>0.3373</coverage>
  </station>
  <station>
    <id>GHCND:US1MNMC0005</id>
    <displayName>GLENCOE 0.3 WSW, MN US</displayName>
    <minDate>2012-04-12</minDate>
    <maxDate>2013-01-16</maxDate>
    <latitude>44.7683</latitude>
    <longitude>-94.1558</longitude>
    <elevation>304.2</elevation>
    <locationLabels>
      <type>CNTRY</type>
      <id>FIPS:US</id>
      <displayName>United States</displayName>
    </locationLabels>
    <coverage>0.8321</coverage>
  </station>
  <station>
    <id>GHCND:USC00363295</id>
    <displayName>GLENCOE 1 E, PA US</displayName>
    <minDate>1982-11-01</minDate>
    <maxDate>2000-11-30</maxDate>
    <latitude>39.81667</latitude>
    <longitude>-78.83333</longitude>
    <elevation>576.1</elevation>
    <locationLabels>
      <type>CNTRY</type>
      <id>FIPS:US</id>
      <displayName>United States</displayName>
    </locationLabels>
    <coverage>0.9889</coverage>
  </station>
  <station>
    <id>GHCND:USC00363298</id>
    <displayName>GLENCOE 1 ENE, PA US</displayName>
    <minDate>1940-10-01</minDate>
    <maxDate>1951-09-28</maxDate>
    <latitude>39.81667</latitude>
    <longitude>-78.83333</longitude>
    <elevation>491</elevation>
    <locationLabels>
      <type>CNTRY</type>
      <id>FIPS:US</id>
      <displayName>United States</displayName>
    </locationLabels>
    <coverage>0.8944</coverage>
  </station>
  <station>
    <id>GHCND:US1OKNB0007</id>
    <displayName>GLENCOE 1.7 N, OK US</displayName>
    <minDate>2008-01-18</minDate>
    <maxDate>2013-01-16</maxDate>
    <latitude>36.25</latitude>
    <longitude>-96.927</longitude>
    <elevation>323.1</elevation>
    <locationLabels>
      <type>CNTRY</type>
      <id>FIPS:US</id>
      <displayName>United States</displayName>
    </locationLabels>
    <coverage>0.6944</coverage>
  </station>
  <station>
    <id>GHCND:US1OKPY0009</id>
    <displayName>GLENCOE 3.0 W, OK US</displayName>
    <minDate>2011-03-08</minDate>
    <maxDate>2013-01-16</maxDate>
    <latitude>36.2207</latitude>
    <longitude>-96.981</longitude>
    <elevation>299.3</elevation>
    <locationLabels>
      <type>CNTRY</type>
      <id>FIPS:US</id>
      <displayName>United States</displayName>
    </locationLabels>
    <coverage>0.9853</coverage>
  </station>
  <station>
    <id>GHCND:USC00343558</id>
    <displayName>GLENCOE NEAR SOIL CONSERVATION SERVICE NUMBER 6, OK US</displayName>
    <minDate>1942-01-01</minDate>
    <maxDate>1943-10-31</maxDate>
    <latitude>36.183333</latitude>
    <longitude>-96.9</longitude>
    <locationLabels>
      <type>CNTRY</type>
      <id>FIPS:US</id>
      <displayName>United States</displayName>
    </locationLabels>
    <coverage>0.9088</coverage>
  </station>
  <station>
    <id>GHCND:USC00213169</id>
    <displayName>GLENCOE, MN US</displayName>
    <minDate>1895-01-21</minDate>
    <maxDate>1921-05-31</maxDate>
    <latitude>44.75</latitude>
    <longitude>-94.13333</longitude>
    <elevation>306.6</elevation>
    <locationLabels>
      <type>CNTRY</type>
      <id>FIPS:US</id>
      <displayName>United States</displayName>
    </locationLabels>
    <coverage>0.9538</coverage>
  </station>
  <station>
    <id>GHCND:USC00233233</id>
    <displayName>GLENCOE, MO US</displayName>
    <minDate>1916-10-15</minDate>
    <maxDate>1920-06-02</maxDate>
    <latitude>38.544498</latitude>
    <longitude>-90.623737</longitude>
    <elevation>135</elevation>
    <locationLabels>
      <type>CNTRY</type>
      <id>FIPS:US</id>
      <displayName>United States</displayName>
    </locationLabels>
    <coverage>0.8764</coverage>
  </station>
  <station>
    <id>GHCND:USC00353297</id>
    <displayName>GLENCOE, OR US</displayName>
    <minDate>1910-04-01</minDate>
    <maxDate>1920-08-31</maxDate>
    <latitude>45.466667</latitude>
    <longitude>-119.75</longitude>
    <elevation>518.2</elevation>
    <locationLabels>
      <type>CNTRY</type>
      <id>FIPS:US</id>
      <displayName>United States</displayName>
    </locationLabels>
    <coverage>0.8621</coverage>
  </station>
  <station>
    <id>GHCND:USC00363293</id>
    <displayName>GLENCOE, PA US</displayName>
    <minDate>2001-07-01</minDate>
    <maxDate>2013-01-16</maxDate>
    <latitude>39.8255</latitude>
    <longitude>-78.83</longitude>
    <elevation>485.9</elevation>
    <locationLabels>
      <type>CNTRY</type>
      <id>FIPS:US</id>
      <displayName>United States</displayName>
    </locationLabels>
    <coverage>0.9877</coverage>
  </station>
  <station>
    <id>GHCND:US1AZMR0064</id>
    <displayName>GLENDALE 1.2 ESE, AZ US</displayName>
    <minDate>2009-09-23</minDate>
    <maxDate>2012-12-31</maxDate>
    <latitude>33.5752</latitude>
    <longitude>-112.1834</longitude>
    <elevation>361.5</elevation>
    <locationLabels>
      <type>CNTRY</type>
      <id>FIPS:US</id>
      <displayName>United States</displayName>
    </locationLabels>
    <coverage>0.7634</coverage>
  </station>
  <station>
    <id>GHCND:US1ORDG0011</id>
    <displayName>GLENDALE 1.6 SE, OR US</displayName>
    <minDate>2008-01-01</minDate>
    <maxDate>2009-09-23</maxDate>
    <latitude>42.7216</latitude>
    <longitude>-123.4044</longitude>
    <elevation>512.7</elevation>
    <locationLabels>
      <type>CNTRY</type>
      <id>FIPS:US</id>
      <displayName>United States</displayName>
    </locationLabels>
    <coverage>0.2848</coverage>
  </station>
  <station>
    <id>GHCND:US1AZMR0289</id>
    <displayName>GLENDALE 12.2 N, AZ US</displayName>
    <minDate>2010-02-27</minDate>
    <maxDate>2013-01-14</maxDate>
    <latitude>33.7062</latitude>
    <longitude>-112.1721</longitude>
    <elevation>428.5</elevation>
    <locationLabels>
      <type>CNTRY</type>
      <id>FIPS:US</id>
      <displayName>United States</displayName>
    </locationLabels>
    <coverage>0.8594</coverage>
  </station>
  <station>
    <id>GHCND:US1CALA0001</id>
    <displayName>GLENDALE 2.4 WSW, CA US</displayName>
    <minDate>2008-09-23</minDate>
    <maxDate>2013-01-14</maxDate>
    <latitude>34.1689</latitude>
    <longitude>-118.2947</longitude>
    <elevation>155.8</elevation>
    <locationLabels>
      <type>CNTRY</type>
      <id>FIPS:US</id>
      <displayName>United States</displayName>
    </locationLabels>
    <coverage>0.9975</coverage>
  </station>
  <station>
    <id>GHCND:US1AZMR0094</id>
    <displayName>GLENDALE 2.8 NNW, AZ US</displayName>
    <minDate>2009-10-18</minDate>
    <maxDate>2013-01-11</maxDate>
    <latitude>33.5933</latitude>
    <longitude>-112.1915</longitude>
    <elevation>364.5</elevation>
    <locationLabels>
      <type>CNTRY</type>
      <id>FIPS:US</id>
      <displayName>United States</displayName>
    </locationLabels>
    <coverage>0.9475</coverage>
  </station>
  <station>
    <id>GHCND:US1AZMR0226</id>
    <displayName>GLENDALE 3.0 NNE, AZ US</displayName>
    <minDate>2009-10-22</minDate>
    <maxDate>2013-01-16</maxDate>
    <latitude>33.5717</latitude>
    <longitude>-112.1637</longitude>
    <elevation>366.1</elevation>
    <locationLabels>
      <type>CNTRY</type>
      <id>FIPS:US</id>
      <displayName>United States</displayName>
    </locationLabels>
    <coverage>0.1978</coverage>
  </station>
  <station>
    <id>GHCND:US1AZMR0046</id>
    <displayName>GLENDALE 3.5 S, AZ US</displayName>
    <minDate>2010-01-16</minDate>
    <maxDate>2013-01-16</maxDate>
    <latitude>33.5339</latitude>
    <longitude>-112.1957</longitude>
    <elevation>347.2</elevation>
    <locationLabels>
      <type>CNTRY</type>
      <id>FIPS:US</id>
      <displayName>United States</displayName>
    </locationLabels>
    <coverage>0.9954</coverage>
  </station>
  <station>
    <id>GHCND:US1AZMR0231</id>
    <displayName>GLENDALE 4.1 N, AZ US</displayName>
    <minDate>2009-11-08</minDate>
    <maxDate>2011-05-27</maxDate>
    <latitude>33.5887</latitude>
    <longitude>-112.1892</longitude>
    <elevation>363.9</elevation>
    <locationLabels>
      <type>CNTRY</type>
      <id>FIPS:US</id>
      <displayName>United States</displayName>
    </locationLabels>
    <coverage>0.9894</coverage>
  </station>
  <station>
    <id>GHCND:US1ORDG0005</id>
    <displayName>GLENDALE 6 NE, OR US</displayName>
    <minDate>2007-12-19</minDate>
    <maxDate>2008-10-04</maxDate>
    <latitude>42.7783</latitude>
    <longitude>-123.3189</longitude>
    <elevation>488.3</elevation>
    <locationLabels>
      <type>CNTRY</type>
      <id>FIPS:US</id>
      <displayName>United States</displayName>
    </locationLabels>
    <coverage>0.6735</coverage>
  </station>
  <station>
    <id>GHCND:US1AZMR0160</id>
    <displayName>GLENDALE 6.9 N, AZ US</displayName>
    <minDate>2009-09-17</minDate>
    <maxDate>2013-01-16</maxDate>
    <latitude>33.6289</latitude>
    <longitude>-112.1605</longitude>
    <elevation>387.1</elevation>
    <locationLabels>
      <type>CNTRY</type>
      <id>FIPS:US</id>
      <displayName>United States</displayName>
    </locationLabels>
    <coverage>0.9622</coverage>
  </station>
  <station>
    <id>GHCND:US1AZMR0312</id>
    <displayName>GLENDALE 9.6 N, AZ US</displayName>
    <minDate>2010-07-30</minDate>
    <maxDate>2012-12-19</maxDate>
    <latitude>33.6694</latitude>
    <longitude>-112.1823</longitude>
    <elevation>391.4</elevation>
    <locationLabels>
      <type>CNTRY</type>
      <id>FIPS:US</id>
      <displayName>United States</displayName>
    </locationLabels>
    <coverage>0.3101</coverage>
  </station>
  <station>
    <id>GHCND:US1ILDP0015</id>
    <displayName>GLENDALE HEIGHTS 0.7 NNE, IL US</displayName>
    <minDate>2006-03-09</minDate>
    <maxDate>2008-12-19</maxDate>
    <latitude>41.9296</latitude>
    <longitude>-88.0751</longitude>
    <elevation>238</elevation>
    <locationLabels>
      <type>CNTRY</type>
      <id>FIPS:US</id>
      <displayName>United States</displayName>
    </locationLabels>
    <coverage>0.3884</coverage>
  </station>
  <station>
    <id>GHCND:USC00313455</id>
    <displayName>GLENDALE SPRINGS, NC US</displayName>
    <minDate>1943-01-01</minDate>
    <maxDate>1993-06-30</maxDate>
    <latitude>36.35</latitude>
    <longitude>-81.38333</longitude>
    <elevation>887</elevation>
    <locationLabels>
      <type>CNTRY</type>
      <id>FIPS:US</id>
      <displayName>United States</displayName>
    </locationLabels>
    <coverage>0.9696</coverage>
  </station>
  <station>
    <id>GHCND:USC00043450</id>
    <displayName>GLENDALE STAPENHORST, CA US</displayName>
    <minDate>1929-01-01</minDate>
    <maxDate>1971-08-31</maxDate>
    <latitude>34.15</latitude>
    <longitude>-118.26667</longitude>
    <elevation>161.8</elevation>
    <locationLabels>
      <type>CNTRY</type>
      <id>FIPS:US</id>
      <displayName>United States</displayName>
    </locationLabels>
    <coverage>0.6784</coverage>
  </station>
  <station>
    <id>GHCND:USC00153252</id>
    <displayName>GLENDALE, KY US</displayName>
    <minDate>1951-11-15</minDate>
    <maxDate>2012-06-01</maxDate>
    <latitude>37.6011</latitude>
    <longitude>-85.9066</longitude>
    <elevation>216.4</elevation>
    <locationLabels>
      <type>CNTRY</type>
      <id>FIPS:US</id>
      <displayName>United States</displayName>
    </locationLabels>
    <coverage>0.9546</coverage>
  </station>
  <station>
    <id>GHCND:USC00353305</id>
    <displayName>GLENDALE, OR US</displayName>
    <minDate>1904-07-01</minDate>
    <maxDate>1951-09-30</maxDate>
    <latitude>42.7422</latitude>
    <longitude>-123.4297</longitude>
    <elevation>422.1</elevation>
    <locationLabels>
      <type>CNTRY</type>
      <id>FIPS:US</id>
      <displayName>United States</displayName>
    </locationLabels>
    <coverage>0.2805</coverage>
  </station>
  <station>
    <id>GHCND:USC00053340</id>
    <displayName>GLENDEVEY, CO US</displayName>
    <minDate>1917-08-01</minDate>
    <maxDate>1958-06-30</maxDate>
    <latitude>40.8</latitude>
    <longitude>-105.88333</longitude>
    <elevation>2521.9</elevation>
    <locationLabels>
      <type>CNTRY</type>
      <id>FIPS:US</id>
      <displayName>United States</displayName>
    </locationLabels>
    <coverage>0.2087</coverage>
  </station>
  <station>
    <id>GHCND:US1MTDW0001</id>
    <displayName>GLENDIVE 0.6 SW, MT US</displayName>
    <minDate>2007-02-12</minDate>
    <maxDate>2008-01-14</maxDate>
    <latitude>47.1028</latitude>
    <longitude>-104.7179</longitude>
    <elevation>630.9</elevation>
    <locationLabels>
      <type>CNTRY</type>
      <id>FIPS:US</id>
      <displayName>United States</displayName>
    </locationLabels>
    <coverage>1</coverage>
  </station>
  <station>
    <id>GHCND:US1MTDW0006</id>
    <displayName>GLENDIVE 0.8 NNE, MT US</displayName>
    <minDate>2008-02-16</minDate>
    <maxDate>2009-10-12</maxDate>
    <latitude>47.1197</latitude>
    <longitude>-104.7031</longitude>
    <elevation>644</elevation>
    <locationLabels>
      <type>CNTRY</type>
      <id>FIPS:US</id>
      <displayName>United States</displayName>
    </locationLabels>
    <coverage>0.2645</coverage>
  </station>
  <station>
    <id>GHCND:US1MTDW0002</id>
    <displayName>GLENDIVE 16.9 WSW, MT US</displayName>
    <minDate>2007-04-24</minDate>
    <maxDate>2013-01-14</maxDate>
    <latitude>46.9926</latitude>
    <longitude>-105.0248</longitude>
    <elevation>807.1</elevation>
    <locationLabels>
      <type>CNTRY</type>
      <id>FIPS:US</id>
      <displayName>United States</displayName>
    </locationLabels>
    <coverage>0.989</coverage>
  </station>
  <station>
    <id>GHCND:US1MTDW0007</id>
    <displayName>GLENDIVE 2.2 W, MT US</displayName>
    <minDate>2010-06-17</minDate>
    <maxDate>2013-01-16</maxDate>
    <latitude>47.1053</latitude>
    <longitude>-104.7551</longitude>
    <elevation>641.9</elevation>
    <locationLabels>
      <type>CNTRY</type>
      <id>FIPS:US</id>
      <displayName>United States</displayName>
    </locationLabels>
    <coverage>0.9397</coverage>
  </station>
  <station>
    <id>GHCND:US1MTDW0004</id>
    <displayName>GLENDIVE 7.7 NNE, MT US</displayName>
    <minDate>2007-05-31</minDate>
    <maxDate>2012-09-17</maxDate>
    <latitude>47.2172</latitude>
    <longitude>-104.6666</longitude>
    <elevation>626.1</elevation>
    <locationLabels>
      <type>CNTRY</type>
      <id>FIPS:US</id>
      <displayName>United States</displayName>
    </locationLabels>
    <coverage>0.0847</coverage>
  </station>
  <station>
    <id>GHCND:USC00243593</id>
    <displayName>GLENDIVE WATER PLANT, MT US</displayName>
    <minDate>2011-01-01</minDate>
    <maxDate>2012-11-30</maxDate>
    <latitude>47.1056</latitude>
    <longitude>-104.719</longitude>
    <elevation>609.6</elevation>
    <locationLabels>
      <type>CNTRY</type>
      <id>FIPS:US</id>
      <displayName>United States</displayName>
    </locationLabels>
    <coverage>0.9614</coverage>
  </station>
  <station>
    <id>GHCND:USC00243581</id>
    <displayName>GLENDIVE, MT US</displayName>
    <minDate>1893-01-01</minDate>
    <maxDate>2013-01-15</maxDate>
    <latitude>47.1065</latitude>
    <longitude>-104.7183</longitude>
    <elevation>632.8</elevation>
    <locationLabels>
      <type>CNTRY</type>
      <id>FIPS:US</id>
      <displayName>United States</displayName>
    </locationLabels>
    <coverage>0.9769</coverage>
  </station>
  <station>
    <id>GHCND:US1WYPT0006</id>
    <displayName>GLENDO 2.9 SE, WY US</displayName>
    <minDate>2005-01-25</minDate>
    <maxDate>2006-07-04</maxDate>
    <latitude>42.4758</latitude>
    <longitude>-105.0721</longitude>
    <elevation>1439.9</elevation>
    <locationLabels>
      <type>CNTRY</type>
      <id>FIPS:US</id>
      <displayName>United States</displayName>
    </locationLabels>
    <coverage>0.7643</coverage>
  </station>
  <station>
    <id>GHCND:USC00483930</id>
    <displayName>GLENDO 4 SW, WY US</displayName>
    <minDate>1964-04-15</minDate>
    <maxDate>1978-04-30</maxDate>
    <latitude>42.45</latitude>
    <longitude>-105.08333</longitude>
    <elevation>1449</elevation>
    <locationLabels>
      <type>CNTRY</type>
      <id>FIPS:US</id>
      <displayName>United States</displayName>
    </locationLabels>
    <coverage>0.9821</coverage>
  </station>
  <station>
    <id>GHCND:USC00483936</id>
    <displayName>GLENDO 6 NE, WY US</displayName>
    <minDate>2005-03-01</minDate>
    <maxDate>2013-01-15</maxDate>
    <latitude>42.5283</latitude>
    <longitude>-104.9152</longitude>
    <elevation>1444.4</elevation>
    <locationLabels>
      <type>CNTRY</type>
      <id>FIPS:US</id>
      <displayName>United States</displayName>
    </locationLabels>
    <coverage>0.9906</coverage>
  </station>
  <station>
    <id>GHCND:USC00483944</id>
    <displayName>GLENDO RSVR USBR, WY US</displayName>
    <minDate>2012-02-01</minDate>
    <maxDate>2012-11-30</maxDate>
    <latitude>42.4689</latitude>
    <longitude>-104.9658</longitude>
    <elevation>1456.9</elevation>
    <locationLabels>
      <type>CNTRY</type>
      <id>FIPS:US</id>
      <displayName>United States</displayName>
    </locationLabels>
    <coverage>1</coverage>
  </station>
  <station>
    <id>GHCND:US1PANH0005</id>
    <displayName>GLENDON 3.5 S, PA US</displayName>
    <minDate>2008-07-02</minDate>
    <maxDate>2013-01-16</maxDate>
    <latitude>40.6114</latitude>
    <longitude>-75.2259</longitude>
    <elevation>103.3</elevation>
    <locationLabels>
      <type>CNTRY</type>
      <id>FIPS:US</id>
      <displayName>United States</displayName>
    </locationLabels>
    <coverage>0.9633</coverage>
  </station>
  <station>
    <id>GHCND:USC00203183</id>
    <displayName>GLENDORA 1 SSW, MI US</displayName>
    <minDate>1990-04-01</minDate>
    <maxDate>2006-10-24</maxDate>
    <latitude>41.86861</latitude>
    <longitude>-86.49417</longitude>
    <elevation>205.7</elevation>
    <locationLabels>
      <type>CNTRY</type>
      <id>FIPS:US</id>
      <displayName>United States</displayName>
    </locationLabels>
    <coverage>0.1519</coverage>
  </station>
  <station>
    <id>GHCND:USC00043452</id>
    <displayName>GLENDORA FC 287B, CA US</displayName>
    <minDate>1895-01-01</minDate>
    <maxDate>2011-02-28</maxDate>
    <latitude>34.1472</latitude>
    <longitude>-117.8472</longitude>
    <elevation>284.4</elevation>
    <locationLabels>
      <type>CNTRY</type>
      <id>FIPS:US</id>
      <displayName>United States</displayName>
    </locationLabels>
    <coverage>0.6265</coverage>
  </station>
  <station>
    <id>GHCND:USC00043451</id>
    <displayName>GLENDORA, CA US</displayName>
    <minDate>1917-01-01</minDate>
    <maxDate>1918-12-31</maxDate>
    <latitude>34.15</latitude>
    <longitude>-117.833333</longitude>
    <elevation>225.6</elevation>
    <locationLabels>
      <type>CNTRY</type>
      <id>FIPS:US</id>
      <displayName>United States</displayName>
    </locationLabels>
    <coverage>0.7534</coverage>
  </station>
  <station>
    <id>GHCND:US1COEP0247</id>
    <displayName>GLENEAGLE 0.3 S, CO US</displayName>
    <minDate>2011-06-30</minDate>
    <maxDate>2013-01-16</maxDate>
    <latitude>39.041</latitude>
    <longitude>-104.8241</longitude>
    <elevation>2108.3</elevation>
    <locationLabels>
      <type>CNTRY</type>
      <id>FIPS:US</id>
      <displayName>United States</displayName>
    </locationLabels>
    <coverage>0.9489</coverage>
  </station>
</stationCollection>
