<?xml version="1.0" encoding="UTF-8" standalone="yes"?>
<stationCollection totalCount="46020" pageCount="461" pageSize="100" page="55">
  <station>
    <id>GHCND:US1COCF0005</id>
    <displayName>BUENA VISTA 8.9 NNW, CO US</displayName>
    <minDate>2004-03-13</minDate>
    <maxDate>2012-12-18</maxDate>
    <latitude>38.9606</latitude>
    <longitude>-106.2029</longitude>
    <elevation>2582.9</elevation>
    <locationLabels>
      <type>CNTRY</type>
      <id>FIPS:US</id>
      <displayName>United States</displayName>
    </locationLabels>
    <coverage>0.5342</coverage>
  </station>
  <station>
    <id>GHCND:USC00351126</id>
    <displayName>BUENA VISTA H, OR US</displayName>
    <minDate>1942-01-01</minDate>
    <maxDate>1942-12-31</maxDate>
    <latitude>43.033333</latitude>
    <longitude>-119</longitude>
    <elevation>1258.8</elevation>
    <locationLabels>
      <type>CNTRY</type>
      <id>FIPS:US</id>
      <displayName>United States</displayName>
    </locationLabels>
    <coverage>1</coverage>
  </station>
  <station>
    <id>GHCND:USC00351124</id>
    <displayName>BUENA VISTA STATION, OR US</displayName>
    <minDate>1957-08-01</minDate>
    <maxDate>2001-08-31</maxDate>
    <latitude>43.06611</latitude>
    <longitude>-118.86833</longitude>
    <elevation>1260.3</elevation>
    <locationLabels>
      <type>CNTRY</type>
      <id>FIPS:US</id>
      <displayName>United States</displayName>
    </locationLabels>
    <coverage>0.8908</coverage>
  </station>
  <station>
    <id>GHCND:US1NJAT0001</id>
    <displayName>BUENA VISTA TWP 2.6 NNE, NJ US</displayName>
    <minDate>2008-03-21</minDate>
    <maxDate>2013-01-16</maxDate>
    <latitude>39.5483</latitude>
    <longitude>-74.8671</longitude>
    <elevation>31.4</elevation>
    <locationLabels>
      <type>CNTRY</type>
      <id>FIPS:US</id>
      <displayName>United States</displayName>
    </locationLabels>
    <coverage>0.9892</coverage>
  </station>
  <station>
    <id>GHCND:USC00351127</id>
    <displayName>BUENA VISTA U, OR US</displayName>
    <minDate>1909-05-01</minDate>
    <maxDate>1913-12-31</maxDate>
    <latitude>45.05</latitude>
    <longitude>-118.083333</longitude>
    <elevation>1127.8</elevation>
    <locationLabels>
      <type>CNTRY</type>
      <id>FIPS:US</id>
      <displayName>United States</displayName>
    </locationLabels>
    <coverage>0.9971</coverage>
  </station>
  <station>
    <id>GHCND:USC00041170</id>
    <displayName>BUENA VISTA, CA US</displayName>
    <minDate>1948-07-01</minDate>
    <maxDate>1951-09-30</maxDate>
    <latitude>36.76667</latitude>
    <longitude>-121.18333</longitude>
    <elevation>499.9</elevation>
    <locationLabels>
      <type>CNTRY</type>
      <id>FIPS:US</id>
      <displayName>United States</displayName>
    </locationLabels>
    <coverage>0.9621</coverage>
  </station>
  <station>
    <id>GHCND:USC00091372</id>
    <displayName>BUENA VISTA, GA US</displayName>
    <minDate>1944-01-01</minDate>
    <maxDate>2013-01-16</maxDate>
    <latitude>32.3179</latitude>
    <longitude>-84.5204</longitude>
    <elevation>196.9</elevation>
    <locationLabels>
      <type>CNTRY</type>
      <id>FIPS:US</id>
      <displayName>United States</displayName>
    </locationLabels>
    <coverage>0.7389</coverage>
  </station>
  <station>
    <id>GHCND:USC00441159</id>
    <displayName>BUENA VISTA, VA US</displayName>
    <minDate>1937-06-15</minDate>
    <maxDate>2013-01-16</maxDate>
    <latitude>37.7268</latitude>
    <longitude>-79.3629</longitude>
    <elevation>256</elevation>
    <locationLabels>
      <type>CNTRY</type>
      <id>FIPS:US</id>
      <displayName>United States</displayName>
    </locationLabels>
    <coverage>0.9068</coverage>
  </station>
  <station>
    <id>GHCND:USC00411185</id>
    <displayName>BUENAVISTA 2 NNW, TX US</displayName>
    <minDate>1912-06-01</minDate>
    <maxDate>1951-09-30</maxDate>
    <latitude>31.25</latitude>
    <longitude>-102.66667</longitude>
    <elevation>766</elevation>
    <locationLabels>
      <type>CNTRY</type>
      <id>FIPS:US</id>
      <displayName>United States</displayName>
    </locationLabels>
    <coverage>0.5503</coverage>
  </station>
  <station>
    <id>GHCND:USR0000BUES</id>
    <displayName>BUES CANYON UTAH, UT US</displayName>
    <minDate>1983-08-22</minDate>
    <maxDate>2012-08-31</maxDate>
    <latitude>41.15</latitude>
    <longitude>-111.9167</longitude>
    <elevation>1554.5</elevation>
    <locationLabels>
      <type>CNTRY</type>
      <id>FIPS:US</id>
      <displayName>United States</displayName>
    </locationLabels>
    <coverage>0.7778</coverage>
  </station>
  <station>
    <id>GHCND:USC00291269</id>
    <displayName>BUEYEROS 4 NW, NM US</displayName>
    <minDate>1929-07-01</minDate>
    <maxDate>1968-01-31</maxDate>
    <latitude>36.01667</latitude>
    <longitude>-103.73333</longitude>
    <elevation>1427.1</elevation>
    <locationLabels>
      <type>CNTRY</type>
      <id>FIPS:US</id>
      <displayName>United States</displayName>
    </locationLabels>
    <coverage>0.9144</coverage>
  </station>
  <station>
    <id>GHCND:US1NDCS0023</id>
    <displayName>BUFFALO 0.1 E, ND US</displayName>
    <minDate>2010-04-01</minDate>
    <maxDate>2012-08-07</maxDate>
    <latitude>46.9216</latitude>
    <longitude>-97.5479</longitude>
    <elevation>367.9</elevation>
    <locationLabels>
      <type>CNTRY</type>
      <id>FIPS:US</id>
      <displayName>United States</displayName>
    </locationLabels>
    <coverage>0.9</coverage>
  </station>
  <station>
    <id>GHCND:US1WYJN0020</id>
    <displayName>BUFFALO 0.4 NNE, WY US</displayName>
    <minDate>2009-06-17</minDate>
    <maxDate>2013-01-11</maxDate>
    <latitude>44.347</latitude>
    <longitude>-106.7133</longitude>
    <elevation>1432.6</elevation>
    <locationLabels>
      <type>CNTRY</type>
      <id>FIPS:US</id>
      <displayName>United States</displayName>
    </locationLabels>
    <coverage>0.8935</coverage>
  </station>
  <station>
    <id>GHCND:US1SDHR0009</id>
    <displayName>BUFFALO 0.4 WSW, SD US</displayName>
    <minDate>2007-06-01</minDate>
    <maxDate>2009-10-01</maxDate>
    <latitude>45.583</latitude>
    <longitude>-103.5499</longitude>
    <elevation>874.2</elevation>
    <locationLabels>
      <type>CNTRY</type>
      <id>FIPS:US</id>
      <displayName>United States</displayName>
    </locationLabels>
    <coverage>0.808</coverage>
  </station>
  <station>
    <id>GHCND:US1WYJN0003</id>
    <displayName>BUFFALO 0.7 W, WY US</displayName>
    <minDate>2005-01-05</minDate>
    <maxDate>2005-10-05</maxDate>
    <latitude>44.348</latitude>
    <longitude>-106.7135</longitude>
    <elevation>1434.1</elevation>
    <locationLabels>
      <type>CNTRY</type>
      <id>FIPS:US</id>
      <displayName>United States</displayName>
    </locationLabels>
    <coverage>0.3759</coverage>
  </station>
  <station>
    <id>GHCND:US1KYLA0003</id>
    <displayName>BUFFALO 0.8 ESE, KY US</displayName>
    <minDate>2011-08-21</minDate>
    <maxDate>2012-12-13</maxDate>
    <latitude>37.5078</latitude>
    <longitude>-85.6858</longitude>
    <elevation>252.7</elevation>
    <locationLabels>
      <type>CNTRY</type>
      <id>FIPS:US</id>
      <displayName>United States</displayName>
    </locationLabels>
    <coverage>0.7879</coverage>
  </station>
  <station>
    <id>GHCND:US1MODL0006</id>
    <displayName>BUFFALO 0.8 ESE, MO US</displayName>
    <minDate>2008-04-23</minDate>
    <maxDate>2012-09-02</maxDate>
    <latitude>37.6382</latitude>
    <longitude>-93.0822</longitude>
    <elevation>335.3</elevation>
    <locationLabels>
      <type>CNTRY</type>
      <id>FIPS:US</id>
      <displayName>United States</displayName>
    </locationLabels>
    <coverage>0.0652</coverage>
  </station>
  <station>
    <id>GHCND:US1SDHR0014</id>
    <displayName>BUFFALO 0.9 WSW, SD US</displayName>
    <minDate>2007-09-01</minDate>
    <maxDate>2008-09-11</maxDate>
    <latitude>45.5811</latitude>
    <longitude>-103.56</longitude>
    <elevation>871.1</elevation>
    <locationLabels>
      <type>CNTRY</type>
      <id>FIPS:US</id>
      <displayName>United States</displayName>
    </locationLabels>
    <coverage>0.5623</coverage>
  </station>
  <station>
    <id>GHCND:USC00341240</id>
    <displayName>BUFFALO 1 SW MESONET, OK US</displayName>
    <minDate>2009-02-01</minDate>
    <maxDate>2013-01-13</maxDate>
    <latitude>36.8313</latitude>
    <longitude>-99.641</longitude>
    <elevation>559</elevation>
    <locationLabels>
      <type>CNTRY</type>
      <id>FIPS:US</id>
      <displayName>United States</displayName>
    </locationLabels>
    <coverage>0.9314</coverage>
  </station>
  <station>
    <id>GHCND:US1MOFSA059</id>
    <displayName>BUFFALO 1.0 SW, MO US</displayName>
    <minDate>2006-05-01</minDate>
    <maxDate>2013-01-14</maxDate>
    <latitude>37.6322</latitude>
    <longitude>-93.1046</longitude>
    <elevation>359.1</elevation>
    <locationLabels>
      <type>CNTRY</type>
      <id>FIPS:US</id>
      <displayName>United States</displayName>
    </locationLabels>
    <coverage>0.9943</coverage>
  </station>
  <station>
    <id>GHCND:US1WYJN0021</id>
    <displayName>BUFFALO 1.1 SSW, WY US</displayName>
    <minDate>2010-06-15</minDate>
    <maxDate>2011-01-19</maxDate>
    <latitude>44.3266</latitude>
    <longitude>-106.725</longitude>
    <elevation>1462.7</elevation>
    <locationLabels>
      <type>CNTRY</type>
      <id>FIPS:US</id>
      <displayName>United States</displayName>
    </locationLabels>
    <coverage>0.5114</coverage>
  </station>
  <station>
    <id>GHCND:US1NYER0024</id>
    <displayName>BUFFALO 1.3 NW, NY US</displayName>
    <minDate>2009-06-03</minDate>
    <maxDate>2012-11-23</maxDate>
    <latitude>42.9017</latitude>
    <longitude>-78.8791</longitude>
    <elevation>198.1</elevation>
    <locationLabels>
      <type>CNTRY</type>
      <id>FIPS:US</id>
      <displayName>United States</displayName>
    </locationLabels>
    <coverage>0.6835</coverage>
  </station>
  <station>
    <id>GHCND:US1SCUN0003</id>
    <displayName>BUFFALO 1.5 NE, SC US</displayName>
    <minDate>2009-02-03</minDate>
    <maxDate>2010-09-29</maxDate>
    <latitude>34.7391</latitude>
    <longitude>-81.6637</longitude>
    <elevation>177.4</elevation>
    <locationLabels>
      <type>CNTRY</type>
      <id>FIPS:US</id>
      <displayName>United States</displayName>
    </locationLabels>
    <coverage>0.9007</coverage>
  </station>
  <station>
    <id>GHCND:US1NYER0002</id>
    <displayName>BUFFALO 1.5 S, NY US</displayName>
    <minDate>2007-09-16</minDate>
    <maxDate>2011-01-25</maxDate>
    <latitude>42.8685</latitude>
    <longitude>-78.8635</longitude>
    <elevation>178</elevation>
    <locationLabels>
      <type>CNTRY</type>
      <id>FIPS:US</id>
      <displayName>United States</displayName>
    </locationLabels>
    <coverage>0.7744</coverage>
  </station>
  <station>
    <id>GHCND:US1NYER0093</id>
    <displayName>BUFFALO 1.5 W, NY US</displayName>
    <minDate>2012-06-11</minDate>
    <maxDate>2013-01-10</maxDate>
    <latitude>42.889</latitude>
    <longitude>-78.8901</longitude>
    <elevation>178</elevation>
    <locationLabels>
      <type>CNTRY</type>
      <id>FIPS:US</id>
      <displayName>United States</displayName>
    </locationLabels>
    <coverage>0.6075</coverage>
  </station>
  <station>
    <id>GHCND:US1MTFG0003</id>
    <displayName>BUFFALO 1.7 E, MT US</displayName>
    <minDate>2010-05-04</minDate>
    <maxDate>2013-01-11</maxDate>
    <latitude>46.8201</latitude>
    <longitude>-109.7935</longitude>
    <elevation>1301.8</elevation>
    <locationLabels>
      <type>CNTRY</type>
      <id>FIPS:US</id>
      <displayName>United States</displayName>
    </locationLabels>
    <coverage>0.9024</coverage>
  </station>
  <station>
    <id>GHCND:USC00481170</id>
    <displayName>BUFFALO 11 NW, WY US</displayName>
    <minDate>1949-10-26</minDate>
    <maxDate>1954-05-31</maxDate>
    <latitude>44.48333</latitude>
    <longitude>-106.8</longitude>
    <elevation>1513</elevation>
    <locationLabels>
      <type>CNTRY</type>
      <id>FIPS:US</id>
      <displayName>United States</displayName>
    </locationLabels>
    <coverage>0.9988</coverage>
  </station>
  <station>
    <id>GHCND:USW00094081</id>
    <displayName>BUFFALO 13 ESE, SD US</displayName>
    <minDate>2004-09-23</minDate>
    <maxDate>2013-01-15</maxDate>
    <latitude>45.5160</latitude>
    <longitude>-103.3017</longitude>
    <elevation>878.7</elevation>
    <locationLabels>
      <type>CNTRY</type>
      <id>FIPS:US</id>
      <displayName>United States</displayName>
    </locationLabels>
    <coverage>0.9951</coverage>
  </station>
  <station>
    <id>GHCND:USC00481171</id>
    <displayName>BUFFALO 15 SW, WY US</displayName>
    <minDate>1962-06-01</minDate>
    <maxDate>1973-04-30</maxDate>
    <latitude>44.21667</latitude>
    <longitude>-106.91667</longitude>
    <elevation>2535</elevation>
    <locationLabels>
      <type>CNTRY</type>
      <id>FIPS:US</id>
      <displayName>United States</displayName>
    </locationLabels>
    <coverage>1</coverage>
  </station>
  <station>
    <id>GHCND:US1SDHR0012</id>
    <displayName>BUFFALO 19.2 N, SD US</displayName>
    <minDate>2007-05-31</minDate>
    <maxDate>2009-08-08</maxDate>
    <latitude>45.8642</latitude>
    <longitude>-103.5223</longitude>
    <elevation>944.9</elevation>
    <locationLabels>
      <type>CNTRY</type>
      <id>FIPS:US</id>
      <displayName>United States</displayName>
    </locationLabels>
    <coverage>0.4432</coverage>
  </station>
  <station>
    <id>GHCND:US1SDHR0003</id>
    <displayName>BUFFALO 19.4 SW, SD US</displayName>
    <minDate>2007-06-01</minDate>
    <maxDate>2012-10-24</maxDate>
    <latitude>45.4115</latitude>
    <longitude>-103.8558</longitude>
    <elevation>1060.1</elevation>
    <locationLabels>
      <type>CNTRY</type>
      <id>FIPS:US</id>
      <displayName>United States</displayName>
    </locationLabels>
    <coverage>0.3614</coverage>
  </station>
  <station>
    <id>GHCND:USC00481172</id>
    <displayName>BUFFALO 21 S, WY US</displayName>
    <minDate>1950-06-06</minDate>
    <maxDate>1958-06-30</maxDate>
    <latitude>44.06667</latitude>
    <longitude>-106.66667</longitude>
    <elevation>1457.9</elevation>
    <locationLabels>
      <type>CNTRY</type>
      <id>FIPS:US</id>
      <displayName>United States</displayName>
    </locationLabels>
    <coverage>0.9854</coverage>
  </station>
  <station>
    <id>GHCND:US1SDHR0011</id>
    <displayName>BUFFALO 24.4 NNE, SD US</displayName>
    <minDate>2007-06-01</minDate>
    <maxDate>2008-10-14</maxDate>
    <latitude>45.8848</latitude>
    <longitude>-103.2742</longitude>
    <elevation>914.1</elevation>
    <locationLabels>
      <type>CNTRY</type>
      <id>FIPS:US</id>
      <displayName>United States</displayName>
    </locationLabels>
    <coverage>0.4602</coverage>
  </station>
  <station>
    <id>GHCND:US1MODL0009</id>
    <displayName>BUFFALO 3.0 WNW, MO US</displayName>
    <minDate>2008-10-10</minDate>
    <maxDate>2009-02-20</maxDate>
    <latitude>37.6632</latitude>
    <longitude>-93.1431</longitude>
    <elevation>327.7</elevation>
    <locationLabels>
      <type>CNTRY</type>
      <id>FIPS:US</id>
      <displayName>United States</displayName>
    </locationLabels>
    <coverage>0.903</coverage>
  </station>
  <station>
    <id>GHCND:US1WYJN0014</id>
    <displayName>BUFFALO 4.1 SSW, WY US</displayName>
    <minDate>2007-01-01</minDate>
    <maxDate>2013-01-13</maxDate>
    <latitude>44.2839</latitude>
    <longitude>-106.7347</longitude>
    <elevation>1603.9</elevation>
    <locationLabels>
      <type>CNTRY</type>
      <id>FIPS:US</id>
      <displayName>United States</displayName>
    </locationLabels>
    <coverage>0.9283</coverage>
  </station>
  <station>
    <id>GHCND:US1NYER0095</id>
    <displayName>BUFFALO 4.3 N, NY US</displayName>
    <minDate>2012-07-17</minDate>
    <maxDate>2013-01-14</maxDate>
    <latitude>42.9508</latitude>
    <longitude>-78.8719</longitude>
    <elevation>183.5</elevation>
    <locationLabels>
      <type>CNTRY</type>
      <id>FIPS:US</id>
      <displayName>United States</displayName>
    </locationLabels>
    <coverage>0.9341</coverage>
  </station>
  <station>
    <id>GHCND:US1NYER0058</id>
    <displayName>BUFFALO 4.3 SE, NY US</displayName>
    <minDate>2009-09-01</minDate>
    <maxDate>2011-08-25</maxDate>
    <latitude>42.8421</latitude>
    <longitude>-78.8041</longitude>
    <elevation>185.9</elevation>
    <locationLabels>
      <type>CNTRY</type>
      <id>FIPS:US</id>
      <displayName>United States</displayName>
    </locationLabels>
    <coverage>0.3702</coverage>
  </station>
  <station>
    <id>GHCND:US1WYJN0010</id>
    <displayName>BUFFALO 4.6 E, WY US</displayName>
    <minDate>2005-06-17</minDate>
    <maxDate>2009-01-15</maxDate>
    <latitude>44.3338</latitude>
    <longitude>-106.6257</longitude>
    <elevation>1449.9</elevation>
    <locationLabels>
      <type>CNTRY</type>
      <id>FIPS:US</id>
      <displayName>United States</displayName>
    </locationLabels>
    <coverage>0.1207</coverage>
  </station>
  <station>
    <id>GHCND:US1MODL0005</id>
    <displayName>BUFFALO 4.6 WNW, MO US</displayName>
    <minDate>2007-06-13</minDate>
    <maxDate>2010-01-29</maxDate>
    <latitude>37.6753</latitude>
    <longitude>-93.169</longitude>
    <elevation>331.9</elevation>
    <locationLabels>
      <type>CNTRY</type>
      <id>FIPS:US</id>
      <displayName>United States</displayName>
    </locationLabels>
    <coverage>0.8607</coverage>
  </station>
  <station>
    <id>GHCND:USC00481160</id>
    <displayName>BUFFALO 5 W, WY US</displayName>
    <minDate>1940-06-01</minDate>
    <maxDate>1964-05-31</maxDate>
    <latitude>44.36667</latitude>
    <longitude>-106.8</longitude>
    <elevation>1598.1</elevation>
    <locationLabels>
      <type>CNTRY</type>
      <id>FIPS:US</id>
      <displayName>United States</displayName>
    </locationLabels>
    <coverage>0.9632</coverage>
  </station>
  <station>
    <id>GHCND:USC00481167</id>
    <displayName>BUFFALO 5 WSW, WY US</displayName>
    <minDate>2002-04-01</minDate>
    <maxDate>2012-11-30</maxDate>
    <latitude>44.3316</latitude>
    <longitude>-106.7983</longitude>
    <elevation>1671.8</elevation>
    <locationLabels>
      <type>CNTRY</type>
      <id>FIPS:US</id>
      <displayName>United States</displayName>
    </locationLabels>
    <coverage>0.9194</coverage>
  </station>
  <station>
    <id>GHCND:US1WYJN0008</id>
    <displayName>BUFFALO 7.3 NE, WY US</displayName>
    <minDate>2005-05-01</minDate>
    <maxDate>2013-01-01</maxDate>
    <latitude>44.4181</latitude>
    <longitude>-106.5889</longitude>
    <elevation>1330.1</elevation>
    <locationLabels>
      <type>CNTRY</type>
      <id>FIPS:US</id>
      <displayName>United States</displayName>
    </locationLabels>
    <coverage>0.6325</coverage>
  </station>
  <station>
    <id>GHCND:US1MODL0002</id>
    <displayName>BUFFALO 8.6 SSW, MO US</displayName>
    <minDate>2006-09-01</minDate>
    <maxDate>2009-11-20</maxDate>
    <latitude>37.5251</latitude>
    <longitude>-93.1409</longitude>
    <elevation>342.9</elevation>
    <locationLabels>
      <type>CNTRY</type>
      <id>FIPS:US</id>
      <displayName>United States</displayName>
    </locationLabels>
    <coverage>0.9371</coverage>
  </station>
  <station>
    <id>GHCND:US1SDHR0007</id>
    <displayName>BUFFALO 9.8 WSW, SD US</displayName>
    <minDate>2007-06-01</minDate>
    <maxDate>2008-08-03</maxDate>
    <latitude>45.5115</latitude>
    <longitude>-103.7158</longitude>
    <elevation>922.3</elevation>
    <locationLabels>
      <type>CNTRY</type>
      <id>FIPS:US</id>
      <displayName>United States</displayName>
    </locationLabels>
    <coverage>0.9372</coverage>
  </station>
  <station>
    <id>GHCND:USW00094037</id>
    <displayName>BUFFALO ASOS, SD US</displayName>
    <minDate>1998-04-16</minDate>
    <maxDate>2013-01-14</maxDate>
    <latitude>45.60444</latitude>
    <longitude>-103.54639</longitude>
    <elevation>915.6</elevation>
    <locationLabels>
      <type>CNTRY</type>
      <id>FIPS:US</id>
      <displayName>United States</displayName>
    </locationLabels>
    <coverage>0.9892</coverage>
  </station>
  <station>
    <id>GHCND:USC00481175</id>
    <displayName>BUFFALO BILL DAM, WY US</displayName>
    <minDate>1905-01-01</minDate>
    <maxDate>2012-12-31</maxDate>
    <latitude>44.5075</latitude>
    <longitude>-109.1675</longitude>
    <elevation>1577.3</elevation>
    <locationLabels>
      <type>CNTRY</type>
      <id>FIPS:US</id>
      <displayName>United States</displayName>
    </locationLabels>
    <coverage>0.8965</coverage>
  </station>
  <station>
    <id>GHCND:US1COJF0147</id>
    <displayName>BUFFALO CREEK 2.9 SSE, CO US</displayName>
    <minDate>2002-04-01</minDate>
    <maxDate>2012-12-25</maxDate>
    <latitude>39.3512</latitude>
    <longitude>-105.2418</longitude>
    <elevation>2311</elevation>
    <locationLabels>
      <type>CNTRY</type>
      <id>FIPS:US</id>
      <displayName>United States</displayName>
    </locationLabels>
    <coverage>0.7443</coverage>
  </station>
  <station>
    <id>GHCND:USR0000NBUF</id>
    <displayName>BUFFALO CREEK NEVADA, NV US</displayName>
    <minDate>1991-10-15</minDate>
    <maxDate>2012-08-31</maxDate>
    <latitude>40.5819</latitude>
    <longitude>-119.79</longitude>
    <elevation>851.6</elevation>
    <locationLabels>
      <type>CNTRY</type>
      <id>FIPS:US</id>
      <displayName>United States</displayName>
    </locationLabels>
    <coverage>0.9675</coverage>
  </station>
  <station>
    <id>GHCND:US1SDFR0004</id>
    <displayName>BUFFALO GAP 7.5 SE, SD US</displayName>
    <minDate>2007-06-11</minDate>
    <maxDate>2007-10-28</maxDate>
    <latitude>43.422</latitude>
    <longitude>-103.2</longitude>
    <elevation>933</elevation>
    <locationLabels>
      <type>CNTRY</type>
      <id>FIPS:US</id>
      <displayName>United States</displayName>
    </locationLabels>
    <coverage>0.8</coverage>
  </station>
  <station>
    <id>GHCND:USC00391124</id>
    <displayName>BUFFALO GAP, SD US</displayName>
    <minDate>1951-09-01</minDate>
    <maxDate>2006-02-28</maxDate>
    <latitude>43.4918</latitude>
    <longitude>-103.313</longitude>
    <elevation>971.7</elevation>
    <locationLabels>
      <type>CNTRY</type>
      <id>FIPS:US</id>
      <displayName>United States</displayName>
    </locationLabels>
    <coverage>0.9</coverage>
  </station>
  <station>
    <id>GHCND:US1ILLK0016</id>
    <displayName>BUFFALO GROVE 1.5 N, IL US</displayName>
    <minDate>2007-02-11</minDate>
    <maxDate>2013-01-16</maxDate>
    <latitude>42.188</latitude>
    <longitude>-87.959</longitude>
    <elevation>213.1</elevation>
    <locationLabels>
      <type>CNTRY</type>
      <id>FIPS:US</id>
      <displayName>United States</displayName>
    </locationLabels>
    <coverage>0.9202</coverage>
  </station>
  <station>
    <id>GHCND:USW00094054</id>
    <displayName>BUFFALO JOHNSON CO AIRPORT, WY US</displayName>
    <minDate>1998-08-01</minDate>
    <maxDate>2013-01-14</maxDate>
    <latitude>44.38139</latitude>
    <longitude>-106.72111</longitude>
    <elevation>1513.9</elevation>
    <locationLabels>
      <type>CNTRY</type>
      <id>FIPS:US</id>
      <displayName>United States</displayName>
    </locationLabels>
    <coverage>0.9894</coverage>
  </station>
  <station>
    <id>GHCND:USC00361087</id>
    <displayName>BUFFALO MILLS, PA US</displayName>
    <minDate>1924-08-01</minDate>
    <maxDate>2012-04-07</maxDate>
    <latitude>39.9459</latitude>
    <longitude>-78.6458</longitude>
    <elevation>399.3</elevation>
    <locationLabels>
      <type>CNTRY</type>
      <id>FIPS:US</id>
      <displayName>United States</displayName>
    </locationLabels>
    <coverage>0.9877</coverage>
  </station>
  <station>
    <id>GHCND:USC00391118</id>
    <displayName>BUFFALO NEAR, SD US</displayName>
    <minDate>1941-01-01</minDate>
    <maxDate>1944-01-31</maxDate>
    <latitude>45.383333</latitude>
    <longitude>-103.716667</longitude>
    <elevation>1066.8</elevation>
    <locationLabels>
      <type>CNTRY</type>
      <id>FIPS:US</id>
      <displayName>United States</displayName>
    </locationLabels>
    <coverage>0.6528</coverage>
  </station>
  <station>
    <id>GHCND:USW00014733</id>
    <displayName>BUFFALO NIAGARA INTERNATIONAL AIRPORT, NY US</displayName>
    <minDate>1938-05-01</minDate>
    <maxDate>2013-01-15</maxDate>
    <latitude>42.9408</latitude>
    <longitude>-78.7358</longitude>
    <elevation>214.9</elevation>
    <locationLabels>
      <type>CNTRY</type>
      <id>FIPS:US</id>
      <displayName>United States</displayName>
    </locationLabels>
    <coverage>0.9996</coverage>
  </station>
  <station>
    <id>GHCND:USC00301018</id>
    <displayName>BUFFALO NUMBER 2, NY US</displayName>
    <minDate>1937-01-01</minDate>
    <maxDate>1941-09-30</maxDate>
    <latitude>42.933333</latitude>
    <longitude>-78.9</longitude>
    <elevation>177.1</elevation>
    <locationLabels>
      <type>CNTRY</type>
      <id>FIPS:US</id>
      <displayName>United States</displayName>
    </locationLabels>
    <coverage>0.9942</coverage>
  </station>
  <station>
    <id>GHCND:USS0006J18S</id>
    <displayName>BUFFALO PARK, CO US</displayName>
    <minDate>1995-10-01</minDate>
    <maxDate>2013-01-13</maxDate>
    <latitude>40.2167</latitude>
    <longitude>-106.5833</longitude>
    <elevation>2816.4</elevation>
    <locationLabels>
      <type>CNTRY</type>
      <id>FIPS:US</id>
      <displayName>United States</displayName>
    </locationLabels>
    <coverage>0.9653</coverage>
  </station>
  <station>
    <id>GHCND:USC00021042</id>
    <displayName>BUFFALO RANCH, AZ US</displayName>
    <minDate>1959-07-23</minDate>
    <maxDate>1962-05-31</maxDate>
    <latitude>36.46667</latitude>
    <longitude>-111.95</longitude>
    <elevation>1726.1</elevation>
    <locationLabels>
      <type>CNTRY</type>
      <id>FIPS:US</id>
      <displayName>United States</displayName>
    </locationLabels>
    <coverage>0.9655</coverage>
  </station>
  <station>
    <id>GHCND:USC00261311</id>
    <displayName>BUFFALO RANCH, NV US</displayName>
    <minDate>1966-07-01</minDate>
    <maxDate>1981-08-31</maxDate>
    <latitude>40.38333</latitude>
    <longitude>-117.46667</longitude>
    <elevation>1655.1</elevation>
    <locationLabels>
      <type>CNTRY</type>
      <id>FIPS:US</id>
      <displayName>United States</displayName>
    </locationLabels>
    <coverage>0.8526</coverage>
  </station>
  <station>
    <id>GHCND:USC00341252</id>
    <displayName>BUFFALO T, OK US</displayName>
    <minDate>1893-05-19</minDate>
    <maxDate>1896-09-30</maxDate>
    <latitude>36.8</latitude>
    <longitude>-101.3</longitude>
    <locationLabels>
      <type>CNTRY</type>
      <id>FIPS:US</id>
      <displayName>United States</displayName>
    </locationLabels>
    <coverage>0.4671</coverage>
  </station>
  <station>
    <id>GHCND:USC00036078</id>
    <displayName>BUFFALO TOWER, AR US</displayName>
    <minDate>1948-01-01</minDate>
    <maxDate>1948-09-17</maxDate>
    <latitude>35.86667</latitude>
    <longitude>-93.5</longitude>
    <elevation>785.8</elevation>
    <locationLabels>
      <type>CNTRY</type>
      <id>FIPS:US</id>
      <displayName>United States</displayName>
    </locationLabels>
    <coverage>0.7854</coverage>
  </station>
  <station>
    <id>GHCND:USC00031010</id>
    <displayName>BUFFALO TOWER, AR US</displayName>
    <minDate>1948-10-09</minDate>
    <maxDate>1987-08-31</maxDate>
    <latitude>35.86667</latitude>
    <longitude>-93.5</longitude>
    <elevation>785.8</elevation>
    <locationLabels>
      <type>CNTRY</type>
      <id>FIPS:US</id>
      <displayName>United States</displayName>
    </locationLabels>
    <coverage>0.9623</coverage>
  </station>
  <station>
    <id>GHCND:USC00261313</id>
    <displayName>BUFFALO VALLEY, NV US</displayName>
    <minDate>1942-10-01</minDate>
    <maxDate>1944-02-29</maxDate>
    <latitude>40.333333</latitude>
    <longitude>-117.35</longitude>
    <elevation>1421.6</elevation>
    <locationLabels>
      <type>CNTRY</type>
      <id>FIPS:US</id>
      <displayName>United States</displayName>
    </locationLabels>
    <coverage>0.9362</coverage>
  </station>
  <station>
    <id>GHCND:USC00401215</id>
    <displayName>BUFFALO VALLEY, TN US</displayName>
    <minDate>1927-11-01</minDate>
    <maxDate>1939-09-30</maxDate>
    <latitude>36.15</latitude>
    <longitude>-85.75</longitude>
    <elevation>167.9</elevation>
    <locationLabels>
      <type>CNTRY</type>
      <id>FIPS:US</id>
      <displayName>United States</displayName>
    </locationLabels>
    <coverage>0.9915</coverage>
  </station>
  <station>
    <id>GHCND:USC00111083</id>
    <displayName>BUFFALO, IL US</displayName>
    <minDate>2000-08-01</minDate>
    <maxDate>2013-01-13</maxDate>
    <latitude>39.8563</latitude>
    <longitude>-89.4162</longitude>
    <elevation>182.9</elevation>
    <locationLabels>
      <type>CNTRY</type>
      <id>FIPS:US</id>
      <displayName>United States</displayName>
    </locationLabels>
    <coverage>0.9831</coverage>
  </station>
  <station>
    <id>GHCND:USC00211107</id>
    <displayName>BUFFALO, MN US</displayName>
    <minDate>1940-05-08</minDate>
    <maxDate>2012-12-28</maxDate>
    <latitude>45.1969</latitude>
    <longitude>-93.8399</longitude>
    <elevation>302.4</elevation>
    <locationLabels>
      <type>CNTRY</type>
      <id>FIPS:US</id>
      <displayName>United States</displayName>
    </locationLabels>
    <coverage>0.7666</coverage>
  </station>
  <station>
    <id>GHCND:USC00231087</id>
    <displayName>BUFFALO, MO US</displayName>
    <minDate>1931-03-01</minDate>
    <maxDate>2013-01-16</maxDate>
    <latitude>37.6666</latitude>
    <longitude>-93.1066</longitude>
    <elevation>331</elevation>
    <locationLabels>
      <type>CNTRY</type>
      <id>FIPS:US</id>
      <displayName>United States</displayName>
    </locationLabels>
    <coverage>0.9425</coverage>
  </station>
  <station>
    <id>GHCND:USC00241252</id>
    <displayName>BUFFALO, MT US</displayName>
    <minDate>1949-05-20</minDate>
    <maxDate>1958-06-30</maxDate>
    <latitude>46.81667</latitude>
    <longitude>-109.83333</longitude>
    <elevation>1314.9</elevation>
    <locationLabels>
      <type>CNTRY</type>
      <id>FIPS:US</id>
      <displayName>United States</displayName>
    </locationLabels>
    <coverage>0.8032</coverage>
  </station>
  <station>
    <id>GHCND:USC00301010</id>
    <displayName>BUFFALO, NY US</displayName>
    <minDate>1871-01-01</minDate>
    <maxDate>1944-05-31</maxDate>
    <latitude>42.88333</latitude>
    <longitude>-78.88333</longitude>
    <elevation>250.9</elevation>
    <locationLabels>
      <type>CNTRY</type>
      <id>FIPS:US</id>
      <displayName>United States</displayName>
    </locationLabels>
    <coverage>0.9977</coverage>
  </station>
  <station>
    <id>GHCND:USC00341243</id>
    <displayName>BUFFALO, OK US</displayName>
    <minDate>1907-02-17</minDate>
    <maxDate>2012-10-31</maxDate>
    <latitude>36.8002</latitude>
    <longitude>-99.6399</longitude>
    <elevation>588.6</elevation>
    <locationLabels>
      <type>CNTRY</type>
      <id>FIPS:US</id>
      <displayName>United States</displayName>
    </locationLabels>
    <coverage>0.9231</coverage>
  </station>
  <station>
    <id>GHCND:USC00391114</id>
    <displayName>BUFFALO, SD US</displayName>
    <minDate>1948-08-01</minDate>
    <maxDate>1951-09-30</maxDate>
    <latitude>45.59583</latitude>
    <longitude>-103.54528</longitude>
    <elevation>891.5</elevation>
    <locationLabels>
      <type>CNTRY</type>
      <id>FIPS:US</id>
      <displayName>United States</displayName>
    </locationLabels>
    <coverage>0.9524</coverage>
  </station>
  <station>
    <id>GHCND:USC00411188</id>
    <displayName>BUFFALO, TX US</displayName>
    <minDate>1940-02-15</minDate>
    <maxDate>1988-11-30</maxDate>
    <latitude>31.46667</latitude>
    <longitude>-96.05</longitude>
    <elevation>109.1</elevation>
    <locationLabels>
      <type>CNTRY</type>
      <id>FIPS:US</id>
      <displayName>United States</displayName>
    </locationLabels>
    <coverage>0.9671</coverage>
  </station>
  <station>
    <id>GHCND:USC00461231</id>
    <displayName>BUFFALO, WV US</displayName>
    <minDate>1995-11-01</minDate>
    <maxDate>1998-09-30</maxDate>
    <latitude>38.60833</latitude>
    <longitude>-81.98472</longitude>
    <elevation>176.8</elevation>
    <locationLabels>
      <type>CNTRY</type>
      <id>FIPS:US</id>
      <displayName>United States</displayName>
    </locationLabels>
    <coverage>0.9991</coverage>
  </station>
  <station>
    <id>GHCND:USC00481165</id>
    <displayName>BUFFALO, WY US</displayName>
    <minDate>1899-04-01</minDate>
    <maxDate>2013-01-16</maxDate>
    <latitude>44.3547</latitude>
    <longitude>-106.6991</longitude>
    <elevation>1414</elevation>
    <locationLabels>
      <type>CNTRY</type>
      <id>FIPS:US</id>
      <displayName>United States</displayName>
    </locationLabels>
    <coverage>0.7306</coverage>
  </station>
  <station>
    <id>GHCND:USC00190998</id>
    <displayName>BUFFUMVILLE LAKE, MA US</displayName>
    <minDate>1959-05-01</minDate>
    <maxDate>2013-01-15</maxDate>
    <latitude>42.1163</latitude>
    <longitude>-71.9074</longitude>
    <elevation>160</elevation>
    <locationLabels>
      <type>CNTRY</type>
      <id>FIPS:US</id>
      <displayName>United States</displayName>
    </locationLabels>
    <coverage>0.9491</coverage>
  </station>
  <station>
    <id>GHCND:US1GAGW0022</id>
    <displayName>BUFORD 4.3 WNW, GA US</displayName>
    <minDate>2009-01-25</minDate>
    <maxDate>2011-01-08</maxDate>
    <latitude>34.1496</latitude>
    <longitude>-84.0633</longitude>
    <elevation>350.2</elevation>
    <locationLabels>
      <type>CNTRY</type>
      <id>FIPS:US</id>
      <displayName>United States</displayName>
    </locationLabels>
    <coverage>0.5392</coverage>
  </station>
  <station>
    <id>GHCND:US1GAGW0006</id>
    <displayName>BUFORD 4.6 ESE, GA US</displayName>
    <minDate>2008-06-07</minDate>
    <maxDate>2013-01-16</maxDate>
    <latitude>34.0799</latitude>
    <longitude>-83.9313</longitude>
    <elevation>352.7</elevation>
    <locationLabels>
      <type>CNTRY</type>
      <id>FIPS:US</id>
      <displayName>United States</displayName>
    </locationLabels>
    <coverage>0.9258</coverage>
  </station>
  <station>
    <id>GHCND:USC00481139</id>
    <displayName>BUFORD 5 SE, WY US</displayName>
    <minDate>2005-06-01</minDate>
    <maxDate>2013-01-16</maxDate>
    <latitude>41.0705</latitude>
    <longitude>-105.2519</longitude>
    <elevation>2375.9</elevation>
    <locationLabels>
      <type>CNTRY</type>
      <id>FIPS:US</id>
      <displayName>United States</displayName>
    </locationLabels>
    <coverage>0.9781</coverage>
  </station>
  <station>
    <id>GHCND:USC00481141</id>
    <displayName>BUFORD 6 W, WY US</displayName>
    <minDate>2011-01-01</minDate>
    <maxDate>2012-11-30</maxDate>
    <latitude>41.1306</latitude>
    <longitude>-105.4042</longitude>
    <elevation>2499.4</elevation>
    <locationLabels>
      <type>CNTRY</type>
      <id>FIPS:US</id>
      <displayName>United States</displayName>
    </locationLabels>
    <coverage>0.8614</coverage>
  </station>
  <station>
    <id>GHCND:USC00151090</id>
    <displayName>BUFORD, KY US</displayName>
    <minDate>1989-01-01</minDate>
    <maxDate>2000-12-31</maxDate>
    <latitude>37.56667</latitude>
    <longitude>-87.96667</longitude>
    <elevation>143.3</elevation>
    <locationLabels>
      <type>CNTRY</type>
      <id>FIPS:US</id>
      <displayName>United States</displayName>
    </locationLabels>
    <coverage>0.9929</coverage>
  </station>
  <station>
    <id>GHCND:USC00321144</id>
    <displayName>BUFORD, ND US</displayName>
    <minDate>1905-05-01</minDate>
    <maxDate>1918-08-31</maxDate>
    <latitude>48</latitude>
    <longitude>-104</longitude>
    <elevation>594.4</elevation>
    <locationLabels>
      <type>CNTRY</type>
      <id>FIPS:US</id>
      <displayName>United States</displayName>
    </locationLabels>
    <coverage>0.9633</coverage>
  </station>
  <station>
    <id>GHCND:USS0011H37S</id>
    <displayName>BUG LAKE, UT US</displayName>
    <minDate>1978-10-01</minDate>
    <maxDate>2013-01-13</maxDate>
    <latitude>41.6833</latitude>
    <longitude>-111.4167</longitude>
    <elevation>2423.2</elevation>
    <locationLabels>
      <type>CNTRY</type>
      <id>FIPS:US</id>
      <displayName>United States</displayName>
    </locationLabels>
    <coverage>0.9097</coverage>
  </station>
  <station>
    <id>GHCND:US1IDTF0003</id>
    <displayName>BUHL 2.9 NNW, ID US</displayName>
    <minDate>2009-06-14</minDate>
    <maxDate>2013-01-12</maxDate>
    <latitude>42.638</latitude>
    <longitude>-114.783</longitude>
    <elevation>994.3</elevation>
    <locationLabels>
      <type>CNTRY</type>
      <id>FIPS:US</id>
      <displayName>United States</displayName>
    </locationLabels>
    <coverage>0.8396</coverage>
  </station>
  <station>
    <id>GHCND:US1IDTF0002</id>
    <displayName>BUHL 6.7 SSE, ID US</displayName>
    <minDate>2009-02-04</minDate>
    <maxDate>2011-12-05</maxDate>
    <latitude>42.517</latitude>
    <longitude>-114.6877</longitude>
    <elevation>1250.9</elevation>
    <locationLabels>
      <type>CNTRY</type>
      <id>FIPS:US</id>
      <displayName>United States</displayName>
    </locationLabels>
    <coverage>0.9565</coverage>
  </station>
  <station>
    <id>GHCND:USC00101220</id>
    <displayName>BUHL NUMBER 2, ID US</displayName>
    <minDate>1978-01-01</minDate>
    <maxDate>2013-01-15</maxDate>
    <latitude>42.6006</latitude>
    <longitude>-114.7453</longitude>
    <elevation>1158.2</elevation>
    <locationLabels>
      <type>CNTRY</type>
      <id>FIPS:US</id>
      <displayName>United States</displayName>
    </locationLabels>
    <coverage>0.9773</coverage>
  </station>
  <station>
    <id>GHCND:USC00101217</id>
    <displayName>BUHL NUMBER 2, ID US</displayName>
    <minDate>1906-05-18</minDate>
    <maxDate>1963-04-30</maxDate>
    <latitude>42.6006</latitude>
    <longitude>-114.7453</longitude>
    <elevation>1158.2</elevation>
    <locationLabels>
      <type>CNTRY</type>
      <id>FIPS:US</id>
      <displayName>United States</displayName>
    </locationLabels>
    <coverage>0.9527</coverage>
  </station>
  <station>
    <id>GHCND:USC00231092</id>
    <displayName>BUICK TOWER, MO US</displayName>
    <minDate>1956-01-01</minDate>
    <maxDate>1957-10-31</maxDate>
    <latitude>37.61667</latitude>
    <longitude>-91.13333</longitude>
    <locationLabels>
      <type>CNTRY</type>
      <id>FIPS:US</id>
      <displayName>United States</displayName>
    </locationLabels>
    <coverage>1</coverage>
  </station>
  <station>
    <id>GHCND:USC00101252</id>
    <displayName>BUIST, ID US</displayName>
    <minDate>2007-10-01</minDate>
    <maxDate>2008-06-30</maxDate>
    <latitude>42.5414</latitude>
    <longitude>-112.9997</longitude>
    <elevation>1606.3</elevation>
    <locationLabels>
      <type>CNTRY</type>
      <id>FIPS:US</id>
      <displayName>United States</displayName>
    </locationLabels>
    <coverage>0.5547</coverage>
  </station>
  <station>
    <id>GHCND:US1NCML0006</id>
    <displayName>BULADEAN 1.9 NNW, NC US</displayName>
    <minDate>2008-04-01</minDate>
    <maxDate>2010-09-30</maxDate>
    <latitude>36.1429</latitude>
    <longitude>-82.2061</longitude>
    <elevation>996.7</elevation>
    <locationLabels>
      <type>CNTRY</type>
      <id>FIPS:US</id>
      <displayName>United States</displayName>
    </locationLabels>
    <coverage>0.7207</coverage>
  </station>
  <station>
    <id>GHCND:USC00411203</id>
    <displayName>BULER 4 NNW, TX US</displayName>
    <minDate>1941-01-01</minDate>
    <maxDate>1977-05-31</maxDate>
    <latitude>36.18333</latitude>
    <longitude>-100.83333</longitude>
    <elevation>905.9</elevation>
    <locationLabels>
      <type>CNTRY</type>
      <id>FIPS:US</id>
      <displayName>United States</displayName>
    </locationLabels>
    <coverage>0.887</coverage>
  </station>
  <station>
    <id>GHCND:USR0000IDEP</id>
    <displayName>BULL CANYON IDAHO, ID US</displayName>
    <minDate>1990-06-18</minDate>
    <maxDate>2012-08-31</maxDate>
    <latitude>42.3653</latitude>
    <longitude>-112.7056</longitude>
    <elevation>1950.7</elevation>
    <locationLabels>
      <type>CNTRY</type>
      <id>FIPS:US</id>
      <displayName>United States</displayName>
    </locationLabels>
    <coverage>0.9676</coverage>
  </station>
  <station>
    <id>GHCND:USC00261317</id>
    <displayName>BULL CREEK RANCH, NV US</displayName>
    <minDate>1963-08-01</minDate>
    <maxDate>1965-07-31</maxDate>
    <latitude>39.05</latitude>
    <longitude>-115.61667</longitude>
    <elevation>1800.1</elevation>
    <locationLabels>
      <type>CNTRY</type>
      <id>FIPS:US</id>
      <displayName>United States</displayName>
    </locationLabels>
    <coverage>0.9918</coverage>
  </station>
  <station>
    <id>GHCND:USR0000CBUL</id>
    <displayName>BULL FLAT CALIFORNIA, CA US</displayName>
    <minDate>1991-10-15</minDate>
    <maxDate>2012-08-30</maxDate>
    <latitude>40.4808</latitude>
    <longitude>-120.1139</longitude>
    <elevation>1339.6</elevation>
    <locationLabels>
      <type>CNTRY</type>
      <id>FIPS:US</id>
      <displayName>United States</displayName>
    </locationLabels>
    <coverage>0.9653</coverage>
  </station>
  <station>
    <id>GHCND:USC00241262</id>
    <displayName>BULL LAKE, MT US</displayName>
    <minDate>2008-06-01</minDate>
    <maxDate>2010-10-31</maxDate>
    <latitude>48.2561</latitude>
    <longitude>-115.8494</longitude>
    <elevation>708.7</elevation>
    <locationLabels>
      <type>CNTRY</type>
      <id>FIPS:US</id>
      <displayName>United States</displayName>
    </locationLabels>
    <coverage>0.9626</coverage>
  </station>
  <station>
    <id>GHCND:USC00031020</id>
    <displayName>BULL SHOALS DAM, AR US</displayName>
    <minDate>1948-06-01</minDate>
    <maxDate>1951-09-30</maxDate>
    <latitude>36.3647</latitude>
    <longitude>-92.5781</longitude>
    <elevation>146.3</elevation>
    <locationLabels>
      <type>CNTRY</type>
      <id>FIPS:US</id>
      <displayName>United States</displayName>
    </locationLabels>
    <coverage>0.9647</coverage>
  </station>
  <station>
    <id>GHCND:USR0000IBUL</id>
    <displayName>BULL SPRING IDAHO, ID US</displayName>
    <minDate>1990-06-18</minDate>
    <maxDate>2012-08-31</maxDate>
    <latitude>42.08</latitude>
    <longitude>-114.4847</longitude>
    <elevation>1737.4</elevation>
    <locationLabels>
      <type>CNTRY</type>
      <id>FIPS:US</id>
      <displayName>United States</displayName>
    </locationLabels>
    <coverage>0.9453</coverage>
  </station>
  <station>
    <id>GHCND:US1ILMCH013</id>
    <displayName>BULL VALLEY 2.5 WNW, IL US</displayName>
    <minDate>2007-02-24</minDate>
    <maxDate>2013-01-16</maxDate>
    <latitude>42.3245</latitude>
    <longitude>-88.3946</longitude>
    <elevation>292</elevation>
    <locationLabels>
      <type>CNTRY</type>
      <id>FIPS:US</id>
      <displayName>United States</displayName>
    </locationLabels>
    <coverage>0.8695</coverage>
  </station>
  <station>
    <id>GHCND:US1TXCHK001</id>
    <displayName>BULLARD 3.7 E, TX US</displayName>
    <minDate>2007-10-05</minDate>
    <maxDate>2013-01-16</maxDate>
    <latitude>32.1361</latitude>
    <longitude>-95.2564</longitude>
    <elevation>124.4</elevation>
    <locationLabels>
      <type>CNTRY</type>
      <id>FIPS:US</id>
      <displayName>United States</displayName>
    </locationLabels>
    <coverage>0.9938</coverage>
  </station>
  <station>
    <id>GHCND:USC00041180</id>
    <displayName>BULLARDS BAR PH, CA US</displayName>
    <minDate>1941-02-01</minDate>
    <maxDate>1968-07-31</maxDate>
    <latitude>39.41667</latitude>
    <longitude>-121.15</longitude>
    <elevation>542.8</elevation>
    <locationLabels>
      <type>CNTRY</type>
      <id>FIPS:US</id>
      <displayName>United States</displayName>
    </locationLabels>
    <coverage>0.9956</coverage>
  </station>
  <station>
    <id>GHCND:USC00421023</id>
    <displayName>BULLFROG 8 N, UT US</displayName>
    <minDate>1999-10-01</minDate>
    <maxDate>2001-09-30</maxDate>
    <latitude>37.63028</latitude>
    <longitude>-110.72806</longitude>
    <elevation>1225.3</elevation>
    <locationLabels>
      <type>CNTRY</type>
      <id>FIPS:US</id>
      <displayName>United States</displayName>
    </locationLabels>
    <coverage>0.7606</coverage>
  </station>
</stationCollection>
