<?xml version="1.0" encoding="UTF-8" standalone="yes"?>
<stationCollection totalCount="46020" pageCount="461" pageSize="100" page="259">
  <station>
    <id>GHCND:US1TXTN0061</id>
    <displayName>MANSFIELD 2.6 NNE, TX US</displayName>
    <minDate>2009-05-27</minDate>
    <maxDate>2013-01-15</maxDate>
    <latitude>32.6021</latitude>
    <longitude>-97.101</longitude>
    <elevation>185</elevation>
    <locationLabels>
      <type>CNTRY</type>
      <id>FIPS:US</id>
      <displayName>United States</displayName>
    </locationLabels>
    <coverage>0.1917</coverage>
  </station>
  <station>
    <id>GHCND:US1TXTN0093</id>
    <displayName>MANSFIELD 2.8 E, TX US</displayName>
    <minDate>2012-01-09</minDate>
    <maxDate>2013-01-14</maxDate>
    <latitude>32.5695</latitude>
    <longitude>-97.0686</longitude>
    <elevation>173.1</elevation>
    <locationLabels>
      <type>CNTRY</type>
      <id>FIPS:US</id>
      <displayName>United States</displayName>
    </locationLabels>
    <coverage>0.8737</coverage>
  </station>
  <station>
    <id>GHCND:US1ILPT0013</id>
    <displayName>MANSFIELD 3.0 WSW, IL US</displayName>
    <minDate>2009-03-29</minDate>
    <maxDate>2013-01-16</maxDate>
    <latitude>40.189</latitude>
    <longitude>-88.5584</longitude>
    <elevation>218.8</elevation>
    <locationLabels>
      <type>CNTRY</type>
      <id>FIPS:US</id>
      <displayName>United States</displayName>
    </locationLabels>
    <coverage>0.9856</coverage>
  </station>
  <station>
    <id>GHCND:US1MODG0006</id>
    <displayName>MANSFIELD 3.7 SSE, MO US</displayName>
    <minDate>2007-01-28</minDate>
    <maxDate>2013-01-16</maxDate>
    <latitude>37.0576</latitude>
    <longitude>-92.5663</longitude>
    <elevation>350.5</elevation>
    <locationLabels>
      <type>CNTRY</type>
      <id>FIPS:US</id>
      <displayName>United States</displayName>
    </locationLabels>
    <coverage>0.8634</coverage>
  </station>
  <station>
    <id>GHCND:US1TXTN0033</id>
    <displayName>MANSFIELD 3.9 ENE, TX US</displayName>
    <minDate>2008-04-01</minDate>
    <maxDate>2009-05-27</maxDate>
    <latitude>32.5801</latitude>
    <longitude>-97.0528</longitude>
    <elevation>171</elevation>
    <locationLabels>
      <type>CNTRY</type>
      <id>FIPS:US</id>
      <displayName>United States</displayName>
    </locationLabels>
    <coverage>0.2464</coverage>
  </station>
  <station>
    <id>GHCND:USC00454973</id>
    <displayName>MANSFIELD 4 SSE, WA US</displayName>
    <minDate>1926-07-01</minDate>
    <maxDate>1942-01-31</maxDate>
    <latitude>47.76667</latitude>
    <longitude>-119.61667</longitude>
    <elevation>732.1</elevation>
    <locationLabels>
      <type>CNTRY</type>
      <id>FIPS:US</id>
      <displayName>United States</displayName>
    </locationLabels>
    <coverage>0.7113</coverage>
  </station>
  <station>
    <id>GHCND:USC00334874</id>
    <displayName>MANSFIELD 5 W, OH US</displayName>
    <minDate>1899-03-01</minDate>
    <maxDate>2013-01-15</maxDate>
    <latitude>40.76667</latitude>
    <longitude>-82.61667</longitude>
    <elevation>411.5</elevation>
    <locationLabels>
      <type>CNTRY</type>
      <id>FIPS:US</id>
      <displayName>United States</displayName>
    </locationLabels>
    <coverage>0.8544</coverage>
  </station>
  <station>
    <id>GHCND:US1TXJN0001</id>
    <displayName>MANSFIELD 5.0 WSW, TX US</displayName>
    <minDate>2007-01-29</minDate>
    <maxDate>2007-06-22</maxDate>
    <latitude>32.545</latitude>
    <longitude>-97.2</longitude>
    <elevation>207.9</elevation>
    <locationLabels>
      <type>CNTRY</type>
      <id>FIPS:US</id>
      <displayName>United States</displayName>
    </locationLabels>
    <coverage>0.8759</coverage>
  </station>
  <station>
    <id>GHCND:US1MOWT0012</id>
    <displayName>MANSFIELD 5.4 NNE, MO US</displayName>
    <minDate>2011-03-16</minDate>
    <maxDate>2013-01-16</maxDate>
    <latitude>37.1763</latitude>
    <longitude>-92.5286</longitude>
    <elevation>371.6</elevation>
    <locationLabels>
      <type>CNTRY</type>
      <id>FIPS:US</id>
      <displayName>United States</displayName>
    </locationLabels>
    <coverage>0.9777</coverage>
  </station>
  <station>
    <id>GHCND:USC00454975</id>
    <displayName>MANSFIELD 7 W, WA US</displayName>
    <minDate>1979-03-01</minDate>
    <maxDate>1986-05-31</maxDate>
    <latitude>47.81667</latitude>
    <longitude>-119.8</longitude>
    <elevation>762.9</elevation>
    <locationLabels>
      <type>CNTRY</type>
      <id>FIPS:US</id>
      <displayName>United States</displayName>
    </locationLabels>
    <coverage>0.8509</coverage>
  </station>
  <station>
    <id>GHCND:US1CTTL0004</id>
    <displayName>MANSFIELD CENTER 1.9 SW, CT US</displayName>
    <minDate>2009-07-12</minDate>
    <maxDate>2012-11-21</maxDate>
    <latitude>41.7414</latitude>
    <longitude>-72.2174</longitude>
    <elevation>103</elevation>
    <locationLabels>
      <type>CNTRY</type>
      <id>FIPS:US</id>
      <displayName>United States</displayName>
    </locationLabels>
    <coverage>0.3287</coverage>
  </station>
  <station>
    <id>GHCND:USC00415561</id>
    <displayName>MANSFIELD DAM, TX US</displayName>
    <minDate>1944-06-01</minDate>
    <maxDate>1964-03-31</maxDate>
    <latitude>30.4</latitude>
    <longitude>-97.91667</longitude>
    <elevation>167.9</elevation>
    <locationLabels>
      <type>CNTRY</type>
      <id>FIPS:US</id>
      <displayName>United States</displayName>
    </locationLabels>
    <coverage>0.9405</coverage>
  </station>
  <station>
    <id>GHCND:USC00064488</id>
    <displayName>MANSFIELD HOLLOW LAK, CT US</displayName>
    <minDate>1952-05-01</minDate>
    <maxDate>2007-05-10</maxDate>
    <latitude>41.75694</latitude>
    <longitude>-72.18556</longitude>
    <elevation>76.2</elevation>
    <locationLabels>
      <type>CNTRY</type>
      <id>FIPS:US</id>
      <displayName>United States</displayName>
    </locationLabels>
    <coverage>0.9665</coverage>
  </station>
  <station>
    <id>GHCND:USW00014891</id>
    <displayName>MANSFIELD LAHM MUNICIPAL AIRPORT, OH US</displayName>
    <minDate>1948-08-01</minDate>
    <maxDate>2013-01-15</maxDate>
    <latitude>40.82028</latitude>
    <longitude>-82.51778</longitude>
    <elevation>394.7</elevation>
    <locationLabels>
      <type>CNTRY</type>
      <id>FIPS:US</id>
      <displayName>United States</displayName>
    </locationLabels>
    <coverage>0.9468</coverage>
  </station>
  <station>
    <id>GHCND:US1NJWR0017</id>
    <displayName>MANSFIELD TWP 2.6 WNW, NJ US</displayName>
    <minDate>2009-08-02</minDate>
    <maxDate>2013-01-16</maxDate>
    <latitude>40.8234</latitude>
    <longitude>-74.9578</longitude>
    <elevation>183.8</elevation>
    <locationLabels>
      <type>CNTRY</type>
      <id>FIPS:US</id>
      <displayName>United States</displayName>
    </locationLabels>
    <coverage>0.9098</coverage>
  </station>
  <station>
    <id>GHCND:USC00165874</id>
    <displayName>MANSFIELD, LA US</displayName>
    <minDate>1896-05-01</minDate>
    <maxDate>2013-01-16</maxDate>
    <latitude>32.0389</latitude>
    <longitude>-93.7052</longitude>
    <elevation>119.5</elevation>
    <locationLabels>
      <type>CNTRY</type>
      <id>FIPS:US</id>
      <displayName>United States</displayName>
    </locationLabels>
    <coverage>0.5055</coverage>
  </station>
  <station>
    <id>GHCND:USC00194449</id>
    <displayName>MANSFIELD, MA US</displayName>
    <minDate>1893-01-02</minDate>
    <maxDate>1986-03-31</maxDate>
    <latitude>42.05</latitude>
    <longitude>-71.2</longitude>
    <elevation>43</elevation>
    <locationLabels>
      <type>CNTRY</type>
      <id>FIPS:US</id>
      <displayName>United States</displayName>
    </locationLabels>
    <coverage>0.6525</coverage>
  </station>
  <station>
    <id>GHCND:USC00235227</id>
    <displayName>MANSFIELD, MO US</displayName>
    <minDate>1893-01-01</minDate>
    <maxDate>2013-01-16</maxDate>
    <latitude>37.1088</latitude>
    <longitude>-92.5788</longitude>
    <elevation>463.3</elevation>
    <locationLabels>
      <type>CNTRY</type>
      <id>FIPS:US</id>
      <displayName>United States</displayName>
    </locationLabels>
    <coverage>0.5537</coverage>
  </station>
  <station>
    <id>GHCND:USC00415560</id>
    <displayName>MANSFIELD, TX US</displayName>
    <minDate>1940-06-01</minDate>
    <maxDate>1964-10-31</maxDate>
    <latitude>32.56667</latitude>
    <longitude>-97.15</longitude>
    <elevation>177.1</elevation>
    <locationLabels>
      <type>CNTRY</type>
      <id>FIPS:US</id>
      <displayName>United States</displayName>
    </locationLabels>
    <coverage>0.9932</coverage>
  </station>
  <station>
    <id>GHCND:USC00454971</id>
    <displayName>MANSFIELD, WA US</displayName>
    <minDate>1922-08-01</minDate>
    <maxDate>1986-10-31</maxDate>
    <latitude>47.81667</latitude>
    <longitude>-119.63333</longitude>
    <elevation>691.9</elevation>
    <locationLabels>
      <type>CNTRY</type>
      <id>FIPS:US</id>
      <displayName>United States</displayName>
    </locationLabels>
    <coverage>0.834</coverage>
  </station>
  <station>
    <id>GHCND:US1MSIT0001</id>
    <displayName>MANTACHIE 3.4 N, MS US</displayName>
    <minDate>2010-02-18</minDate>
    <maxDate>2013-01-16</maxDate>
    <latitude>34.3726</latitude>
    <longitude>-88.4935</longitude>
    <elevation>110</elevation>
    <locationLabels>
      <type>CNTRY</type>
      <id>FIPS:US</id>
      <displayName>United States</displayName>
    </locationLabels>
    <coverage>0.8665</coverage>
  </station>
  <station>
    <id>GHCND:US1NDRC0006</id>
    <displayName>MANTADOR 0.1 WNW, ND US</displayName>
    <minDate>2010-03-24</minDate>
    <maxDate>2010-12-14</maxDate>
    <latitude>46.1663</latitude>
    <longitude>-96.98</longitude>
    <elevation>313.3</elevation>
    <locationLabels>
      <type>CNTRY</type>
      <id>FIPS:US</id>
      <displayName>United States</displayName>
    </locationLabels>
    <coverage>0.9812</coverage>
  </station>
  <station>
    <id>GHCND:USC00045303</id>
    <displayName>MANTECA, CA US</displayName>
    <minDate>1965-04-01</minDate>
    <maxDate>1977-06-30</maxDate>
    <latitude>37.8</latitude>
    <longitude>-121.2</longitude>
    <elevation>11.9</elevation>
    <locationLabels>
      <type>CNTRY</type>
      <id>FIPS:US</id>
      <displayName>United States</displayName>
    </locationLabels>
    <coverage>1</coverage>
  </station>
  <station>
    <id>GHCND:US1ILKK0021</id>
    <displayName>MANTENO 2.2 SSE, IL US</displayName>
    <minDate>2010-06-19</minDate>
    <maxDate>2013-01-14</maxDate>
    <latitude>41.2225</latitude>
    <longitude>-87.8185</longitude>
    <elevation>205.7</elevation>
    <locationLabels>
      <type>CNTRY</type>
      <id>FIPS:US</id>
      <displayName>United States</displayName>
    </locationLabels>
    <coverage>0.9129</coverage>
  </station>
  <station>
    <id>GHCND:US1NCDR0008</id>
    <displayName>MANTEO 0.4 SW, NC US</displayName>
    <minDate>2011-04-10</minDate>
    <maxDate>2012-03-05</maxDate>
    <latitude>35.8951</latitude>
    <longitude>-75.672</longitude>
    <elevation>0.6</elevation>
    <locationLabels>
      <type>CNTRY</type>
      <id>FIPS:US</id>
      <displayName>United States</displayName>
    </locationLabels>
    <coverage>0.3897</coverage>
  </station>
  <station>
    <id>GHCND:US1NCDR0002</id>
    <displayName>MANTEO 3.2 NW, NC US</displayName>
    <minDate>2008-10-01</minDate>
    <maxDate>2010-06-01</maxDate>
    <latitude>35.9346</latitude>
    <longitude>-75.7022</longitude>
    <elevation>4</elevation>
    <locationLabels>
      <type>CNTRY</type>
      <id>FIPS:US</id>
      <displayName>United States</displayName>
    </locationLabels>
    <coverage>0.8128</coverage>
  </station>
  <station>
    <id>GHCND:USW00013766</id>
    <displayName>MANTEO DARE CO AIRPORT, NC US</displayName>
    <minDate>1945-03-01</minDate>
    <maxDate>2012-11-28</maxDate>
    <latitude>35.91722</latitude>
    <longitude>-75.7</longitude>
    <elevation>4</elevation>
    <locationLabels>
      <type>CNTRY</type>
      <id>FIPS:US</id>
      <displayName>United States</displayName>
    </locationLabels>
    <coverage>0.6193</coverage>
  </station>
  <station>
    <id>GHCND:USC00315300</id>
    <displayName>MANTEO, NC US</displayName>
    <minDate>1929-07-01</minDate>
    <maxDate>1965-07-31</maxDate>
    <latitude>35.91667</latitude>
    <longitude>-75.68333</longitude>
    <elevation>3</elevation>
    <locationLabels>
      <type>CNTRY</type>
      <id>FIPS:US</id>
      <displayName>United States</displayName>
    </locationLabels>
    <coverage>0.9631</coverage>
  </station>
  <station>
    <id>GHCND:US1KSST0001</id>
    <displayName>MANTER 4.0 NW, KS US</displayName>
    <minDate>2005-05-18</minDate>
    <maxDate>2008-01-08</maxDate>
    <latitude>37.5583</latitude>
    <longitude>-101.9154</longitude>
    <elevation>1054</elevation>
    <locationLabels>
      <type>CNTRY</type>
      <id>FIPS:US</id>
      <displayName>United States</displayName>
    </locationLabels>
    <coverage>0.9161</coverage>
  </station>
  <station>
    <id>GHCND:USC00425402</id>
    <displayName>MANTI, UT US</displayName>
    <minDate>1893-01-01</minDate>
    <maxDate>2013-01-15</maxDate>
    <latitude>39.2583</latitude>
    <longitude>-111.6305</longitude>
    <elevation>1749.6</elevation>
    <locationLabels>
      <type>CNTRY</type>
      <id>FIPS:US</id>
      <displayName>United States</displayName>
    </locationLabels>
    <coverage>0.9657</coverage>
  </station>
  <station>
    <id>GHCND:USC00205086</id>
    <displayName>MANTON, MI US</displayName>
    <minDate>1891-09-01</minDate>
    <maxDate>1893-05-31</maxDate>
    <latitude>44.41083</latitude>
    <longitude>-85.39889</longitude>
    <elevation>341.1</elevation>
    <locationLabels>
      <type>CNTRY</type>
      <id>FIPS:US</id>
      <displayName>United States</displayName>
    </locationLabels>
    <coverage>0.6182</coverage>
  </station>
  <station>
    <id>GHCND:US1MNDD0003</id>
    <displayName>MANTORVILLE 1.9 ESE, MN US</displayName>
    <minDate>2011-03-01</minDate>
    <maxDate>2013-01-16</maxDate>
    <latitude>44.0504</latitude>
    <longitude>-92.7214</longitude>
    <elevation>368.8</elevation>
    <locationLabels>
      <type>CNTRY</type>
      <id>FIPS:US</id>
      <displayName>United States</displayName>
    </locationLabels>
    <coverage>0.9884</coverage>
  </station>
  <station>
    <id>GHCND:US1OHPT0013</id>
    <displayName>MANTUA 1.0 NNW, OH US</displayName>
    <minDate>2011-03-31</minDate>
    <maxDate>2013-01-14</maxDate>
    <latitude>41.2942</latitude>
    <longitude>-81.2316</longitude>
    <elevation>390.8</elevation>
    <locationLabels>
      <type>CNTRY</type>
      <id>FIPS:US</id>
      <displayName>United States</displayName>
    </locationLabels>
    <coverage>0.4512</coverage>
  </station>
  <station>
    <id>GHCND:US1VAFX0037</id>
    <displayName>MANTUA 1.4 S, VA US</displayName>
    <minDate>2006-06-08</minDate>
    <maxDate>2013-01-16</maxDate>
    <latitude>38.8324</latitude>
    <longitude>-77.2569</longitude>
    <elevation>131.1</elevation>
    <locationLabels>
      <type>CNTRY</type>
      <id>FIPS:US</id>
      <displayName>United States</displayName>
    </locationLabels>
    <coverage>0.571</coverage>
  </station>
  <station>
    <id>GHCND:US1NJGL0004</id>
    <displayName>MANTUA TWP 1.5 E, NJ US</displayName>
    <minDate>2008-03-30</minDate>
    <maxDate>2011-08-31</maxDate>
    <latitude>39.7609</latitude>
    <longitude>-75.1397</longitude>
    <elevation>21.9</elevation>
    <locationLabels>
      <type>CNTRY</type>
      <id>FIPS:US</id>
      <displayName>United States</displayName>
    </locationLabels>
    <coverage>0.7816</coverage>
  </station>
  <station>
    <id>GHCND:USC00295418</id>
    <displayName>MANUELITO, NM US</displayName>
    <minDate>1905-03-01</minDate>
    <maxDate>1910-03-31</maxDate>
    <latitude>35.41667</latitude>
    <longitude>-109</longitude>
    <elevation>1905.6</elevation>
    <locationLabels>
      <type>CNTRY</type>
      <id>FIPS:US</id>
      <displayName>United States</displayName>
    </locationLabels>
    <coverage>0.9602</coverage>
  </station>
  <station>
    <id>GHCND:USC00516134</id>
    <displayName>MANUKA 2, HI US</displayName>
    <minDate>1949-10-02</minDate>
    <maxDate>2012-09-28</maxDate>
    <latitude>19.1103</latitude>
    <longitude>-155.8262</longitude>
    <elevation>536.4</elevation>
    <locationLabels>
      <type>CNTRY</type>
      <id>FIPS:US</id>
      <displayName>United States</displayName>
    </locationLabels>
    <coverage>0.8387</coverage>
  </station>
  <station>
    <id>GHCND:US1RIPR0015</id>
    <displayName>MANVILLE 0.2 NE, RI US</displayName>
    <minDate>2009-03-16</minDate>
    <maxDate>2013-01-16</maxDate>
    <latitude>41.9705</latitude>
    <longitude>-71.4717</longitude>
    <elevation>45.7</elevation>
    <locationLabels>
      <type>CNTRY</type>
      <id>FIPS:US</id>
      <displayName>United States</displayName>
    </locationLabels>
    <coverage>0.9936</coverage>
  </station>
  <station>
    <id>GHCND:US1WYNB0009</id>
    <displayName>MANVILLE 13 SSW, WY US</displayName>
    <minDate>2005-08-01</minDate>
    <maxDate>2013-01-16</maxDate>
    <latitude>42.6102</latitude>
    <longitude>-104.7362</longitude>
    <elevation>1594.1</elevation>
    <locationLabels>
      <type>CNTRY</type>
      <id>FIPS:US</id>
      <displayName>United States</displayName>
    </locationLabels>
    <coverage>0.8683</coverage>
  </station>
  <station>
    <id>GHCND:US1WYNB0006</id>
    <displayName>MANVILLE 13 SSW, WY US</displayName>
    <minDate>2005-06-29</minDate>
    <maxDate>2011-07-14</maxDate>
    <latitude>42.6098</latitude>
    <longitude>-104.7359</longitude>
    <elevation>1594.1</elevation>
    <locationLabels>
      <type>CNTRY</type>
      <id>FIPS:US</id>
      <displayName>United States</displayName>
    </locationLabels>
    <coverage>0.594</coverage>
  </station>
  <station>
    <id>GHCND:USC00285197</id>
    <displayName>MANVILLE, NJ US</displayName>
    <minDate>1941-01-01</minDate>
    <maxDate>1967-09-30</maxDate>
    <latitude>40.55</latitude>
    <longitude>-74.56667</longitude>
    <elevation>14.9</elevation>
    <locationLabels>
      <type>CNTRY</type>
      <id>FIPS:US</id>
      <displayName>United States</displayName>
    </locationLabels>
    <coverage>0.9579</coverage>
  </station>
  <station>
    <id>GHCND:USC00165896</id>
    <displayName>MANY 9 WSW, LA US</displayName>
    <minDate>1989-01-01</minDate>
    <maxDate>2013-01-16</maxDate>
    <latitude>31.5119</latitude>
    <longitude>-93.6199</longitude>
    <elevation>87.2</elevation>
    <locationLabels>
      <type>CNTRY</type>
      <id>FIPS:US</id>
      <displayName>United States</displayName>
    </locationLabels>
    <coverage>0.9925</coverage>
  </station>
  <station>
    <id>GHCND:USC00025204</id>
    <displayName>MANY FARMS SCHOOL, AZ US</displayName>
    <minDate>1951-08-15</minDate>
    <maxDate>1975-07-31</maxDate>
    <latitude>36.36667</latitude>
    <longitude>-109.61667</longitude>
    <elevation>1620</elevation>
    <locationLabels>
      <type>CNTRY</type>
      <id>FIPS:US</id>
      <displayName>United States</displayName>
    </locationLabels>
    <coverage>0.9708</coverage>
  </station>
  <station>
    <id>GHCND:USS0013A27S</id>
    <displayName>MANY GLACIER, MT US</displayName>
    <minDate>1976-10-01</minDate>
    <maxDate>2013-01-13</maxDate>
    <latitude>48.8</latitude>
    <longitude>-113.6667</longitude>
    <elevation>1493.5</elevation>
    <locationLabels>
      <type>CNTRY</type>
      <id>FIPS:US</id>
      <displayName>United States</displayName>
    </locationLabels>
    <coverage>0.8528</coverage>
  </station>
  <station>
    <id>GHCND:USC00245361</id>
    <displayName>MANY GLACIER, MT US</displayName>
    <minDate>1967-08-09</minDate>
    <maxDate>1980-10-31</maxDate>
    <latitude>48.8</latitude>
    <longitude>-113.65</longitude>
    <elevation>1491.1</elevation>
    <locationLabels>
      <type>CNTRY</type>
      <id>FIPS:US</id>
      <displayName>United States</displayName>
    </locationLabels>
    <coverage>0.4082</coverage>
  </station>
  <station>
    <id>GHCND:USC00165890</id>
    <displayName>MANY, LA US</displayName>
    <minDate>1893-02-01</minDate>
    <maxDate>1951-09-30</maxDate>
    <latitude>31.56667</latitude>
    <longitude>-93.48333</longitude>
    <elevation>70.1</elevation>
    <locationLabels>
      <type>CNTRY</type>
      <id>FIPS:US</id>
      <displayName>United States</displayName>
    </locationLabels>
    <coverage>0.0567</coverage>
  </station>
  <station>
    <id>GHCND:USC00165892</id>
    <displayName>MANY, LA US</displayName>
    <minDate>1953-10-01</minDate>
    <maxDate>2011-01-31</maxDate>
    <latitude>31.5769</latitude>
    <longitude>-93.4816</longitude>
    <elevation>77.7</elevation>
    <locationLabels>
      <type>CNTRY</type>
      <id>FIPS:US</id>
      <displayName>United States</displayName>
    </locationLabels>
    <coverage>0.9586</coverage>
  </station>
  <station>
    <id>GHCND:US1ORTL0004</id>
    <displayName>MANZANITA 0.5 NNW, OR US</displayName>
    <minDate>2010-10-29</minDate>
    <maxDate>2013-01-16</maxDate>
    <latitude>45.7235</latitude>
    <longitude>-123.9391</longitude>
    <elevation>47.2</elevation>
    <locationLabels>
      <type>CNTRY</type>
      <id>FIPS:US</id>
      <displayName>United States</displayName>
    </locationLabels>
    <coverage>0.5401</coverage>
  </station>
  <station>
    <id>GHCND:USR0000CMAN</id>
    <displayName>MANZANITA LAKE CALIFORNIA, CA US</displayName>
    <minDate>1990-06-18</minDate>
    <maxDate>2012-08-30</maxDate>
    <latitude>40.54</latitude>
    <longitude>-121.5803</longitude>
    <elevation>1725.2</elevation>
    <locationLabels>
      <type>CNTRY</type>
      <id>FIPS:US</id>
      <displayName>United States</displayName>
    </locationLabels>
    <coverage>0.7982</coverage>
  </station>
  <station>
    <id>GHCND:USC00045311</id>
    <displayName>MANZANITA LAKE, CA US</displayName>
    <minDate>1949-01-01</minDate>
    <maxDate>2013-01-15</maxDate>
    <latitude>40.54111</latitude>
    <longitude>-121.57667</longitude>
    <elevation>1752.6</elevation>
    <locationLabels>
      <type>CNTRY</type>
      <id>FIPS:US</id>
      <displayName>United States</displayName>
    </locationLabels>
    <coverage>0.974</coverage>
  </station>
  <station>
    <id>GHCND:USC00045314</id>
    <displayName>MANZANITA MOUNTAIN, CA US</displayName>
    <minDate>1948-07-01</minDate>
    <maxDate>1951-01-31</maxDate>
    <latitude>34.9</latitude>
    <longitude>-120.08333</longitude>
    <elevation>954.9</elevation>
    <locationLabels>
      <type>CNTRY</type>
      <id>FIPS:US</id>
      <displayName>United States</displayName>
    </locationLabels>
    <coverage>0.5915</coverage>
  </station>
  <station>
    <id>GHCND:US1COCR0002</id>
    <displayName>MANZANOLA 1.6 N, CO US</displayName>
    <minDate>2004-03-12</minDate>
    <maxDate>2011-05-25</maxDate>
    <latitude>38.1327</latitude>
    <longitude>-103.8616</longitude>
    <elevation>1307.9</elevation>
    <locationLabels>
      <type>CNTRY</type>
      <id>FIPS:US</id>
      <displayName>United States</displayName>
    </locationLabels>
    <coverage>0.7925</coverage>
  </station>
  <station>
    <id>GHCND:USC00205097</id>
    <displayName>MAPLE CITY, MI US</displayName>
    <minDate>1959-04-10</minDate>
    <maxDate>2013-01-15</maxDate>
    <latitude>44.855</latitude>
    <longitude>-85.8352</longitude>
    <elevation>243.5</elevation>
    <locationLabels>
      <type>CNTRY</type>
      <id>FIPS:US</id>
      <displayName>United States</displayName>
    </locationLabels>
    <coverage>0.986</coverage>
  </station>
  <station>
    <id>GHCND:USR0000CMAP</id>
    <displayName>MAPLE CREEK CALIFORNIA, CA US</displayName>
    <minDate>1995-01-01</minDate>
    <maxDate>2006-03-06</maxDate>
    <latitude>40.7964</latitude>
    <longitude>-123.9367</longitude>
    <elevation>512.1</elevation>
    <locationLabels>
      <type>CNTRY</type>
      <id>FIPS:US</id>
      <displayName>United States</displayName>
    </locationLabels>
    <coverage>0.9841</coverage>
  </station>
  <station>
    <id>GHCND:US1MNHN0031</id>
    <displayName>MAPLE GROVE 1.0 NNE, MN US</displayName>
    <minDate>2011-03-14</minDate>
    <maxDate>2013-01-16</maxDate>
    <latitude>45.1226</latitude>
    <longitude>-93.4579</longitude>
    <elevation>275.5</elevation>
    <locationLabels>
      <type>CNTRY</type>
      <id>FIPS:US</id>
      <displayName>United States</displayName>
    </locationLabels>
    <coverage>0.9719</coverage>
  </station>
  <station>
    <id>GHCND:US1MNHN0057</id>
    <displayName>MAPLE GROVE 1.4 NNE, MN US</displayName>
    <minDate>2011-04-03</minDate>
    <maxDate>2012-10-15</maxDate>
    <latitude>45.129</latitude>
    <longitude>-93.4565</longitude>
    <elevation>271.9</elevation>
    <locationLabels>
      <type>CNTRY</type>
      <id>FIPS:US</id>
      <displayName>United States</displayName>
    </locationLabels>
    <coverage>0.653</coverage>
  </station>
  <station>
    <id>GHCND:US1MNHN0049</id>
    <displayName>MAPLE GROVE 2.4 E, MN US</displayName>
    <minDate>2011-04-05</minDate>
    <maxDate>2012-10-31</maxDate>
    <latitude>45.1148</latitude>
    <longitude>-93.414</longitude>
    <elevation>274.3</elevation>
    <locationLabels>
      <type>CNTRY</type>
      <id>FIPS:US</id>
      <displayName>United States</displayName>
    </locationLabels>
    <coverage>0.4653</coverage>
  </station>
  <station>
    <id>GHCND:US1MNHN0072</id>
    <displayName>MAPLE GROVE 2.9 NE, MN US</displayName>
    <minDate>2012-03-20</minDate>
    <maxDate>2013-01-16</maxDate>
    <latitude>45.1395</latitude>
    <longitude>-93.4207</longitude>
    <elevation>280.4</elevation>
    <locationLabels>
      <type>CNTRY</type>
      <id>FIPS:US</id>
      <displayName>United States</displayName>
    </locationLabels>
    <coverage>0.9736</coverage>
  </station>
  <station>
    <id>GHCND:USC00315308</id>
    <displayName>MAPLE HILL, NC US</displayName>
    <minDate>1939-10-01</minDate>
    <maxDate>1942-02-28</maxDate>
    <latitude>34.816667</latitude>
    <longitude>-77.683333</longitude>
    <elevation>15.2</elevation>
    <locationLabels>
      <type>CNTRY</type>
      <id>FIPS:US</id>
      <displayName>United States</displayName>
    </locationLabels>
    <coverage>0.9626</coverage>
  </station>
  <station>
    <id>GHCND:US1MNWR0020</id>
    <displayName>MAPLE LAKE 0.5 SE, MN US</displayName>
    <minDate>2012-04-24</minDate>
    <maxDate>2013-01-07</maxDate>
    <latitude>45.229</latitude>
    <longitude>-93.9985</longitude>
    <elevation>319.1</elevation>
    <locationLabels>
      <type>CNTRY</type>
      <id>FIPS:US</id>
      <displayName>United States</displayName>
    </locationLabels>
    <coverage>0.7297</coverage>
  </station>
  <station>
    <id>GHCND:USC00215136</id>
    <displayName>MAPLE PLAIN, MN US</displayName>
    <minDate>1893-01-01</minDate>
    <maxDate>1986-11-30</maxDate>
    <latitude>45</latitude>
    <longitude>-93.65</longitude>
    <elevation>295.7</elevation>
    <locationLabels>
      <type>CNTRY</type>
      <id>FIPS:US</id>
      <displayName>United States</displayName>
    </locationLabels>
    <coverage>0.9446</coverage>
  </station>
  <station>
    <id>GHCND:USC00205107</id>
    <displayName>MAPLE RAPIDS, MI US</displayName>
    <minDate>1959-04-09</minDate>
    <maxDate>1975-06-24</maxDate>
    <latitude>43.11667</latitude>
    <longitude>-84.7</longitude>
    <elevation>200.9</elevation>
    <locationLabels>
      <type>CNTRY</type>
      <id>FIPS:US</id>
      <displayName>United States</displayName>
    </locationLabels>
    <coverage>0.0539</coverage>
  </station>
  <station>
    <id>GHCND:USC00315313</id>
    <displayName>MAPLE SPRING GAP 2, NC US</displayName>
    <minDate>1960-09-01</minDate>
    <maxDate>1962-03-31</maxDate>
    <latitude>35.73333</latitude>
    <longitude>-82.93333</longitude>
    <elevation>1156.1</elevation>
    <locationLabels>
      <type>CNTRY</type>
      <id>FIPS:US</id>
      <displayName>United States</displayName>
    </locationLabels>
    <coverage>0.9965</coverage>
  </station>
  <station>
    <id>GHCND:USC00315312</id>
    <displayName>MAPLE SPRINGS GAP, NC US</displayName>
    <minDate>1952-06-19</minDate>
    <maxDate>1960-08-31</maxDate>
    <latitude>35.75</latitude>
    <longitude>-82.95</longitude>
    <elevation>1235</elevation>
    <locationLabels>
      <type>CNTRY</type>
      <id>FIPS:US</id>
      <displayName>United States</displayName>
    </locationLabels>
    <coverage>0.9873</coverage>
  </station>
  <station>
    <id>GHCND:US1WAKG0158</id>
    <displayName>MAPLE VALLEY 1.1 SSW, WA US</displayName>
    <minDate>2011-09-30</minDate>
    <maxDate>2012-10-30</maxDate>
    <latitude>47.3865</latitude>
    <longitude>-122.0329</longitude>
    <elevation>157.9</elevation>
    <locationLabels>
      <type>CNTRY</type>
      <id>FIPS:US</id>
      <displayName>United States</displayName>
    </locationLabels>
    <coverage>0.2519</coverage>
  </station>
  <station>
    <id>GHCND:US1WAKG0044</id>
    <displayName>MAPLE VALLEY 2.8 S, WA US</displayName>
    <minDate>2008-07-01</minDate>
    <maxDate>2013-01-11</maxDate>
    <latitude>47.3601</latitude>
    <longitude>-122.0281</longitude>
    <elevation>166.7</elevation>
    <locationLabels>
      <type>CNTRY</type>
      <id>FIPS:US</id>
      <displayName>United States</displayName>
    </locationLabels>
    <coverage>0.8128</coverage>
  </station>
  <station>
    <id>GHCND:USC00415570</id>
    <displayName>MAPLE, TX US</displayName>
    <minDate>1943-06-01</minDate>
    <maxDate>1949-02-18</maxDate>
    <latitude>33.78333</latitude>
    <longitude>-102.9</longitude>
    <elevation>1189.9</elevation>
    <locationLabels>
      <type>CNTRY</type>
      <id>FIPS:US</id>
      <displayName>United States</displayName>
    </locationLabels>
    <coverage>0.812</coverage>
  </station>
  <station>
    <id>GHCND:US1KSBB0014</id>
    <displayName>MAPLETON 3.5 E, KS US</displayName>
    <minDate>2009-03-08</minDate>
    <maxDate>2011-02-21</maxDate>
    <latitude>38.0157</latitude>
    <longitude>-94.8184</longitude>
    <elevation>255.1</elevation>
    <locationLabels>
      <type>CNTRY</type>
      <id>FIPS:US</id>
      <displayName>United States</displayName>
    </locationLabels>
    <coverage>0.2067</coverage>
  </station>
  <station>
    <id>GHCND:US1MNBU0002</id>
    <displayName>MAPLETON 3.5 N, MN US</displayName>
    <minDate>2010-04-16</minDate>
    <maxDate>2012-12-16</maxDate>
    <latitude>43.975</latitude>
    <longitude>-93.9586</longitude>
    <elevation>311.2</elevation>
    <locationLabels>
      <type>CNTRY</type>
      <id>FIPS:US</id>
      <displayName>United States</displayName>
    </locationLabels>
    <coverage>0.2152</coverage>
  </station>
  <station>
    <id>GHCND:USC00365381</id>
    <displayName>MAPLETON DEPOT, PA US</displayName>
    <minDate>1938-12-16</minDate>
    <maxDate>1996-12-31</maxDate>
    <latitude>40.4</latitude>
    <longitude>-77.93333</longitude>
    <elevation>176.8</elevation>
    <locationLabels>
      <type>CNTRY</type>
      <id>FIPS:US</id>
      <displayName>United States</displayName>
    </locationLabels>
    <coverage>0.9775</coverage>
  </station>
  <station>
    <id>GHCND:USC00135123</id>
    <displayName>MAPLETON NUMBER 2, IA US</displayName>
    <minDate>1937-11-01</minDate>
    <maxDate>2013-01-15</maxDate>
    <latitude>42.162</latitude>
    <longitude>-95.7836</longitude>
    <elevation>365.8</elevation>
    <locationLabels>
      <type>CNTRY</type>
      <id>FIPS:US</id>
      <displayName>United States</displayName>
    </locationLabels>
    <coverage>0.9772</coverage>
  </station>
  <station>
    <id>GHCND:USC00135127</id>
    <displayName>MAPLETON, IA US</displayName>
    <minDate>1948-06-01</minDate>
    <maxDate>2013-01-16</maxDate>
    <latitude>42.15694</latitude>
    <longitude>-95.80972</longitude>
    <elevation>335.3</elevation>
    <locationLabels>
      <type>CNTRY</type>
      <id>FIPS:US</id>
      <displayName>United States</displayName>
    </locationLabels>
    <coverage>0.2923</coverage>
  </station>
  <station>
    <id>GHCND:USC00355204</id>
    <displayName>MAPLETON, OR US</displayName>
    <minDate>1924-04-01</minDate>
    <maxDate>2013-01-16</maxDate>
    <latitude>44.0366</latitude>
    <longitude>-123.8627</longitude>
    <elevation>5.2</elevation>
    <locationLabels>
      <type>CNTRY</type>
      <id>FIPS:US</id>
      <displayName>United States</displayName>
    </locationLabels>
    <coverage>0.1164</coverage>
  </station>
  <station>
    <id>GHCND:US1MNRM0020</id>
    <displayName>MAPLEWOOD 2.7 SE, MN US</displayName>
    <minDate>2010-11-01</minDate>
    <maxDate>2013-01-15</maxDate>
    <latitude>44.9571</latitude>
    <longitude>-92.985</longitude>
    <elevation>305.1</elevation>
    <locationLabels>
      <type>CNTRY</type>
      <id>FIPS:US</id>
      <displayName>United States</displayName>
    </locationLabels>
    <coverage>0.8067</coverage>
  </station>
  <station>
    <id>GHCND:US1NJES0018</id>
    <displayName>MAPLEWOOD TWP 0.9 SE, NJ US</displayName>
    <minDate>2012-07-26</minDate>
    <maxDate>2013-01-16</maxDate>
    <latitude>40.7237</latitude>
    <longitude>-74.2598</longitude>
    <elevation>72.5</elevation>
    <locationLabels>
      <type>CNTRY</type>
      <id>FIPS:US</id>
      <displayName>United States</displayName>
    </locationLabels>
    <coverage>0.92</coverage>
  </station>
  <station>
    <id>GHCND:USC00215146</id>
    <displayName>MAPLEWOOD, MN US</displayName>
    <minDate>1895-12-01</minDate>
    <maxDate>1897-12-27</maxDate>
    <latitude>44.833333</latitude>
    <longitude>-92.95</longitude>
    <elevation>415.1</elevation>
    <locationLabels>
      <type>CNTRY</type>
      <id>FIPS:US</id>
      <displayName>United States</displayName>
    </locationLabels>
    <coverage>0.2902</coverage>
  </station>
  <station>
    <id>GHCND:USC00425457</id>
    <displayName>MAPLEWOOD, UT US</displayName>
    <minDate>1911-03-20</minDate>
    <maxDate>1935-05-31</maxDate>
    <latitude>40.133333</latitude>
    <longitude>-111.55</longitude>
    <elevation>1490.5</elevation>
    <locationLabels>
      <type>CNTRY</type>
      <id>FIPS:US</id>
      <displayName>United States</displayName>
    </locationLabels>
    <coverage>0.6641</coverage>
  </station>
  <station>
    <id>GHCND:USC00516138</id>
    <displayName>MAPULEHU 542, HI US</displayName>
    <minDate>1921-03-01</minDate>
    <maxDate>1973-07-31</maxDate>
    <latitude>21.06667</latitude>
    <longitude>-156.8</longitude>
    <elevation>6.1</elevation>
    <locationLabels>
      <type>CNTRY</type>
      <id>FIPS:US</id>
      <displayName>United States</displayName>
    </locationLabels>
    <coverage>0.8251</coverage>
  </station>
  <station>
    <id>GHCND:USC00135132</id>
    <displayName>MAQUOKETA 2 NE, IA US</displayName>
    <minDate>2011-01-01</minDate>
    <maxDate>2011-05-31</maxDate>
    <latitude>42.08333</latitude>
    <longitude>-90.63333</longitude>
    <elevation>195.1</elevation>
    <locationLabels>
      <type>CNTRY</type>
      <id>FIPS:US</id>
      <displayName>United States</displayName>
    </locationLabels>
    <coverage>1</coverage>
  </station>
  <station>
    <id>GHCND:USC00135131</id>
    <displayName>MAQUOKETA, IA US</displayName>
    <minDate>1897-01-01</minDate>
    <maxDate>2013-01-16</maxDate>
    <latitude>42.0494</latitude>
    <longitude>-90.7488</longitude>
    <elevation>232.3</elevation>
    <locationLabels>
      <type>CNTRY</type>
      <id>FIPS:US</id>
      <displayName>United States</displayName>
    </locationLabels>
    <coverage>0.8616</coverage>
  </station>
  <station>
    <id>GHCND:USC00345540</id>
    <displayName>MARAMEC, OK US</displayName>
    <minDate>1943-09-29</minDate>
    <maxDate>2003-09-30</maxDate>
    <latitude>36.24611</latitude>
    <longitude>-96.68389</longitude>
    <elevation>291.1</elevation>
    <locationLabels>
      <type>CNTRY</type>
      <id>FIPS:US</id>
      <displayName>United States</displayName>
    </locationLabels>
    <coverage>0.9283</coverage>
  </station>
  <station>
    <id>GHCND:US1AZPN0045</id>
    <displayName>MARANA 19.4 NNE, AZ US</displayName>
    <minDate>2010-07-02</minDate>
    <maxDate>2013-01-16</maxDate>
    <latitude>32.6759</latitude>
    <longitude>-111.0586</longitude>
    <elevation>934.8</elevation>
    <locationLabels>
      <type>CNTRY</type>
      <id>FIPS:US</id>
      <displayName>United States</displayName>
    </locationLabels>
    <coverage>0.8215</coverage>
  </station>
  <station>
    <id>GHCND:US1AZPM0098</id>
    <displayName>MARANA 5.8 W, AZ US</displayName>
    <minDate>2009-11-01</minDate>
    <maxDate>2012-09-08</maxDate>
    <latitude>32.4251</latitude>
    <longitude>-111.319</longitude>
    <elevation>595.3</elevation>
    <locationLabels>
      <type>CNTRY</type>
      <id>FIPS:US</id>
      <displayName>United States</displayName>
    </locationLabels>
    <coverage>0.6107</coverage>
  </station>
  <station>
    <id>GHCND:US1NYCR0008</id>
    <displayName>MARATHON 0.7 WSW, NY US</displayName>
    <minDate>2010-04-03</minDate>
    <maxDate>2012-12-22</maxDate>
    <latitude>42.4407</latitude>
    <longitude>-76.049</longitude>
    <elevation>376.7</elevation>
    <locationLabels>
      <type>CNTRY</type>
      <id>FIPS:US</id>
      <displayName>United States</displayName>
    </locationLabels>
    <coverage>0.7588</coverage>
  </station>
  <station>
    <id>GHCND:US1NYCR0005</id>
    <displayName>MARATHON 1.0 NW, NY US</displayName>
    <minDate>2008-09-13</minDate>
    <maxDate>2013-01-16</maxDate>
    <latitude>42.4516</latitude>
    <longitude>-76.0437</longitude>
    <elevation>313.9</elevation>
    <locationLabels>
      <type>CNTRY</type>
      <id>FIPS:US</id>
      <displayName>United States</displayName>
    </locationLabels>
    <coverage>0.988</coverage>
  </station>
  <station>
    <id>GHCND:USC00415574</id>
    <displayName>MARATHON 40 SSE, TX US</displayName>
    <minDate>2009-03-01</minDate>
    <maxDate>2013-01-15</maxDate>
    <latitude>29.6436</latitude>
    <longitude>-103.0788</longitude>
    <elevation>748.6</elevation>
    <locationLabels>
      <type>CNTRY</type>
      <id>FIPS:US</id>
      <displayName>United States</displayName>
    </locationLabels>
    <coverage>0.9774</coverage>
  </station>
  <station>
    <id>GHCND:USW00012896</id>
    <displayName>MARATHON AIRPORT, FL US</displayName>
    <minDate>1998-05-14</minDate>
    <maxDate>2013-01-14</maxDate>
    <latitude>24.72583</latitude>
    <longitude>-81.05167</longitude>
    <elevation>2.4</elevation>
    <locationLabels>
      <type>CNTRY</type>
      <id>FIPS:US</id>
      <displayName>United States</displayName>
    </locationLabels>
    <coverage>0.9879</coverage>
  </station>
  <station>
    <id>GHCND:USC00085345</id>
    <displayName>MARATHON FIRE RESCUE, FL US</displayName>
    <minDate>2002-05-01</minDate>
    <maxDate>2003-12-31</maxDate>
    <latitude>24.725</latitude>
    <longitude>-81.05194</longitude>
    <elevation>2.1</elevation>
    <locationLabels>
      <type>CNTRY</type>
      <id>FIPS:US</id>
      <displayName>United States</displayName>
    </locationLabels>
    <coverage>0.4525</coverage>
  </station>
  <station>
    <id>GHCND:USC00135136</id>
    <displayName>MARATHON, IA US</displayName>
    <minDate>1926-10-23</minDate>
    <maxDate>1939-03-31</maxDate>
    <latitude>42.9</latitude>
    <longitude>-94.83333</longitude>
    <elevation>417.9</elevation>
    <locationLabels>
      <type>CNTRY</type>
      <id>FIPS:US</id>
      <displayName>United States</displayName>
    </locationLabels>
    <coverage>0.9762</coverage>
  </station>
  <station>
    <id>GHCND:USC00415579</id>
    <displayName>MARATHON, TX US</displayName>
    <minDate>1896-07-01</minDate>
    <maxDate>2012-11-30</maxDate>
    <latitude>30.1926</latitude>
    <longitude>-103.2716</longitude>
    <elevation>1215.8</elevation>
    <locationLabels>
      <type>CNTRY</type>
      <id>FIPS:US</id>
      <displayName>United States</displayName>
    </locationLabels>
    <coverage>0.6253</coverage>
  </station>
  <station>
    <id>GHCND:US1COGN0002</id>
    <displayName>MARBLE .9 N, CO US</displayName>
    <minDate>2003-09-30</minDate>
    <maxDate>2012-09-25</maxDate>
    <latitude>39.0802</latitude>
    <longitude>-107.1889</longitude>
    <elevation>2626.2</elevation>
    <locationLabels>
      <type>CNTRY</type>
      <id>FIPS:US</id>
      <displayName>United States</displayName>
    </locationLabels>
    <coverage>0.2902</coverage>
  </station>
  <station>
    <id>GHCND:US1COGN0050</id>
    <displayName>MARBLE 0.5 NNW, CO US</displayName>
    <minDate>2010-01-01</minDate>
    <maxDate>2013-01-10</maxDate>
    <latitude>39.0791</latitude>
    <longitude>-107.1906</longitude>
    <elevation>2564.9</elevation>
    <locationLabels>
      <type>CNTRY</type>
      <id>FIPS:US</id>
      <displayName>United States</displayName>
    </locationLabels>
    <coverage>0.9855</coverage>
  </station>
  <station>
    <id>GHCND:USC00345546</id>
    <displayName>MARBLE CITY, OK US</displayName>
    <minDate>1989-02-01</minDate>
    <maxDate>2001-05-31</maxDate>
    <latitude>35.5825</latitude>
    <longitude>-94.82028</longitude>
    <elevation>228.6</elevation>
    <locationLabels>
      <type>CNTRY</type>
      <id>FIPS:US</id>
      <displayName>United States</displayName>
    </locationLabels>
    <coverage>0.7571</coverage>
  </station>
  <station>
    <id>GHCND:US1OHFR0021</id>
    <displayName>MARBLE CLIFF 1.1 WNW, OH US</displayName>
    <minDate>2010-09-04</minDate>
    <maxDate>2012-12-25</maxDate>
    <latitude>39.9931</latitude>
    <longitude>-83.0786</longitude>
    <elevation>237.7</elevation>
    <locationLabels>
      <type>CNTRY</type>
      <id>FIPS:US</id>
      <displayName>United States</displayName>
    </locationLabels>
    <coverage>0.9277</coverage>
  </station>
  <station>
    <id>GHCND:US1TXBRT005</id>
    <displayName>MARBLE FALLS 0.7 NW, TX US</displayName>
    <minDate>2007-10-29</minDate>
    <maxDate>2013-01-16</maxDate>
    <latitude>30.5873</latitude>
    <longitude>-98.2788</longitude>
    <elevation>251.5</elevation>
    <locationLabels>
      <type>CNTRY</type>
      <id>FIPS:US</id>
      <displayName>United States</displayName>
    </locationLabels>
    <coverage>0.989</coverage>
  </station>
  <station>
    <id>GHCND:US1TXBRT023</id>
    <displayName>MARBLE FALLS 1.1 S, TX US</displayName>
    <minDate>2009-09-05</minDate>
    <maxDate>2013-01-09</maxDate>
    <latitude>30.5641</latitude>
    <longitude>-98.2716</longitude>
    <elevation>271</elevation>
    <locationLabels>
      <type>CNTRY</type>
      <id>FIPS:US</id>
      <displayName>United States</displayName>
    </locationLabels>
    <coverage>0.2281</coverage>
  </station>
  <station>
    <id>GHCND:US1TXBRT002</id>
    <displayName>MARBLE FALLS 2.7 SE, TX US</displayName>
    <minDate>2007-08-19</minDate>
    <maxDate>2013-01-13</maxDate>
    <latitude>30.5505</latitude>
    <longitude>-98.2409</longitude>
    <elevation>240.2</elevation>
    <locationLabels>
      <type>CNTRY</type>
      <id>FIPS:US</id>
      <displayName>United States</displayName>
    </locationLabels>
    <coverage>0.9894</coverage>
  </station>
  <station>
    <id>GHCND:US1TXBRT034</id>
    <displayName>MARBLE FALLS 3.4 NW, TX US</displayName>
    <minDate>2010-06-17</minDate>
    <maxDate>2013-01-09</maxDate>
    <latitude>30.6146</latitude>
    <longitude>-98.3134</longitude>
    <elevation>276.1</elevation>
    <locationLabels>
      <type>CNTRY</type>
      <id>FIPS:US</id>
      <displayName>United States</displayName>
    </locationLabels>
    <coverage>0.3401</coverage>
  </station>
  <station>
    <id>GHCND:US1TXBRT031</id>
    <displayName>MARBLE FALLS 5.8 NNW, TX US</displayName>
    <minDate>2010-07-01</minDate>
    <maxDate>2013-01-14</maxDate>
    <latitude>30.6601</latitude>
    <longitude>-98.3059</longitude>
    <elevation>317.9</elevation>
    <locationLabels>
      <type>CNTRY</type>
      <id>FIPS:US</id>
      <displayName>United States</displayName>
    </locationLabels>
    <coverage>0.3854</coverage>
  </station>
  <station>
    <id>GHCND:US1TXBRT016</id>
    <displayName>MARBLE FALLS 7.8 NW, TX US</displayName>
    <minDate>2008-08-20</minDate>
    <maxDate>2009-09-14</maxDate>
    <latitude>30.6716</latitude>
    <longitude>-98.3543</longitude>
    <elevation>409</elevation>
    <locationLabels>
      <type>CNTRY</type>
      <id>FIPS:US</id>
      <displayName>United States</displayName>
    </locationLabels>
    <coverage>0.2916</coverage>
  </station>
</stationCollection>
