<?xml version="1.0" encoding="UTF-8" standalone="yes"?>
<stationCollection totalCount="46020" pageCount="461" pageSize="100" page="227">
  <station>
    <id>GHCND:USC00165076</id>
    <displayName>LAKE CHARLES PORT, LA US</displayName>
    <minDate>1955-02-02</minDate>
    <maxDate>2013-01-16</maxDate>
    <latitude>30.2141</latitude>
    <longitude>-93.2494</longitude>
    <elevation>1.5</elevation>
    <locationLabels>
      <type>CNTRY</type>
      <id>FIPS:US</id>
      <displayName>United States</displayName>
    </locationLabels>
    <coverage>0.3585</coverage>
  </station>
  <station>
    <id>GHCND:USW00003937</id>
    <displayName>LAKE CHARLES REGIONAL AIRPORT, LA US</displayName>
    <minDate>1961-11-01</minDate>
    <maxDate>2013-01-15</maxDate>
    <latitude>30.12472</latitude>
    <longitude>-93.22833</longitude>
    <elevation>2.7</elevation>
    <locationLabels>
      <type>CNTRY</type>
      <id>FIPS:US</id>
      <displayName>United States</displayName>
    </locationLabels>
    <coverage>0.9996</coverage>
  </station>
  <station>
    <id>GHCND:USC00165075</id>
    <displayName>LAKE CHARLES, LA US</displayName>
    <minDate>1930-01-01</minDate>
    <maxDate>1959-07-31</maxDate>
    <latitude>30.21667</latitude>
    <longitude>-93.21667</longitude>
    <locationLabels>
      <type>CNTRY</type>
      <id>FIPS:US</id>
      <displayName>United States</displayName>
    </locationLabels>
    <coverage>0.985</coverage>
  </station>
  <station>
    <id>GHCND:US1MNWB0003</id>
    <displayName>LAKE CITY 1.0 SE, MN US</displayName>
    <minDate>2011-04-01</minDate>
    <maxDate>2012-10-31</maxDate>
    <latitude>44.4283</latitude>
    <longitude>-92.2658</longitude>
    <elevation>335.9</elevation>
    <locationLabels>
      <type>CNTRY</type>
      <id>FIPS:US</id>
      <displayName>United States</displayName>
    </locationLabels>
    <coverage>0.6793</coverage>
  </station>
  <station>
    <id>GHCND:US1KSBA0007</id>
    <displayName>LAKE CITY 1.1 WNW, KS US</displayName>
    <minDate>2006-12-20</minDate>
    <maxDate>2012-12-20</maxDate>
    <latitude>37.3546</latitude>
    <longitude>-98.8297</longitude>
    <elevation>499</elevation>
    <locationLabels>
      <type>CNTRY</type>
      <id>FIPS:US</id>
      <displayName>United States</displayName>
    </locationLabels>
    <coverage>0.1446</coverage>
  </station>
  <station>
    <id>GHCND:US1MNGH0003</id>
    <displayName>LAKE CITY 1.2 NNW, MN US</displayName>
    <minDate>2010-01-01</minDate>
    <maxDate>2013-01-13</maxDate>
    <latitude>44.456</latitude>
    <longitude>-92.2907</longitude>
    <elevation>213.4</elevation>
    <locationLabels>
      <type>CNTRY</type>
      <id>FIPS:US</id>
      <displayName>United States</displayName>
    </locationLabels>
    <coverage>0.9964</coverage>
  </station>
  <station>
    <id>GHCND:US1COHD0001</id>
    <displayName>LAKE CITY 1.5 NNE, CO US</displayName>
    <minDate>2003-02-12</minDate>
    <maxDate>2007-10-11</maxDate>
    <latitude>38.05</latitude>
    <longitude>-107.3054</longitude>
    <elevation>2653.9</elevation>
    <locationLabels>
      <type>CNTRY</type>
      <id>FIPS:US</id>
      <displayName>United States</displayName>
    </locationLabels>
    <coverage>0.9977</coverage>
  </station>
  <station>
    <id>GHCND:USC00084731</id>
    <displayName>LAKE CITY 2 E, FL US</displayName>
    <minDate>1892-11-01</minDate>
    <maxDate>2013-01-16</maxDate>
    <latitude>30.1852</latitude>
    <longitude>-82.5941</longitude>
    <elevation>59.4</elevation>
    <locationLabels>
      <type>CNTRY</type>
      <id>FIPS:US</id>
      <displayName>United States</displayName>
    </locationLabels>
    <coverage>0.9891</coverage>
  </station>
  <station>
    <id>GHCND:USC00384886</id>
    <displayName>LAKE CITY 2 SE, SC US</displayName>
    <minDate>1937-09-16</minDate>
    <maxDate>2013-01-16</maxDate>
    <latitude>33.8641</latitude>
    <longitude>-79.7297</longitude>
    <elevation>22.9</elevation>
    <locationLabels>
      <type>CNTRY</type>
      <id>FIPS:US</id>
      <displayName>United States</displayName>
    </locationLabels>
    <coverage>0.9327</coverage>
  </station>
  <station>
    <id>GHCND:US1FLCB0005</id>
    <displayName>LAKE CITY 3.4 SSW, FL US</displayName>
    <minDate>2010-09-28</minDate>
    <maxDate>2011-09-21</maxDate>
    <latitude>30.15</latitude>
    <longitude>-82.67</longitude>
    <elevation>34.1</elevation>
    <locationLabels>
      <type>CNTRY</type>
      <id>FIPS:US</id>
      <displayName>United States</displayName>
    </locationLabels>
    <coverage>0.5961</coverage>
  </station>
  <station>
    <id>GHCND:US1MIMK0001</id>
    <displayName>LAKE CITY 5.0 SSW, MI US</displayName>
    <minDate>2010-04-19</minDate>
    <maxDate>2013-01-16</maxDate>
    <latitude>44.2659</latitude>
    <longitude>-85.2553</longitude>
    <elevation>374.3</elevation>
    <locationLabels>
      <type>CNTRY</type>
      <id>FIPS:US</id>
      <displayName>United States</displayName>
    </locationLabels>
    <coverage>0.9761</coverage>
  </station>
  <station>
    <id>GHCND:US1FLSW0007</id>
    <displayName>LAKE CITY 9.9 W, FL US</displayName>
    <minDate>2010-04-07</minDate>
    <maxDate>2012-11-06</maxDate>
    <latitude>30.1725</latitude>
    <longitude>-82.8059</longitude>
    <elevation>34.1</elevation>
    <locationLabels>
      <type>CNTRY</type>
      <id>FIPS:US</id>
      <displayName>United States</displayName>
    </locationLabels>
    <coverage>0.1429</coverage>
  </station>
  <station>
    <id>GHCND:USC00204502</id>
    <displayName>LAKE CITY EXPERIMENTAL FARM, MI US</displayName>
    <minDate>1892-07-01</minDate>
    <maxDate>2013-01-16</maxDate>
    <latitude>44.3088</latitude>
    <longitude>-85.205</longitude>
    <elevation>374.9</elevation>
    <locationLabels>
      <type>CNTRY</type>
      <id>FIPS:US</id>
      <displayName>United States</displayName>
    </locationLabels>
    <coverage>0.7718</coverage>
  </station>
  <station>
    <id>GHCND:USW00093838</id>
    <displayName>LAKE CITY NAS, FL US</displayName>
    <minDate>1945-05-01</minDate>
    <maxDate>1946-04-30</maxDate>
    <latitude>30.18333</latitude>
    <longitude>-82.56667</longitude>
    <elevation>68</elevation>
    <locationLabels>
      <type>CNTRY</type>
      <id>FIPS:US</id>
      <displayName>United States</displayName>
    </locationLabels>
    <coverage>0.989</coverage>
  </station>
  <station>
    <id>GHCND:USC00054735</id>
    <displayName>LAKE CITY NUMBER 2, CO US</displayName>
    <minDate>2010-07-01</minDate>
    <maxDate>2012-10-02</maxDate>
    <latitude>38.02278</latitude>
    <longitude>-107.31444</longitude>
    <elevation>2644.4</elevation>
    <locationLabels>
      <type>CNTRY</type>
      <id>FIPS:US</id>
      <displayName>United States</displayName>
    </locationLabels>
    <coverage>0.983</coverage>
  </station>
  <station>
    <id>GHCND:USC00033998</id>
    <displayName>LAKE CITY, AR US</displayName>
    <minDate>1948-01-01</minDate>
    <maxDate>1997-02-28</maxDate>
    <latitude>35.8</latitude>
    <longitude>-90.45</longitude>
    <elevation>70.1</elevation>
    <locationLabels>
      <type>CNTRY</type>
      <id>FIPS:US</id>
      <displayName>United States</displayName>
    </locationLabels>
    <coverage>0.8985</coverage>
  </station>
  <station>
    <id>GHCND:USC00044675</id>
    <displayName>LAKE CITY, CA US</displayName>
    <minDate>1929-03-01</minDate>
    <maxDate>1960-10-11</maxDate>
    <latitude>41.63333</latitude>
    <longitude>-120.21667</longitude>
    <elevation>1406</elevation>
    <locationLabels>
      <type>CNTRY</type>
      <id>FIPS:US</id>
      <displayName>United States</displayName>
    </locationLabels>
    <coverage>0.8602</coverage>
  </station>
  <station>
    <id>GHCND:USC00054734</id>
    <displayName>LAKE CITY, CO US</displayName>
    <minDate>1905-05-01</minDate>
    <maxDate>2010-05-31</maxDate>
    <latitude>38.0247</latitude>
    <longitude>-107.3147</longitude>
    <elevation>2641.7</elevation>
    <locationLabels>
      <type>CNTRY</type>
      <id>FIPS:US</id>
      <displayName>United States</displayName>
    </locationLabels>
    <coverage>0.6899</coverage>
  </station>
  <station>
    <id>GHCND:USC00134547</id>
    <displayName>LAKE CITY, IA US</displayName>
    <minDate>1936-05-01</minDate>
    <maxDate>1972-10-31</maxDate>
    <latitude>42.26667</latitude>
    <longitude>-94.73333</longitude>
    <elevation>378</elevation>
    <locationLabels>
      <type>CNTRY</type>
      <id>FIPS:US</id>
      <displayName>United States</displayName>
    </locationLabels>
    <coverage>0.9562</coverage>
  </station>
  <station>
    <id>GHCND:USC00214438</id>
    <displayName>LAKE CITY, MN US</displayName>
    <minDate>1896-04-01</minDate>
    <maxDate>2013-01-16</maxDate>
    <latitude>44.4363</latitude>
    <longitude>-92.2793</longitude>
    <elevation>213.4</elevation>
    <locationLabels>
      <type>CNTRY</type>
      <id>FIPS:US</id>
      <displayName>United States</displayName>
    </locationLabels>
    <coverage>0.5327</coverage>
  </station>
  <station>
    <id>GHCND:USC00405011</id>
    <displayName>LAKE CITY, TN US</displayName>
    <minDate>1949-01-01</minDate>
    <maxDate>1950-11-10</maxDate>
    <latitude>36.23333</latitude>
    <longitude>-84.16667</longitude>
    <elevation>262.1</elevation>
    <locationLabels>
      <type>CNTRY</type>
      <id>FIPS:US</id>
      <displayName>United States</displayName>
    </locationLabels>
    <coverage>1</coverage>
  </station>
  <station>
    <id>GHCND:USC00454394</id>
    <displayName>LAKE CLE ELUM, WA US</displayName>
    <minDate>1908-10-01</minDate>
    <maxDate>1977-08-31</maxDate>
    <latitude>47.25</latitude>
    <longitude>-121.06667</longitude>
    <elevation>688.8</elevation>
    <locationLabels>
      <type>CNTRY</type>
      <id>FIPS:US</id>
      <displayName>United States</displayName>
    </locationLabels>
    <coverage>0.9465</coverage>
  </station>
  <station>
    <id>GHCND:USC00194012</id>
    <displayName>LAKE COCHITUATE, MA US</displayName>
    <minDate>1885-01-01</minDate>
    <maxDate>1960-09-30</maxDate>
    <latitude>42.31667</latitude>
    <longitude>-71.38333</longitude>
    <elevation>46</elevation>
    <locationLabels>
      <type>CNTRY</type>
      <id>FIPS:US</id>
      <displayName>United States</displayName>
    </locationLabels>
    <coverage>0.9124</coverage>
  </station>
  <station>
    <id>GHCND:USC00414973</id>
    <displayName>LAKE COFFEE MILL, TX US</displayName>
    <minDate>1948-06-01</minDate>
    <maxDate>1951-09-09</maxDate>
    <latitude>33.73333</latitude>
    <longitude>-96</longitude>
    <elevation>153</elevation>
    <locationLabels>
      <type>CNTRY</type>
      <id>FIPS:US</id>
      <displayName>United States</displayName>
    </locationLabels>
    <coverage>0.8896</coverage>
  </station>
  <station>
    <id>GHCND:USC00304520</id>
    <displayName>LAKE COLDEN, NY US</displayName>
    <minDate>1921-01-15</minDate>
    <maxDate>1922-10-31</maxDate>
    <latitude>44.1</latitude>
    <longitude>-74</longitude>
    <elevation>838.2</elevation>
    <locationLabels>
      <type>CNTRY</type>
      <id>FIPS:US</id>
      <displayName>United States</displayName>
    </locationLabels>
    <coverage>0.9954</coverage>
  </station>
  <station>
    <id>GHCND:USC00414974</id>
    <displayName>LAKE COLORADO CITY, TX US</displayName>
    <minDate>1954-11-01</minDate>
    <maxDate>1993-03-31</maxDate>
    <latitude>32.33333</latitude>
    <longitude>-100.91667</longitude>
    <elevation>640.1</elevation>
    <locationLabels>
      <type>CNTRY</type>
      <id>FIPS:US</id>
      <displayName>United States</displayName>
    </locationLabels>
    <coverage>0.7372</coverage>
  </station>
  <station>
    <id>GHCND:US1NJMN0008</id>
    <displayName>LAKE COMO 0.2 S, NJ US</displayName>
    <minDate>2008-06-05</minDate>
    <maxDate>2012-10-29</maxDate>
    <latitude>40.1678</latitude>
    <longitude>-74.0261</longitude>
    <elevation>2.7</elevation>
    <locationLabels>
      <type>CNTRY</type>
      <id>FIPS:US</id>
      <displayName>United States</displayName>
    </locationLabels>
    <coverage>0.7917</coverage>
  </station>
  <station>
    <id>GHCND:USC00224838</id>
    <displayName>LAKE COMO, MS US</displayName>
    <minDate>1902-08-01</minDate>
    <maxDate>1911-10-31</maxDate>
    <latitude>31.96667</latitude>
    <longitude>-89.21667</longitude>
    <locationLabels>
      <type>CNTRY</type>
      <id>FIPS:US</id>
      <displayName>United States</displayName>
    </locationLabels>
    <coverage>0.974</coverage>
  </station>
  <station>
    <id>GHCND:USC00224842</id>
    <displayName>LAKE CORMORANT, MS US</displayName>
    <minDate>1909-04-22</minDate>
    <maxDate>2012-09-29</maxDate>
    <latitude>34.9044</latitude>
    <longitude>-90.2119</longitude>
    <elevation>62.5</elevation>
    <locationLabels>
      <type>CNTRY</type>
      <id>FIPS:US</id>
      <displayName>United States</displayName>
    </locationLabels>
    <coverage>0.6885</coverage>
  </station>
  <station>
    <id>GHCND:USC00354636</id>
    <displayName>LAKE CREEK 1 E, OR US</displayName>
    <minDate>1996-01-01</minDate>
    <maxDate>1998-05-31</maxDate>
    <latitude>42.42583</latitude>
    <longitude>-122.62306</longitude>
    <elevation>472.4</elevation>
    <locationLabels>
      <type>CNTRY</type>
      <id>FIPS:US</id>
      <displayName>United States</displayName>
    </locationLabels>
    <coverage>0.9274</coverage>
  </station>
  <station>
    <id>GHCND:USC00354633</id>
    <displayName>LAKE CREEK 3 NE, OR US</displayName>
    <minDate>1978-03-01</minDate>
    <maxDate>1995-11-30</maxDate>
    <latitude>42.45</latitude>
    <longitude>-122.56667</longitude>
    <elevation>731.5</elevation>
    <locationLabels>
      <type>CNTRY</type>
      <id>FIPS:US</id>
      <displayName>United States</displayName>
    </locationLabels>
    <coverage>0.8791</coverage>
  </station>
  <station>
    <id>GHCND:USC00354635</id>
    <displayName>LAKE CREEK 6 SE, OR US</displayName>
    <minDate>1917-08-01</minDate>
    <maxDate>1953-03-31</maxDate>
    <latitude>42.36667</latitude>
    <longitude>-122.53333</longitude>
    <elevation>534</elevation>
    <locationLabels>
      <type>CNTRY</type>
      <id>FIPS:US</id>
      <displayName>United States</displayName>
    </locationLabels>
    <coverage>0.9308</coverage>
  </station>
  <station>
    <id>GHCND:USS0018E18S</id>
    <displayName>LAKE CREEK RANGER STATION, OR US</displayName>
    <minDate>1978-10-01</minDate>
    <maxDate>2013-01-13</maxDate>
    <latitude>44.1833</latitude>
    <longitude>-118.6</longitude>
    <elevation>1585</elevation>
    <locationLabels>
      <type>CNTRY</type>
      <id>FIPS:US</id>
      <displayName>United States</displayName>
    </locationLabels>
    <coverage>0.9246</coverage>
  </station>
  <station>
    <id>GHCND:USC00354634</id>
    <displayName>LAKE CREEK, OR US</displayName>
    <minDate>1955-01-22</minDate>
    <maxDate>2009-12-31</maxDate>
    <latitude>42.39028</latitude>
    <longitude>-122.62583</longitude>
    <elevation>568.5</elevation>
    <locationLabels>
      <type>CNTRY</type>
      <id>FIPS:US</id>
      <displayName>United States</displayName>
    </locationLabels>
    <coverage>0.4985</coverage>
  </station>
  <station>
    <id>GHCND:US1MNBU0006</id>
    <displayName>LAKE CRYSTAL 6.3 NNE, MN US</displayName>
    <minDate>2010-08-12</minDate>
    <maxDate>2012-11-07</maxDate>
    <latitude>44.1854</latitude>
    <longitude>-94.1591</longitude>
    <elevation>243.2</elevation>
    <locationLabels>
      <type>CNTRY</type>
      <id>FIPS:US</id>
      <displayName>United States</displayName>
    </locationLabels>
    <coverage>0.5495</coverage>
  </station>
  <station>
    <id>GHCND:USC00214441</id>
    <displayName>LAKE CRYSTAL, MN US</displayName>
    <minDate>1907-03-01</minDate>
    <maxDate>1920-06-30</maxDate>
    <latitude>44.1</latitude>
    <longitude>-94.2</longitude>
    <elevation>301.8</elevation>
    <locationLabels>
      <type>CNTRY</type>
      <id>FIPS:US</id>
      <displayName>United States</displayName>
    </locationLabels>
    <coverage>0.8475</coverage>
  </station>
  <station>
    <id>GHCND:USC00414977</id>
    <displayName>LAKE DALLAS, TX US</displayName>
    <minDate>1940-08-01</minDate>
    <maxDate>1956-05-31</maxDate>
    <latitude>33.11667</latitude>
    <longitude>-97.03333</longitude>
    <elevation>159.1</elevation>
    <locationLabels>
      <type>CNTRY</type>
      <id>FIPS:US</id>
      <displayName>United States</displayName>
    </locationLabels>
    <coverage>0.8997</coverage>
  </station>
  <station>
    <id>GHCND:USC00304525</id>
    <displayName>LAKE DELAWARE, NY US</displayName>
    <minDate>1948-05-01</minDate>
    <maxDate>1981-02-28</maxDate>
    <latitude>42.25</latitude>
    <longitude>-74.9</longitude>
    <elevation>448.1</elevation>
    <locationLabels>
      <type>CNTRY</type>
      <id>FIPS:US</id>
      <displayName>United States</displayName>
    </locationLabels>
    <coverage>0.9882</coverage>
  </station>
  <station>
    <id>GHCND:USC00454397</id>
    <displayName>LAKE DOUGLASS, WA US</displayName>
    <minDate>1912-03-01</minDate>
    <maxDate>1919-05-31</maxDate>
    <latitude>48.466667</latitude>
    <longitude>-122.6</longitude>
    <elevation>134.1</elevation>
    <locationLabels>
      <type>CNTRY</type>
      <id>FIPS:US</id>
      <displayName>United States</displayName>
    </locationLabels>
    <coverage>0.8267</coverage>
  </station>
  <station>
    <id>GHCND:USS0005J41S</id>
    <displayName>LAKE ELDORA, CO US</displayName>
    <minDate>1978-10-01</minDate>
    <maxDate>2013-01-13</maxDate>
    <latitude>39.9333</latitude>
    <longitude>-105.5833</longitude>
    <elevation>2956.6</elevation>
    <locationLabels>
      <type>CNTRY</type>
      <id>FIPS:US</id>
      <displayName>United States</displayName>
    </locationLabels>
    <coverage>0.8857</coverage>
  </station>
  <station>
    <id>GHCND:USC00044679</id>
    <displayName>LAKE ELEANOR, CA US</displayName>
    <minDate>1909-10-01</minDate>
    <maxDate>1957-10-31</maxDate>
    <latitude>37.96667</latitude>
    <longitude>-119.88333</longitude>
    <elevation>1421</elevation>
    <locationLabels>
      <type>CNTRY</type>
      <id>FIPS:US</id>
      <displayName>United States</displayName>
    </locationLabels>
    <coverage>0.9092</coverage>
  </station>
  <station>
    <id>GHCND:US1MNWG0018</id>
    <displayName>LAKE ELMO 1.1 ENE, MN US</displayName>
    <minDate>2011-04-06</minDate>
    <maxDate>2012-10-31</maxDate>
    <latitude>44.9991</latitude>
    <longitude>-92.8821</longitude>
    <elevation>285</elevation>
    <locationLabels>
      <type>CNTRY</type>
      <id>FIPS:US</id>
      <displayName>United States</displayName>
    </locationLabels>
    <coverage>0.4643</coverage>
  </station>
  <station>
    <id>GHCND:US1MNWG0014</id>
    <displayName>LAKE ELMO 2.7 NNW, MN US</displayName>
    <minDate>2011-04-01</minDate>
    <maxDate>2012-10-31</maxDate>
    <latitude>45.0318</latitude>
    <longitude>-92.9165</longitude>
    <elevation>301.8</elevation>
    <locationLabels>
      <type>CNTRY</type>
      <id>FIPS:US</id>
      <displayName>United States</displayName>
    </locationLabels>
    <coverage>0.6741</coverage>
  </station>
  <station>
    <id>GHCND:US1MNWG0021</id>
    <displayName>LAKE ELMO 2.7 NW 81, MN US</displayName>
    <minDate>2011-04-04</minDate>
    <maxDate>2011-10-31</maxDate>
    <latitude>45.0171</latitude>
    <longitude>-92.9478</longitude>
    <elevation>282.9</elevation>
    <locationLabels>
      <type>CNTRY</type>
      <id>FIPS:US</id>
      <displayName>United States</displayName>
    </locationLabels>
    <coverage>0.8815</coverage>
  </station>
  <station>
    <id>GHCND:US1CARV0012</id>
    <displayName>LAKE ELSINORE 3.5 WSW, CA US</displayName>
    <minDate>2008-12-02</minDate>
    <maxDate>2013-01-13</maxDate>
    <latitude>33.6574</latitude>
    <longitude>-117.3808</longitude>
    <elevation>413.3</elevation>
    <locationLabels>
      <type>CNTRY</type>
      <id>FIPS:US</id>
      <displayName>United States</displayName>
    </locationLabels>
    <coverage>0.494</coverage>
  </station>
  <station>
    <id>GHCND:US1CARV0026</id>
    <displayName>LAKE ELSINORE 4.7 SSW, CA US</displayName>
    <minDate>2012-07-16</minDate>
    <maxDate>2013-01-16</maxDate>
    <latitude>33.6092</latitude>
    <longitude>-117.3589</longitude>
    <elevation>943.4</elevation>
    <locationLabels>
      <type>CNTRY</type>
      <id>FIPS:US</id>
      <displayName>United States</displayName>
    </locationLabels>
    <coverage>0.8811</coverage>
  </station>
  <station>
    <id>GHCND:USC00165081</id>
    <displayName>LAKE END, LA US</displayName>
    <minDate>1942-12-01</minDate>
    <maxDate>1972-04-30</maxDate>
    <latitude>31.91667</latitude>
    <longitude>-93.3</longitude>
    <elevation>39.9</elevation>
    <locationLabels>
      <type>CNTRY</type>
      <id>FIPS:US</id>
      <displayName>United States</displayName>
    </locationLabels>
    <coverage>0.9248</coverage>
  </station>
  <station>
    <id>GHCND:USC00342997</id>
    <displayName>LAKE EUFAULA, OK US</displayName>
    <minDate>1965-05-01</minDate>
    <maxDate>1970-08-31</maxDate>
    <latitude>35.29278</latitude>
    <longitude>-95.43222</longitude>
    <elevation>259.1</elevation>
    <locationLabels>
      <type>CNTRY</type>
      <id>FIPS:US</id>
      <displayName>United States</displayName>
    </locationLabels>
    <coverage>1</coverage>
  </station>
  <station>
    <id>GHCND:USC00344975</id>
    <displayName>LAKE EUFAULA, OK US</displayName>
    <minDate>1970-09-01</minDate>
    <maxDate>2004-02-29</maxDate>
    <latitude>35.29278</latitude>
    <longitude>-95.43222</longitude>
    <elevation>259.1</elevation>
    <locationLabels>
      <type>CNTRY</type>
      <id>FIPS:US</id>
      <displayName>United States</displayName>
    </locationLabels>
    <coverage>0.9416</coverage>
  </station>
  <station>
    <id>GHCND:USC00464994</id>
    <displayName>LAKE FLOYD, WV US</displayName>
    <minDate>1946-02-01</minDate>
    <maxDate>1954-06-30</maxDate>
    <latitude>39.28333</latitude>
    <longitude>-80.5</longitude>
    <elevation>338.9</elevation>
    <locationLabels>
      <type>CNTRY</type>
      <id>FIPS:US</id>
      <displayName>United States</displayName>
    </locationLabels>
    <coverage>0.9938</coverage>
  </station>
  <station>
    <id>GHCND:US1ILLK0022</id>
    <displayName>LAKE FOREST 2.1 NNE, IL US</displayName>
    <minDate>2007-08-01</minDate>
    <maxDate>2013-01-16</maxDate>
    <latitude>42.266</latitude>
    <longitude>-87.846</longitude>
    <elevation>217</elevation>
    <locationLabels>
      <type>CNTRY</type>
      <id>FIPS:US</id>
      <displayName>United States</displayName>
    </locationLabels>
    <coverage>0.9389</coverage>
  </station>
  <station>
    <id>GHCND:US1WAKG0003</id>
    <displayName>LAKE FOREST PARK 0.4 W, WA US</displayName>
    <minDate>2008-06-07</minDate>
    <maxDate>2013-01-16</maxDate>
    <latitude>47.7636</latitude>
    <longitude>-122.2939</longitude>
    <elevation>43.9</elevation>
    <locationLabels>
      <type>CNTRY</type>
      <id>FIPS:US</id>
      <displayName>United States</displayName>
    </locationLabels>
    <coverage>0.1911</coverage>
  </station>
  <station>
    <id>GHCND:USC00414976</id>
    <displayName>LAKE FORK RESERVOIR, TX US</displayName>
    <minDate>1989-01-01</minDate>
    <maxDate>2013-01-16</maxDate>
    <latitude>32.8241</latitude>
    <longitude>-95.5275</longitude>
    <elevation>126.2</elevation>
    <locationLabels>
      <type>CNTRY</type>
      <id>FIPS:US</id>
      <displayName>United States</displayName>
    </locationLabels>
    <coverage>0.9776</coverage>
  </station>
  <station>
    <id>GHCND:US1WIWW0002</id>
    <displayName>LAKE GENEVA 0.6 ENE, WI US</displayName>
    <minDate>2008-09-11</minDate>
    <maxDate>2013-01-16</maxDate>
    <latitude>42.5917</latitude>
    <longitude>-88.4177</longitude>
    <elevation>266.1</elevation>
    <locationLabels>
      <type>CNTRY</type>
      <id>FIPS:US</id>
      <displayName>United States</displayName>
    </locationLabels>
    <coverage>0.9975</coverage>
  </station>
  <station>
    <id>GHCND:USC00474457</id>
    <displayName>LAKE GENEVA, WI US</displayName>
    <minDate>1945-04-01</minDate>
    <maxDate>2003-06-30</maxDate>
    <latitude>42.59361</latitude>
    <longitude>-88.43472</longitude>
    <elevation>257.9</elevation>
    <locationLabels>
      <type>CNTRY</type>
      <id>FIPS:US</id>
      <displayName>United States</displayName>
    </locationLabels>
    <coverage>0.9933</coverage>
  </station>
  <station>
    <id>GHCND:US1COPK0088</id>
    <displayName>LAKE GEORGE 1.1 SE, CO US</displayName>
    <minDate>2009-01-13</minDate>
    <maxDate>2012-12-31</maxDate>
    <latitude>38.9693</latitude>
    <longitude>-105.355</longitude>
    <elevation>2463.1</elevation>
    <locationLabels>
      <type>CNTRY</type>
      <id>FIPS:US</id>
      <displayName>United States</displayName>
    </locationLabels>
    <coverage>0.6004</coverage>
  </station>
  <station>
    <id>GHCND:US1COPK0063</id>
    <displayName>LAKE GEORGE 2.7 ENE, CO US</displayName>
    <minDate>2004-06-26</minDate>
    <maxDate>2005-04-12</maxDate>
    <latitude>38.9988</latitude>
    <longitude>-105.3132</longitude>
    <elevation>2688.9</elevation>
    <locationLabels>
      <type>CNTRY</type>
      <id>FIPS:US</id>
      <displayName>United States</displayName>
    </locationLabels>
    <coverage>0.8832</coverage>
  </station>
  <station>
    <id>GHCND:US1COPK0080</id>
    <displayName>LAKE GEORGE 2.7 W, CO US</displayName>
    <minDate>2006-07-27</minDate>
    <maxDate>2006-12-21</maxDate>
    <latitude>38.9867</latitude>
    <longitude>-105.4204</longitude>
    <elevation>2564.9</elevation>
    <locationLabels>
      <type>CNTRY</type>
      <id>FIPS:US</id>
      <displayName>United States</displayName>
    </locationLabels>
    <coverage>0.7297</coverage>
  </station>
  <station>
    <id>GHCND:US1COTL0010</id>
    <displayName>LAKE GEORGE 3.1 E, CO US</displayName>
    <minDate>2004-06-27</minDate>
    <maxDate>2008-05-05</maxDate>
    <latitude>38.9872</latitude>
    <longitude>-105.3004</longitude>
    <elevation>2706.3</elevation>
    <locationLabels>
      <type>CNTRY</type>
      <id>FIPS:US</id>
      <displayName>United States</displayName>
    </locationLabels>
    <coverage>0.6515</coverage>
  </station>
  <station>
    <id>GHCND:US1COPK0037</id>
    <displayName>LAKE GEORGE 5.3 WNW, CO US</displayName>
    <minDate>2004-02-04</minDate>
    <maxDate>2008-08-08</maxDate>
    <latitude>38.9997</latitude>
    <longitude>-105.4534</longitude>
    <elevation>2684.1</elevation>
    <locationLabels>
      <type>CNTRY</type>
      <id>FIPS:US</id>
      <displayName>United States</displayName>
    </locationLabels>
    <coverage>0.7925</coverage>
  </station>
  <station>
    <id>GHCND:US1COPK0038</id>
    <displayName>LAKE GEORGE 5.9 S, CO US</displayName>
    <minDate>2004-02-08</minDate>
    <maxDate>2005-07-04</maxDate>
    <latitude>38.8948</latitude>
    <longitude>-105.3693</longitude>
    <elevation>2691.1</elevation>
    <locationLabels>
      <type>CNTRY</type>
      <id>FIPS:US</id>
      <displayName>United States</displayName>
    </locationLabels>
    <coverage>0.9376</coverage>
  </station>
  <station>
    <id>GHCND:US1COPK0039</id>
    <displayName>LAKE GEORGE 7.2 WNW, CO US</displayName>
    <minDate>2004-02-04</minDate>
    <maxDate>2013-01-16</maxDate>
    <latitude>39.0205</latitude>
    <longitude>-105.494</longitude>
    <elevation>2743.2</elevation>
    <locationLabels>
      <type>CNTRY</type>
      <id>FIPS:US</id>
      <displayName>United States</displayName>
    </locationLabels>
    <coverage>0.8639</coverage>
  </station>
  <station>
    <id>GHCND:US1COPK0046</id>
    <displayName>LAKE GEORGE 7.5 WSW, CO US</displayName>
    <minDate>2004-02-22</minDate>
    <maxDate>2013-01-13</maxDate>
    <latitude>38.9446</latitude>
    <longitude>-105.4895</longitude>
    <elevation>2710</elevation>
    <locationLabels>
      <type>CNTRY</type>
      <id>FIPS:US</id>
      <displayName>United States</displayName>
    </locationLabels>
    <coverage>0.9</coverage>
  </station>
  <station>
    <id>GHCND:USC00054742</id>
    <displayName>LAKE GEORGE 8 SW, CO US</displayName>
    <minDate>1948-08-01</minDate>
    <maxDate>2013-01-16</maxDate>
    <latitude>38.9075</latitude>
    <longitude>-105.4705</longitude>
    <elevation>2606</elevation>
    <locationLabels>
      <type>CNTRY</type>
      <id>FIPS:US</id>
      <displayName>United States</displayName>
    </locationLabels>
    <coverage>0.8547</coverage>
  </station>
  <station>
    <id>GHCND:USR0000CLGE</id>
    <displayName>LAKE GEORGE COLORADO, CO US</displayName>
    <minDate>1991-05-21</minDate>
    <maxDate>2012-08-31</maxDate>
    <latitude>38.9772</latitude>
    <longitude>-105.3553</longitude>
    <elevation>2281.4</elevation>
    <locationLabels>
      <type>CNTRY</type>
      <id>FIPS:US</id>
      <displayName>United States</displayName>
    </locationLabels>
    <coverage>0.9639</coverage>
  </station>
  <station>
    <id>GHCND:USC00304530</id>
    <displayName>LAKE GEORGE NUMBER 1, NY US</displayName>
    <minDate>1896-11-01</minDate>
    <maxDate>1908-08-31</maxDate>
    <latitude>43.433333</latitude>
    <longitude>-73.716667</longitude>
    <elevation>106.7</elevation>
    <locationLabels>
      <type>CNTRY</type>
      <id>FIPS:US</id>
      <displayName>United States</displayName>
    </locationLabels>
    <coverage>0.9102</coverage>
  </station>
  <station>
    <id>GHCND:USC00304529</id>
    <displayName>LAKE GEORGE, NY US</displayName>
    <minDate>1903-12-01</minDate>
    <maxDate>1919-04-30</maxDate>
    <latitude>43.433333</latitude>
    <longitude>-73.716667</longitude>
    <elevation>106.7</elevation>
    <locationLabels>
      <type>CNTRY</type>
      <id>FIPS:US</id>
      <displayName>United States</displayName>
    </locationLabels>
    <coverage>0.956</coverage>
  </station>
  <station>
    <id>GHCND:USC00384896</id>
    <displayName>LAKE GREENWOOD, SC US</displayName>
    <minDate>2011-01-01</minDate>
    <maxDate>2012-11-30</maxDate>
    <latitude>34.16833</latitude>
    <longitude>-81.905</longitude>
    <elevation>152.4</elevation>
    <locationLabels>
      <type>CNTRY</type>
      <id>FIPS:US</id>
      <displayName>United States</displayName>
    </locationLabels>
    <coverage>1</coverage>
  </station>
  <station>
    <id>GHCND:US1FLLK0012</id>
    <displayName>LAKE GRIFFIN STATE PARK, FL US</displayName>
    <minDate>2010-01-01</minDate>
    <maxDate>2012-12-10</maxDate>
    <latitude>28.8575</latitude>
    <longitude>-81.9025</longitude>
    <elevation>29.9</elevation>
    <locationLabels>
      <type>CNTRY</type>
      <id>FIPS:US</id>
      <displayName>United States</displayName>
    </locationLabels>
    <coverage>0.9702</coverage>
  </station>
  <station>
    <id>GHCND:USC00304531</id>
    <displayName>LAKE GROVE, NY US</displayName>
    <minDate>1914-01-01</minDate>
    <maxDate>1919-04-30</maxDate>
    <latitude>40.866667</latitude>
    <longitude>-73.116667</longitude>
    <elevation>33.5</elevation>
    <locationLabels>
      <type>CNTRY</type>
      <id>FIPS:US</id>
      <displayName>United States</displayName>
    </locationLabels>
    <coverage>0.5935</coverage>
  </station>
  <station>
    <id>GHCND:US1AZMH0005</id>
    <displayName>LAKE HAVASU 2.6 N, AZ US</displayName>
    <minDate>2010-01-19</minDate>
    <maxDate>2012-12-19</maxDate>
    <latitude>34.5219</latitude>
    <longitude>-114.3233</longitude>
    <elevation>295</elevation>
    <locationLabels>
      <type>CNTRY</type>
      <id>FIPS:US</id>
      <displayName>United States</displayName>
    </locationLabels>
    <coverage>0.6098</coverage>
  </station>
  <station>
    <id>GHCND:US1AZMH0006</id>
    <displayName>LAKE HAVASU 3.5 NE, AZ US</displayName>
    <minDate>2010-02-01</minDate>
    <maxDate>2013-01-02</maxDate>
    <latitude>34.521</latitude>
    <longitude>-114.2802</longitude>
    <elevation>451.4</elevation>
    <locationLabels>
      <type>CNTRY</type>
      <id>FIPS:US</id>
      <displayName>United States</displayName>
    </locationLabels>
    <coverage>0.9841</coverage>
  </station>
  <station>
    <id>GHCND:USW00053172</id>
    <displayName>LAKE HAVASU CITY 19 SE, AZ US</displayName>
    <minDate>2010-09-23</minDate>
    <maxDate>2013-01-15</maxDate>
    <latitude>34.2529</latitude>
    <longitude>-114.1340</longitude>
    <elevation>126.8</elevation>
    <locationLabels>
      <type>CNTRY</type>
      <id>FIPS:US</id>
      <displayName>United States</displayName>
    </locationLabels>
    <coverage>0.9929</coverage>
  </station>
  <station>
    <id>GHCND:USC00024761</id>
    <displayName>LAKE HAVASU CITY, AZ US</displayName>
    <minDate>1991-03-01</minDate>
    <maxDate>2013-01-16</maxDate>
    <latitude>34.5031</latitude>
    <longitude>-114.3604</longitude>
    <elevation>136.9</elevation>
    <locationLabels>
      <type>CNTRY</type>
      <id>FIPS:US</id>
      <displayName>United States</displayName>
    </locationLabels>
    <coverage>0.9724</coverage>
  </station>
  <station>
    <id>GHCND:USC00024759</id>
    <displayName>LAKE HAVASU, AZ US</displayName>
    <minDate>1967-09-01</minDate>
    <maxDate>1991-02-28</maxDate>
    <latitude>34.45</latitude>
    <longitude>-114.36667</longitude>
    <elevation>146.9</elevation>
    <locationLabels>
      <type>CNTRY</type>
      <id>FIPS:US</id>
      <displayName>United States</displayName>
    </locationLabels>
    <coverage>0.9712</coverage>
  </station>
  <station>
    <id>GHCND:USC00344976</id>
    <displayName>LAKE HEFNER 2, OK US</displayName>
    <minDate>1949-09-06</minDate>
    <maxDate>1975-01-28</maxDate>
    <latitude>35.58333</latitude>
    <longitude>-97.58333</longitude>
    <elevation>360</elevation>
    <locationLabels>
      <type>CNTRY</type>
      <id>FIPS:US</id>
      <displayName>United States</displayName>
    </locationLabels>
    <coverage>0.9905</coverage>
  </station>
  <station>
    <id>GHCND:USC00084771</id>
    <displayName>LAKE HIAWASSEE, FL US</displayName>
    <minDate>1939-08-01</minDate>
    <maxDate>1964-12-31</maxDate>
    <latitude>28.53333</latitude>
    <longitude>-81.46667</longitude>
    <elevation>36.9</elevation>
    <locationLabels>
      <type>CNTRY</type>
      <id>FIPS:US</id>
      <displayName>United States</displayName>
    </locationLabels>
    <coverage>0.9908</coverage>
  </station>
  <station>
    <id>GHCND:USC00304533</id>
    <displayName>LAKE HILL, NY US</displayName>
    <minDate>1899-04-01</minDate>
    <maxDate>1959-06-30</maxDate>
    <latitude>42.06667</latitude>
    <longitude>-74.18333</longitude>
    <elevation>342</elevation>
    <locationLabels>
      <type>CNTRY</type>
      <id>FIPS:US</id>
      <displayName>United States</displayName>
    </locationLabels>
    <coverage>0.195</coverage>
  </station>
  <station>
    <id>GHCND:USR0000ILAK</id>
    <displayName>LAKE HILLS IDAHO, ID US</displayName>
    <minDate>1990-06-18</minDate>
    <maxDate>1997-05-08</maxDate>
    <latitude>43.4508</latitude>
    <longitude>-113.9075</longitude>
    <elevation>1822.7</elevation>
    <locationLabels>
      <type>CNTRY</type>
      <id>FIPS:US</id>
      <displayName>United States</displayName>
    </locationLabels>
    <coverage>0.9948</coverage>
  </station>
  <station>
    <id>GHCND:USS0005J10S</id>
    <displayName>LAKE IRENE, CO US</displayName>
    <minDate>1978-10-01</minDate>
    <maxDate>2013-01-13</maxDate>
    <latitude>40.4167</latitude>
    <longitude>-105.8167</longitude>
    <elevation>3261.4</elevation>
    <locationLabels>
      <type>CNTRY</type>
      <id>FIPS:US</id>
      <displayName>United States</displayName>
    </locationLabels>
    <coverage>0.8924</coverage>
  </station>
  <station>
    <id>GHCND:US1TXBRZ020</id>
    <displayName>LAKE JACKSON 0.9 SSW, TX US</displayName>
    <minDate>2012-07-11</minDate>
    <maxDate>2012-12-31</maxDate>
    <latitude>29.0296</latitude>
    <longitude>-95.451</longitude>
    <elevation>3</elevation>
    <locationLabels>
      <type>CNTRY</type>
      <id>FIPS:US</id>
      <displayName>United States</displayName>
    </locationLabels>
    <coverage>0.9885</coverage>
  </station>
  <station>
    <id>GHCND:USC00214445</id>
    <displayName>LAKE JENNIE, MN US</displayName>
    <minDate>1893-01-01</minDate>
    <maxDate>1901-10-31</maxDate>
    <latitude>45</latitude>
    <longitude>-94.25</longitude>
    <elevation>331.9</elevation>
    <locationLabels>
      <type>CNTRY</type>
      <id>FIPS:US</id>
      <displayName>United States</displayName>
    </locationLabels>
    <coverage>0.9076</coverage>
  </station>
  <station>
    <id>GHCND:US1NCHW0015</id>
    <displayName>LAKE JUNALUSKA 5.1 N, NC US</displayName>
    <minDate>2008-01-07</minDate>
    <maxDate>2013-01-16</maxDate>
    <latitude>35.6008</latitude>
    <longitude>-82.9808</longitude>
    <elevation>855.6</elevation>
    <locationLabels>
      <type>CNTRY</type>
      <id>FIPS:US</id>
      <displayName>United States</displayName>
    </locationLabels>
    <coverage>0.8182</coverage>
  </station>
  <station>
    <id>GHCND:USC00454406</id>
    <displayName>LAKE KACHESS, WA US</displayName>
    <minDate>1908-04-05</minDate>
    <maxDate>1977-08-31</maxDate>
    <latitude>47.26667</latitude>
    <longitude>-121.2</longitude>
    <elevation>691.9</elevation>
    <locationLabels>
      <type>CNTRY</type>
      <id>FIPS:US</id>
      <displayName>United States</displayName>
    </locationLabels>
    <coverage>0.9811</coverage>
  </station>
  <station>
    <id>GHCND:USC00454414</id>
    <displayName>LAKE KEECHELUS, WA US</displayName>
    <minDate>1907-06-01</minDate>
    <maxDate>1977-08-31</maxDate>
    <latitude>47.31667</latitude>
    <longitude>-121.33333</longitude>
    <elevation>755.9</elevation>
    <locationLabels>
      <type>CNTRY</type>
      <id>FIPS:US</id>
      <displayName>United States</displayName>
    </locationLabels>
    <coverage>0.9671</coverage>
  </station>
  <station>
    <id>GHCND:USC00414982</id>
    <displayName>LAKE KEMP, TX US</displayName>
    <minDate>1962-04-01</minDate>
    <maxDate>2013-01-16</maxDate>
    <latitude>33.7542</latitude>
    <longitude>-99.1442</longitude>
    <elevation>355.7</elevation>
    <locationLabels>
      <type>CNTRY</type>
      <id>FIPS:US</id>
      <displayName>United States</displayName>
    </locationLabels>
    <coverage>0.8386</coverage>
  </station>
  <station>
    <id>GHCND:USC00414978</id>
    <displayName>LAKE KICKAPOO, TX US</displayName>
    <minDate>1947-11-22</minDate>
    <maxDate>1964-02-29</maxDate>
    <latitude>33.66667</latitude>
    <longitude>-98.78333</longitude>
    <elevation>323.1</elevation>
    <locationLabels>
      <type>CNTRY</type>
      <id>FIPS:US</id>
      <displayName>United States</displayName>
    </locationLabels>
    <coverage>0.962</coverage>
  </station>
  <station>
    <id>GHCND:USC00063989</id>
    <displayName>LAKE KONOMOC, CT US</displayName>
    <minDate>1893-01-01</minDate>
    <maxDate>1978-01-31</maxDate>
    <latitude>41.4</latitude>
    <longitude>-72.18333</longitude>
    <elevation>54.9</elevation>
    <locationLabels>
      <type>CNTRY</type>
      <id>FIPS:US</id>
      <displayName>United States</displayName>
    </locationLabels>
    <coverage>0.8613</coverage>
  </station>
  <station>
    <id>GHCND:USC00204534</id>
    <displayName>LAKE LEELANAU 3 N, MI US</displayName>
    <minDate>1990-05-01</minDate>
    <maxDate>1990-11-01</maxDate>
    <latitude>45.01667</latitude>
    <longitude>-85.71667</longitude>
    <elevation>235</elevation>
    <locationLabels>
      <type>CNTRY</type>
      <id>FIPS:US</id>
      <displayName>United States</displayName>
    </locationLabels>
    <coverage>0.6594</coverage>
  </station>
  <station>
    <id>GHCND:USC00505364</id>
    <displayName>LAKE LOUISE, AK US</displayName>
    <minDate>1972-04-01</minDate>
    <maxDate>1973-05-31</maxDate>
    <latitude>62.3</latitude>
    <longitude>-146.58333</longitude>
    <elevation>747.1</elevation>
    <locationLabels>
      <type>CNTRY</type>
      <id>FIPS:US</id>
      <displayName>United States</displayName>
    </locationLabels>
    <coverage>0.7465</coverage>
  </station>
  <station>
    <id>GHCND:USC00314764</id>
    <displayName>LAKE LURE 2, NC US</displayName>
    <minDate>1948-09-01</minDate>
    <maxDate>2013-01-16</maxDate>
    <latitude>35.4205</latitude>
    <longitude>-82.1877</longitude>
    <elevation>317</elevation>
    <locationLabels>
      <type>CNTRY</type>
      <id>FIPS:US</id>
      <displayName>United States</displayName>
    </locationLabels>
    <coverage>0.7174</coverage>
  </station>
  <station>
    <id>GHCND:USC00314762</id>
    <displayName>LAKE LURE, NC US</displayName>
    <minDate>1973-12-01</minDate>
    <maxDate>1983-09-30</maxDate>
    <latitude>35.4</latitude>
    <longitude>-82.2</longitude>
    <elevation>368.8</elevation>
    <locationLabels>
      <type>CNTRY</type>
      <id>FIPS:US</id>
      <displayName>United States</displayName>
    </locationLabels>
    <coverage>0.9914</coverage>
  </station>
  <station>
    <id>GHCND:USC00304537</id>
    <displayName>LAKE LUZERNE, NY US</displayName>
    <minDate>2011-01-01</minDate>
    <maxDate>2012-11-30</maxDate>
    <latitude>43.2613</latitude>
    <longitude>-73.8343</longitude>
    <elevation>185.9</elevation>
    <locationLabels>
      <type>CNTRY</type>
      <id>FIPS:US</id>
      <displayName>United States</displayName>
    </locationLabels>
    <coverage>0.9271</coverage>
  </station>
  <station>
    <id>GHCND:USC00465002</id>
    <displayName>LAKE LYNN, WV US</displayName>
    <minDate>1928-04-01</minDate>
    <maxDate>2013-01-10</maxDate>
    <latitude>39.72</latitude>
    <longitude>-79.8561</longitude>
    <elevation>274.3</elevation>
    <locationLabels>
      <type>CNTRY</type>
      <id>FIPS:US</id>
      <displayName>United States</displayName>
    </locationLabels>
    <coverage>0.9921</coverage>
  </station>
  <station>
    <id>GHCND:USC00294742</id>
    <displayName>LAKE MALOYA, NM US</displayName>
    <minDate>1942-09-01</minDate>
    <maxDate>2012-09-30</maxDate>
    <latitude>36.9825</latitude>
    <longitude>-104.3752</longitude>
    <elevation>2255.5</elevation>
    <locationLabels>
      <type>CNTRY</type>
      <id>FIPS:US</id>
      <displayName>United States</displayName>
    </locationLabels>
    <coverage>0.9768</coverage>
  </station>
  <station>
    <id>GHCND:USC00034010</id>
    <displayName>LAKE MAUMELLE, AR US</displayName>
    <minDate>1957-01-01</minDate>
    <maxDate>2012-11-30</maxDate>
    <latitude>34.8511</latitude>
    <longitude>-92.4889</longitude>
    <elevation>93</elevation>
    <locationLabels>
      <type>CNTRY</type>
      <id>FIPS:US</id>
      <displayName>United States</displayName>
    </locationLabels>
    <coverage>0.9298</coverage>
  </station>
  <station>
    <id>GHCND:USC00294747</id>
    <displayName>LAKE MC MILLAN, NM US</displayName>
    <minDate>1940-01-01</minDate>
    <maxDate>1949-10-28</maxDate>
    <latitude>32.6</latitude>
    <longitude>-104.33333</longitude>
    <elevation>1000</elevation>
    <locationLabels>
      <type>CNTRY</type>
      <id>FIPS:US</id>
      <displayName>United States</displayName>
    </locationLabels>
    <coverage>0.9376</coverage>
  </station>
  <station>
    <id>GHCND:USC00324879</id>
    <displayName>LAKE METIGOSHE ST PK, ND US</displayName>
    <minDate>1979-02-05</minDate>
    <maxDate>2013-01-15</maxDate>
    <latitude>48.9797</latitude>
    <longitude>-100.3344</longitude>
    <elevation>652.9</elevation>
    <locationLabels>
      <type>CNTRY</type>
      <id>FIPS:US</id>
      <displayName>United States</displayName>
    </locationLabels>
    <coverage>0.8868</coverage>
  </station>
  <station>
    <id>GHCND:USC00314772</id>
    <displayName>LAKE MICHIE, NC US</displayName>
    <minDate>1926-09-01</minDate>
    <maxDate>1973-01-31</maxDate>
    <latitude>36.15</latitude>
    <longitude>-78.83333</longitude>
    <elevation>100.9</elevation>
    <locationLabels>
      <type>CNTRY</type>
      <id>FIPS:US</id>
      <displayName>United States</displayName>
    </locationLabels>
    <coverage>0.9558</coverage>
  </station>
  <station>
    <id>GHCND:US1WIJF0003</id>
    <displayName>LAKE MILLS 3.6 WNW, WI US</displayName>
    <minDate>2007-05-01</minDate>
    <maxDate>2013-01-13</maxDate>
    <latitude>43.0891</latitude>
    <longitude>-88.9765</longitude>
    <elevation>260.9</elevation>
    <locationLabels>
      <type>CNTRY</type>
      <id>FIPS:US</id>
      <displayName>United States</displayName>
    </locationLabels>
    <coverage>0.9981</coverage>
  </station>
</stationCollection>
