<?xml version="1.0" encoding="UTF-8" standalone="yes"?>
<stationCollection totalCount="46020" pageCount="461" pageSize="100" page="168">
  <station>
    <id>GHCND:US10hall021</id>
    <displayName>GRAND ISLAND 1.9 NW, NE US</displayName>
    <minDate>2007-01-01</minDate>
    <maxDate>2013-01-04</maxDate>
    <latitude>40.9435</latitude>
    <longitude>-98.3695</longitude>
    <elevation>569.1</elevation>
    <locationLabels>
      <type>CNTRY</type>
      <id>FIPS:US</id>
      <displayName>United States</displayName>
    </locationLabels>
    <coverage>0.8142</coverage>
  </station>
  <station>
    <id>GHCND:US10hall020</id>
    <displayName>GRAND ISLAND 19.4 W, NE US</displayName>
    <minDate>2007-01-03</minDate>
    <maxDate>2013-01-16</maxDate>
    <latitude>40.8873</latitude>
    <longitude>-98.7113</longitude>
    <elevation>616.9</elevation>
    <locationLabels>
      <type>CNTRY</type>
      <id>FIPS:US</id>
      <displayName>United States</displayName>
    </locationLabels>
    <coverage>0.8776</coverage>
  </station>
  <station>
    <id>GHCND:USC00253396</id>
    <displayName>GRAND ISLAND 2 W, NE US</displayName>
    <minDate>1899-01-01</minDate>
    <maxDate>1938-02-28</maxDate>
    <latitude>40.91667</latitude>
    <longitude>-98.35</longitude>
    <locationLabels>
      <type>CNTRY</type>
      <id>FIPS:US</id>
      <displayName>United States</displayName>
    </locationLabels>
    <coverage>0.8707</coverage>
  </station>
  <station>
    <id>GHCND:US10hall035</id>
    <displayName>GRAND ISLAND 2.1 SW, NE US</displayName>
    <minDate>2010-06-01</minDate>
    <maxDate>2011-06-13</maxDate>
    <latitude>40.898</latitude>
    <longitude>-98.3619</longitude>
    <elevation>0</elevation>
    <locationLabels>
      <type>CNTRY</type>
      <id>FIPS:US</id>
      <displayName>United States</displayName>
    </locationLabels>
    <coverage>1</coverage>
  </station>
  <station>
    <id>GHCND:US10hall002</id>
    <displayName>GRAND ISLAND 2.3 W, NE US</displayName>
    <minDate>2007-01-01</minDate>
    <maxDate>2013-01-15</maxDate>
    <latitude>40.9187</latitude>
    <longitude>-98.3863</longitude>
    <elevation>574.9</elevation>
    <locationLabels>
      <type>CNTRY</type>
      <id>FIPS:US</id>
      <displayName>United States</displayName>
    </locationLabels>
    <coverage>0.952</coverage>
  </station>
  <station>
    <id>GHCND:US10hall004</id>
    <displayName>GRAND ISLAND 5.0 SSW, NE US</displayName>
    <minDate>2007-01-01</minDate>
    <maxDate>2013-01-16</maxDate>
    <latitude>40.8585</latitude>
    <longitude>-98.3781</longitude>
    <elevation>574.9</elevation>
    <locationLabels>
      <type>CNTRY</type>
      <id>FIPS:US</id>
      <displayName>United States</displayName>
    </locationLabels>
    <coverage>0.9864</coverage>
  </station>
  <station>
    <id>GHCND:US10hall007</id>
    <displayName>GRAND ISLAND 6.7 NNE, NE US</displayName>
    <minDate>2007-01-01</minDate>
    <maxDate>2013-01-16</maxDate>
    <latitude>41.018</latitude>
    <longitude>-98.3042</longitude>
    <elevation>558.1</elevation>
    <locationLabels>
      <type>CNTRY</type>
      <id>FIPS:US</id>
      <displayName>United States</displayName>
    </locationLabels>
    <coverage>0.7477</coverage>
  </station>
  <station>
    <id>GHCND:US10hall017</id>
    <displayName>GRAND ISLAND 8.2 SW, NE US</displayName>
    <minDate>2007-01-01</minDate>
    <maxDate>2012-08-08</maxDate>
    <latitude>40.8215</latitude>
    <longitude>-98.4201</longitude>
    <elevation>580</elevation>
    <locationLabels>
      <type>CNTRY</type>
      <id>FIPS:US</id>
      <displayName>United States</displayName>
    </locationLabels>
    <coverage>0.6644</coverage>
  </station>
  <station>
    <id>GHCND:USW00014935</id>
    <displayName>GRAND ISLAND CENTRAL NE REGIONAL AIRPORT, NE US</displayName>
    <minDate>1938-04-01</minDate>
    <maxDate>2013-01-15</maxDate>
    <latitude>40.9611</latitude>
    <longitude>-98.3136</longitude>
    <elevation>560.8</elevation>
    <locationLabels>
      <type>CNTRY</type>
      <id>FIPS:US</id>
      <displayName>United States</displayName>
    </locationLabels>
    <coverage>0.9998</coverage>
  </station>
  <station>
    <id>GHCND:USC00253394</id>
    <displayName>GRAND ISLAND NUMBER 1, NE US</displayName>
    <minDate>1895-01-01</minDate>
    <maxDate>1921-09-30</maxDate>
    <latitude>40.91667</latitude>
    <longitude>-98.35</longitude>
    <elevation>566.9</elevation>
    <locationLabels>
      <type>CNTRY</type>
      <id>FIPS:US</id>
      <displayName>United States</displayName>
    </locationLabels>
    <coverage>0.8968</coverage>
  </station>
  <station>
    <id>GHCND:USC00253397</id>
    <displayName>GRAND ISLAND, NE US</displayName>
    <minDate>1996-12-02</minDate>
    <maxDate>2004-03-31</maxDate>
    <latitude>40.9508</latitude>
    <longitude>-98.4052</longitude>
    <elevation>565.4</elevation>
    <locationLabels>
      <type>CNTRY</type>
      <id>FIPS:US</id>
      <displayName>United States</displayName>
    </locationLabels>
    <coverage>0.997</coverage>
  </station>
  <station>
    <id>GHCND:USC00303381</id>
    <displayName>GRAND ISLAND, NY US</displayName>
    <minDate>1961-07-20</minDate>
    <maxDate>1972-12-31</maxDate>
    <latitude>42.966667</latitude>
    <longitude>-78.966667</longitude>
    <elevation>176.8</elevation>
    <locationLabels>
      <type>CNTRY</type>
      <id>FIPS:US</id>
      <displayName>United States</displayName>
    </locationLabels>
    <coverage>0.9756</coverage>
  </station>
  <station>
    <id>GHCND:USC00163807</id>
    <displayName>GRAND ISLE, LA US</displayName>
    <minDate>1947-03-28</minDate>
    <maxDate>2013-01-15</maxDate>
    <latitude>29.2414</latitude>
    <longitude>-89.9914</longitude>
    <elevation>0.6</elevation>
    <locationLabels>
      <type>CNTRY</type>
      <id>FIPS:US</id>
      <displayName>United States</displayName>
    </locationLabels>
    <coverage>0.5948</coverage>
  </station>
  <station>
    <id>GHCND:USC00173219</id>
    <displayName>GRAND ISLE, ME US</displayName>
    <minDate>1995-12-01</minDate>
    <maxDate>1998-04-30</maxDate>
    <latitude>47.3</latitude>
    <longitude>-68.15</longitude>
    <elevation>146.3</elevation>
    <locationLabels>
      <type>CNTRY</type>
      <id>FIPS:US</id>
      <displayName>United States</displayName>
    </locationLabels>
    <coverage>1</coverage>
  </station>
  <station>
    <id>GHCND:US1COME0025</id>
    <displayName>GRAND JUNCTION .1 E, CO US</displayName>
    <minDate>2003-07-01</minDate>
    <maxDate>2011-09-15</maxDate>
    <latitude>39.0715</latitude>
    <longitude>-108.5596</longitude>
    <elevation>1407.9</elevation>
    <locationLabels>
      <type>CNTRY</type>
      <id>FIPS:US</id>
      <displayName>United States</displayName>
    </locationLabels>
    <coverage>0.8833</coverage>
  </station>
  <station>
    <id>GHCND:US1COME0028</id>
    <displayName>GRAND JUNCTION .61 E, CO US</displayName>
    <minDate>2004-02-17</minDate>
    <maxDate>2004-10-22</maxDate>
    <latitude>39.0735</latitude>
    <longitude>-108.5514</longitude>
    <elevation>1413.1</elevation>
    <locationLabels>
      <type>CNTRY</type>
      <id>FIPS:US</id>
      <displayName>United States</displayName>
    </locationLabels>
    <coverage>0.8795</coverage>
  </station>
  <station>
    <id>GHCND:US1COME0067</id>
    <displayName>GRAND JUNCTION 1.0 E, CO US</displayName>
    <minDate>2007-10-07</minDate>
    <maxDate>2013-01-15</maxDate>
    <latitude>39.0896</latitude>
    <longitude>-108.5351</longitude>
    <elevation>1448.1</elevation>
    <locationLabels>
      <type>CNTRY</type>
      <id>FIPS:US</id>
      <displayName>United States</displayName>
    </locationLabels>
    <coverage>0.8387</coverage>
  </station>
  <station>
    <id>GHCND:US1COME0049</id>
    <displayName>GRAND JUNCTION 1.0 ESE, CO US</displayName>
    <minDate>2004-11-16</minDate>
    <maxDate>2012-12-18</maxDate>
    <latitude>39.0692</latitude>
    <longitude>-108.544</longitude>
    <elevation>1410.9</elevation>
    <locationLabels>
      <type>CNTRY</type>
      <id>FIPS:US</id>
      <displayName>United States</displayName>
    </locationLabels>
    <coverage>0.488</coverage>
  </station>
  <station>
    <id>GHCND:US1COME0078</id>
    <displayName>GRAND JUNCTION 1.0 SSW, CO US</displayName>
    <minDate>2011-07-19</minDate>
    <maxDate>2012-12-25</maxDate>
    <latitude>39.0742</latitude>
    <longitude>-108.5598</longitude>
    <elevation>1403.9</elevation>
    <locationLabels>
      <type>CNTRY</type>
      <id>FIPS:US</id>
      <displayName>United States</displayName>
    </locationLabels>
    <coverage>0.5361</coverage>
  </station>
  <station>
    <id>GHCND:US1COME0075</id>
    <displayName>GRAND JUNCTION 1.1 SSW, CO US</displayName>
    <minDate>2011-02-01</minDate>
    <maxDate>2013-01-16</maxDate>
    <latitude>39.0723</latitude>
    <longitude>-108.5573</longitude>
    <elevation>1403.3</elevation>
    <locationLabels>
      <type>CNTRY</type>
      <id>FIPS:US</id>
      <displayName>United States</displayName>
    </locationLabels>
    <coverage>0.8603</coverage>
  </station>
  <station>
    <id>GHCND:US1COME0057</id>
    <displayName>GRAND JUNCTION 1.2 SE, CO US</displayName>
    <minDate>2006-06-13</minDate>
    <maxDate>2012-09-20</maxDate>
    <latitude>39.0752</latitude>
    <longitude>-108.5373</longitude>
    <elevation>1410.9</elevation>
    <locationLabels>
      <type>CNTRY</type>
      <id>FIPS:US</id>
      <displayName>United States</displayName>
    </locationLabels>
    <coverage>0.0986</coverage>
  </station>
  <station>
    <id>GHCND:US1MIVB0002</id>
    <displayName>GRAND JUNCTION 1.3 ENE, MI US</displayName>
    <minDate>2009-01-15</minDate>
    <maxDate>2013-01-15</maxDate>
    <latitude>42.4093</latitude>
    <longitude>-86.0481</longitude>
    <elevation>202.7</elevation>
    <locationLabels>
      <type>CNTRY</type>
      <id>FIPS:US</id>
      <displayName>United States</displayName>
    </locationLabels>
    <coverage>0.8564</coverage>
  </station>
  <station>
    <id>GHCND:US1COME0086</id>
    <displayName>GRAND JUNCTION 1.5 NW, CO US</displayName>
    <minDate>2012-08-01</minDate>
    <maxDate>2012-12-31</maxDate>
    <latitude>39.1001</latitude>
    <longitude>-108.5762</longitude>
    <elevation>1404.5</elevation>
    <locationLabels>
      <type>CNTRY</type>
      <id>FIPS:US</id>
      <displayName>United States</displayName>
    </locationLabels>
    <coverage>0.9608</coverage>
  </station>
  <station>
    <id>GHCND:US1COME0047</id>
    <displayName>GRAND JUNCTION 2.4 W, CO US</displayName>
    <minDate>2004-11-23</minDate>
    <maxDate>2013-01-16</maxDate>
    <latitude>39.0721</latitude>
    <longitude>-108.6066</longitude>
    <elevation>1414</elevation>
    <locationLabels>
      <type>CNTRY</type>
      <id>FIPS:US</id>
      <displayName>United States</displayName>
    </locationLabels>
    <coverage>0.9379</coverage>
  </station>
  <station>
    <id>GHCND:US1COME0013</id>
    <displayName>GRAND JUNCTION 2.7 SSE, CO US</displayName>
    <minDate>2003-07-07</minDate>
    <maxDate>2013-01-13</maxDate>
    <latitude>39.0508</latitude>
    <longitude>-108.5368</longitude>
    <elevation>1420.1</elevation>
    <locationLabels>
      <type>CNTRY</type>
      <id>FIPS:US</id>
      <displayName>United States</displayName>
    </locationLabels>
    <coverage>0.8867</coverage>
  </station>
  <station>
    <id>GHCND:US1COME0021</id>
    <displayName>GRAND JUNCTION 2.8 SSE, CO US</displayName>
    <minDate>2004-04-05</minDate>
    <maxDate>2007-10-02</maxDate>
    <latitude>39.0319</latitude>
    <longitude>-108.5503</longitude>
    <elevation>1441.1</elevation>
    <locationLabels>
      <type>CNTRY</type>
      <id>FIPS:US</id>
      <displayName>United States</displayName>
    </locationLabels>
    <coverage>0.1654</coverage>
  </station>
  <station>
    <id>GHCND:US1MIVB0005</id>
    <displayName>GRAND JUNCTION 2.9 SSW, MI US</displayName>
    <minDate>2010-04-25</minDate>
    <maxDate>2011-09-21</maxDate>
    <latitude>42.3756</latitude>
    <longitude>-86.0915</longitude>
    <elevation>210</elevation>
    <locationLabels>
      <type>CNTRY</type>
      <id>FIPS:US</id>
      <displayName>United States</displayName>
    </locationLabels>
    <coverage>0.4214</coverage>
  </station>
  <station>
    <id>GHCND:US1COME0068</id>
    <displayName>GRAND JUNCTION 3.3 E, CO US</displayName>
    <minDate>2008-05-13</minDate>
    <maxDate>2008-11-04</maxDate>
    <latitude>39.0924</latitude>
    <longitude>-108.4924</longitude>
    <elevation>1435.9</elevation>
    <locationLabels>
      <type>CNTRY</type>
      <id>FIPS:US</id>
      <displayName>United States</displayName>
    </locationLabels>
    <coverage>0.8523</coverage>
  </station>
  <station>
    <id>GHCND:US1COME0052</id>
    <displayName>GRAND JUNCTION 3.4 N, CO US</displayName>
    <minDate>2005-06-04</minDate>
    <maxDate>2012-12-15</maxDate>
    <latitude>39.1218</latitude>
    <longitude>-108.5587</longitude>
    <elevation>1448.1</elevation>
    <locationLabels>
      <type>CNTRY</type>
      <id>FIPS:US</id>
      <displayName>United States</displayName>
    </locationLabels>
    <coverage>0.0992</coverage>
  </station>
  <station>
    <id>GHCND:US1COME0059</id>
    <displayName>GRAND JUNCTION 3.8 SSE, CO US</displayName>
    <minDate>2006-08-10</minDate>
    <maxDate>2012-12-15</maxDate>
    <latitude>39.0368</latitude>
    <longitude>-108.5224</longitude>
    <elevation>1427.1</elevation>
    <locationLabels>
      <type>CNTRY</type>
      <id>FIPS:US</id>
      <displayName>United States</displayName>
    </locationLabels>
    <coverage>0.7478</coverage>
  </station>
  <station>
    <id>GHCND:US1COME0079</id>
    <displayName>GRAND JUNCTION 3.9 WSW, CO US</displayName>
    <minDate>2011-12-04</minDate>
    <maxDate>2013-01-16</maxDate>
    <latitude>39.0752</latitude>
    <longitude>-108.6236</longitude>
    <elevation>1422.5</elevation>
    <locationLabels>
      <type>CNTRY</type>
      <id>FIPS:US</id>
      <displayName>United States</displayName>
    </locationLabels>
    <coverage>0.9268</coverage>
  </station>
  <station>
    <id>GHCND:US1COME0012</id>
    <displayName>GRAND JUNCTION 4 ENE, CO US</displayName>
    <minDate>2003-07-26</minDate>
    <maxDate>2006-11-12</maxDate>
    <latitude>39.0928</latitude>
    <longitude>-108.4917</longitude>
    <elevation>1439.9</elevation>
    <locationLabels>
      <type>CNTRY</type>
      <id>FIPS:US</id>
      <displayName>United States</displayName>
    </locationLabels>
    <coverage>0.7106</coverage>
  </station>
  <station>
    <id>GHCND:US1COME0069</id>
    <displayName>GRAND JUNCTION 4.0 W, CO US</displayName>
    <minDate>2012-01-01</minDate>
    <maxDate>2013-01-16</maxDate>
    <latitude>39.0884</latitude>
    <longitude>-108.6281</longitude>
    <elevation>1395.1</elevation>
    <locationLabels>
      <type>CNTRY</type>
      <id>FIPS:US</id>
      <displayName>United States</displayName>
    </locationLabels>
    <coverage>0.9869</coverage>
  </station>
  <station>
    <id>GHCND:US1COME0077</id>
    <displayName>GRAND JUNCTION 4.2 ESE, CO US</displayName>
    <minDate>2011-03-11</minDate>
    <maxDate>2012-04-13</maxDate>
    <latitude>39.0639</latitude>
    <longitude>-108.4801</longitude>
    <elevation>1409.7</elevation>
    <locationLabels>
      <type>CNTRY</type>
      <id>FIPS:US</id>
      <displayName>United States</displayName>
    </locationLabels>
    <coverage>0.425</coverage>
  </station>
  <station>
    <id>GHCND:US1COME0081</id>
    <displayName>GRAND JUNCTION 4.2 W, CO US</displayName>
    <minDate>2012-03-19</minDate>
    <maxDate>2013-01-16</maxDate>
    <latitude>39.0853</latitude>
    <longitude>-108.631</longitude>
    <elevation>1415.5</elevation>
    <locationLabels>
      <type>CNTRY</type>
      <id>FIPS:US</id>
      <displayName>United States</displayName>
    </locationLabels>
    <coverage>0.7368</coverage>
  </station>
  <station>
    <id>GHCND:US1COME0014</id>
    <displayName>GRAND JUNCTION 4.3 WSW, CO US</displayName>
    <minDate>2003-07-18</minDate>
    <maxDate>2006-10-02</maxDate>
    <latitude>39.0526</latitude>
    <longitude>-108.6389</longitude>
    <elevation>1481</elevation>
    <locationLabels>
      <type>CNTRY</type>
      <id>FIPS:US</id>
      <displayName>United States</displayName>
    </locationLabels>
    <coverage>0.2532</coverage>
  </station>
  <station>
    <id>GHCND:US1COME0045</id>
    <displayName>GRAND JUNCTION 4.4 ENE, CO US</displayName>
    <minDate>2004-05-19</minDate>
    <maxDate>2008-12-15</maxDate>
    <latitude>39.0878</latitude>
    <longitude>-108.4811</longitude>
    <elevation>1439.9</elevation>
    <locationLabels>
      <type>CNTRY</type>
      <id>FIPS:US</id>
      <displayName>United States</displayName>
    </locationLabels>
    <coverage>0.8756</coverage>
  </station>
  <station>
    <id>GHCND:US1COME0015</id>
    <displayName>GRAND JUNCTION 4.5 WNW, CO US</displayName>
    <minDate>2003-07-09</minDate>
    <maxDate>2007-06-14</maxDate>
    <latitude>39.0933</latitude>
    <longitude>-108.6412</longitude>
    <elevation>1386.8</elevation>
    <locationLabels>
      <type>CNTRY</type>
      <id>FIPS:US</id>
      <displayName>United States</displayName>
    </locationLabels>
    <coverage>0.8135</coverage>
  </station>
  <station>
    <id>GHCND:US1COME0064</id>
    <displayName>GRAND JUNCTION 5.5 SW, CO US</displayName>
    <minDate>2007-10-01</minDate>
    <maxDate>2013-01-14</maxDate>
    <latitude>39.0393</latitude>
    <longitude>-108.6349</longitude>
    <elevation>1509.1</elevation>
    <locationLabels>
      <type>CNTRY</type>
      <id>FIPS:US</id>
      <displayName>United States</displayName>
    </locationLabels>
    <coverage>0.613</coverage>
  </station>
  <station>
    <id>GHCND:USC00053489</id>
    <displayName>GRAND JUNCTION 6 ESE, CO US</displayName>
    <minDate>1962-03-26</minDate>
    <maxDate>2013-01-15</maxDate>
    <latitude>39.0422</latitude>
    <longitude>-108.4663</longitude>
    <elevation>1450.8</elevation>
    <locationLabels>
      <type>CNTRY</type>
      <id>FIPS:US</id>
      <displayName>United States</displayName>
    </locationLabels>
    <coverage>0.9787</coverage>
  </station>
  <station>
    <id>GHCND:US1COME0011</id>
    <displayName>GRAND JUNCTION 7.7 WNW, CO US</displayName>
    <minDate>2003-07-09</minDate>
    <maxDate>2005-07-13</maxDate>
    <latitude>39.1028</latitude>
    <longitude>-108.6995</longitude>
    <elevation>1477.1</elevation>
    <locationLabels>
      <type>CNTRY</type>
      <id>FIPS:US</id>
      <displayName>United States</displayName>
    </locationLabels>
    <coverage>0.7745</coverage>
  </station>
  <station>
    <id>GHCND:US1COME0003</id>
    <displayName>GRAND JUNCTION 8 NNW, CO US</displayName>
    <minDate>2003-03-08</minDate>
    <maxDate>2013-01-16</maxDate>
    <latitude>39.1779</latitude>
    <longitude>-108.6187</longitude>
    <elevation>1448.1</elevation>
    <locationLabels>
      <type>CNTRY</type>
      <id>FIPS:US</id>
      <displayName>United States</displayName>
    </locationLabels>
    <coverage>0.9187</coverage>
  </station>
  <station>
    <id>GHCND:USW00003076</id>
    <displayName>GRAND JUNCTION 9 W, CO US</displayName>
    <minDate>2009-06-17</minDate>
    <maxDate>2013-01-15</maxDate>
    <latitude>39.1018</latitude>
    <longitude>-108.7353</longitude>
    <elevation>1769.7</elevation>
    <locationLabels>
      <type>CNTRY</type>
      <id>FIPS:US</id>
      <displayName>United States</displayName>
    </locationLabels>
    <coverage>0.9939</coverage>
  </station>
  <station>
    <id>GHCND:USW00023066</id>
    <displayName>GRAND JUNCTION WALKER FIELD, CO US</displayName>
    <minDate>1900-01-01</minDate>
    <maxDate>2013-01-15</maxDate>
    <latitude>39.1342</latitude>
    <longitude>-108.54</longitude>
    <elevation>1480.7</elevation>
    <locationLabels>
      <type>CNTRY</type>
      <id>FIPS:US</id>
      <displayName>United States</displayName>
    </locationLabels>
    <coverage>0.9991</coverage>
  </station>
  <station>
    <id>GHCND:USC00053486</id>
    <displayName>GRAND JUNCTION WEATHER FORECAST OFFICE, CO US</displayName>
    <minDate>2011-11-01</minDate>
    <maxDate>2012-11-30</maxDate>
    <latitude>39.1198</latitude>
    <longitude>-108.5247</longitude>
    <elevation>1471</elevation>
    <locationLabels>
      <type>CNTRY</type>
      <id>FIPS:US</id>
      <displayName>United States</displayName>
    </locationLabels>
    <coverage>1</coverage>
  </station>
  <station>
    <id>GHCND:USC00203303</id>
    <displayName>GRAND JUNCTION, MI US</displayName>
    <minDate>1990-04-01</minDate>
    <maxDate>2013-01-16</maxDate>
    <latitude>42.4</latitude>
    <longitude>-86.06667</longitude>
    <elevation>207.3</elevation>
    <locationLabels>
      <type>CNTRY</type>
      <id>FIPS:US</id>
      <displayName>United States</displayName>
    </locationLabels>
    <coverage>0.0743</coverage>
  </station>
  <station>
    <id>GHCND:USC00053496</id>
    <displayName>GRAND LAKE 1 NW, CO US</displayName>
    <minDate>1907-10-01</minDate>
    <maxDate>2013-01-13</maxDate>
    <latitude>40.2669</latitude>
    <longitude>-105.8322</longitude>
    <elevation>2657.9</elevation>
    <locationLabels>
      <type>CNTRY</type>
      <id>FIPS:US</id>
      <displayName>United States</displayName>
    </locationLabels>
    <coverage>0.7929</coverage>
  </station>
  <station>
    <id>GHCND:US1COGR0006</id>
    <displayName>GRAND LAKE 2.9 SW, CO US</displayName>
    <minDate>2003-02-22</minDate>
    <maxDate>2006-04-16</maxDate>
    <latitude>40.2192</latitude>
    <longitude>-105.8603</longitude>
    <elevation>2567</elevation>
    <locationLabels>
      <type>CNTRY</type>
      <id>FIPS:US</id>
      <displayName>United States</displayName>
    </locationLabels>
    <coverage>0.3661</coverage>
  </station>
  <station>
    <id>GHCND:US1COGR0041</id>
    <displayName>GRAND LAKE 3.1 SW, CO US</displayName>
    <minDate>2005-09-01</minDate>
    <maxDate>2006-03-20</maxDate>
    <latitude>40.2147</latitude>
    <longitude>-105.8584</longitude>
    <elevation>2556.1</elevation>
    <locationLabels>
      <type>CNTRY</type>
      <id>FIPS:US</id>
      <displayName>United States</displayName>
    </locationLabels>
    <coverage>0.8109</coverage>
  </station>
  <station>
    <id>GHCND:US1COGR0020</id>
    <displayName>GRAND LAKE 4.1 SW, CO US</displayName>
    <minDate>2004-04-19</minDate>
    <maxDate>2005-01-09</maxDate>
    <latitude>40.2048</latitude>
    <longitude>-105.8696</longitude>
    <elevation>2599.9</elevation>
    <locationLabels>
      <type>CNTRY</type>
      <id>FIPS:US</id>
      <displayName>United States</displayName>
    </locationLabels>
    <coverage>0.8496</coverage>
  </station>
  <station>
    <id>GHCND:USC00053500</id>
    <displayName>GRAND LAKE 6 SSW, CO US</displayName>
    <minDate>1948-08-01</minDate>
    <maxDate>2013-01-15</maxDate>
    <latitude>40.1849</latitude>
    <longitude>-105.8666</longitude>
    <elevation>2526.2</elevation>
    <locationLabels>
      <type>CNTRY</type>
      <id>FIPS:US</id>
      <displayName>United States</displayName>
    </locationLabels>
    <coverage>0.9963</coverage>
  </station>
  <station>
    <id>GHCND:USC00173261</id>
    <displayName>GRAND LAKE STREAM, ME US</displayName>
    <minDate>1948-07-01</minDate>
    <maxDate>2013-01-02</maxDate>
    <latitude>45.1775</latitude>
    <longitude>-67.77417</longitude>
    <elevation>88.4</elevation>
    <locationLabels>
      <type>CNTRY</type>
      <id>FIPS:US</id>
      <displayName>United States</displayName>
    </locationLabels>
    <coverage>0.8236</coverage>
  </station>
  <station>
    <id>GHCND:US1MIET0005</id>
    <displayName>GRAND LEDGE 0.3 NNE, MI US</displayName>
    <minDate>2009-05-27</minDate>
    <maxDate>2013-01-16</maxDate>
    <latitude>42.7569</latitude>
    <longitude>-84.7453</longitude>
    <elevation>254.2</elevation>
    <locationLabels>
      <type>CNTRY</type>
      <id>FIPS:US</id>
      <displayName>United States</displayName>
    </locationLabels>
    <coverage>0.8798</coverage>
  </station>
  <station>
    <id>GHCND:USC00203306</id>
    <displayName>GRAND LEDGE 1 NW, MI US</displayName>
    <minDate>1948-07-01</minDate>
    <maxDate>2013-01-16</maxDate>
    <latitude>42.7631</latitude>
    <longitude>-84.7622</longitude>
    <elevation>243.8</elevation>
    <locationLabels>
      <type>CNTRY</type>
      <id>FIPS:US</id>
      <displayName>United States</displayName>
    </locationLabels>
    <coverage>0.9497</coverage>
  </station>
  <station>
    <id>GHCND:US1MIET0002</id>
    <displayName>GRAND LEDGE 4.5 ESE, MI US</displayName>
    <minDate>2008-06-25</minDate>
    <maxDate>2012-05-04</maxDate>
    <latitude>42.7369</latitude>
    <longitude>-84.6618</longitude>
    <elevation>262.1</elevation>
    <locationLabels>
      <type>CNTRY</type>
      <id>FIPS:US</id>
      <displayName>United States</displayName>
    </locationLabels>
    <coverage>0.5078</coverage>
  </station>
  <station>
    <id>GHCND:USW00014859</id>
    <displayName>GRAND MARAIS, MI US</displayName>
    <minDate>1940-01-01</minDate>
    <maxDate>2006-10-31</maxDate>
    <latitude>46.66667</latitude>
    <longitude>-85.95</longitude>
    <elevation>190.2</elevation>
    <locationLabels>
      <type>CNTRY</type>
      <id>FIPS:US</id>
      <displayName>United States</displayName>
    </locationLabels>
    <coverage>0.9861</coverage>
  </station>
  <station>
    <id>GHCND:USC00213282</id>
    <displayName>GRAND MARAIS, MN US</displayName>
    <minDate>1900-05-01</minDate>
    <maxDate>2013-01-16</maxDate>
    <latitude>47.7516</latitude>
    <longitude>-90.3578</longitude>
    <elevation>186.5</elevation>
    <locationLabels>
      <type>CNTRY</type>
      <id>FIPS:US</id>
      <displayName>United States</displayName>
    </locationLabels>
    <coverage>0.8388</coverage>
  </station>
  <station>
    <id>GHCND:USW00094992</id>
    <displayName>GRAND MARAIS, MN US</displayName>
    <minDate>1998-08-01</minDate>
    <maxDate>2013-01-14</maxDate>
    <latitude>47.74722</latitude>
    <longitude>-90.34444</longitude>
    <elevation>185.9</elevation>
    <locationLabels>
      <type>CNTRY</type>
      <id>FIPS:US</id>
      <displayName>United States</displayName>
    </locationLabels>
    <coverage>0.9813</coverage>
  </station>
  <station>
    <id>GHCND:USC00213290</id>
    <displayName>GRAND MEADOW, MN US</displayName>
    <minDate>1893-01-01</minDate>
    <maxDate>2013-01-16</maxDate>
    <latitude>43.7047</latitude>
    <longitude>-92.5644</longitude>
    <elevation>411.5</elevation>
    <locationLabels>
      <type>CNTRY</type>
      <id>FIPS:US</id>
      <displayName>United States</displayName>
    </locationLabels>
    <coverage>0.99</coverage>
  </station>
  <station>
    <id>GHCND:USC00453268</id>
    <displayName>GRAND MOUND, WA US</displayName>
    <minDate>1893-11-03</minDate>
    <maxDate>1959-12-31</maxDate>
    <latitude>46.78333</latitude>
    <longitude>-123.03333</longitude>
    <elevation>46</elevation>
    <locationLabels>
      <type>CNTRY</type>
      <id>FIPS:US</id>
      <displayName>United States</displayName>
    </locationLabels>
    <coverage>0.1677</coverage>
  </station>
  <station>
    <id>GHCND:USC00213296</id>
    <displayName>GRAND PORTAGE RANGER STATION, MN US</displayName>
    <minDate>1895-01-10</minDate>
    <maxDate>2013-01-15</maxDate>
    <latitude>47.9711</latitude>
    <longitude>-89.6908</longitude>
    <elevation>222.5</elevation>
    <locationLabels>
      <type>CNTRY</type>
      <id>FIPS:US</id>
      <displayName>United States</displayName>
    </locationLabels>
    <coverage>0.3438</coverage>
  </station>
  <station>
    <id>GHCND:US1TXTN0044</id>
    <displayName>GRAND PRAIRIE 6.0 NNW, TX US</displayName>
    <minDate>2008-07-14</minDate>
    <maxDate>2009-09-17</maxDate>
    <latitude>32.7767</latitude>
    <longitude>-97.0375</longitude>
    <elevation>145.1</elevation>
    <locationLabels>
      <type>CNTRY</type>
      <id>FIPS:US</id>
      <displayName>United States</displayName>
    </locationLabels>
    <coverage>0.7541</coverage>
  </station>
  <station>
    <id>GHCND:USC00323665</id>
    <displayName>GRAND RAPIDS 1 N, ND US</displayName>
    <minDate>1950-10-25</minDate>
    <maxDate>1962-07-31</maxDate>
    <latitude>46.46667</latitude>
    <longitude>-98.35</longitude>
    <elevation>415.1</elevation>
    <locationLabels>
      <type>CNTRY</type>
      <id>FIPS:US</id>
      <displayName>United States</displayName>
    </locationLabels>
    <coverage>0.9986</coverage>
  </station>
  <station>
    <id>GHCND:US1MNIT0001</id>
    <displayName>GRAND RAPIDS 2.0 E, MN US</displayName>
    <minDate>2011-08-16</minDate>
    <maxDate>2013-01-16</maxDate>
    <latitude>47.2227</latitude>
    <longitude>-93.496</longitude>
    <elevation>384</elevation>
    <locationLabels>
      <type>CNTRY</type>
      <id>FIPS:US</id>
      <displayName>United States</displayName>
    </locationLabels>
    <coverage>0.9385</coverage>
  </station>
  <station>
    <id>GHCND:US1MIKN0016</id>
    <displayName>GRAND RAPIDS 2.5 ENE, MI US</displayName>
    <minDate>2008-07-03</minDate>
    <maxDate>2012-12-02</maxDate>
    <latitude>42.9697</latitude>
    <longitude>-85.6075</longitude>
    <elevation>233.8</elevation>
    <locationLabels>
      <type>CNTRY</type>
      <id>FIPS:US</id>
      <displayName>United States</displayName>
    </locationLabels>
    <coverage>0.4238</coverage>
  </station>
  <station>
    <id>GHCND:US1MIKN0033</id>
    <displayName>GRAND RAPIDS 3.0 NW, MI US</displayName>
    <minDate>2008-07-15</minDate>
    <maxDate>2010-09-07</maxDate>
    <latitude>42.995</latitude>
    <longitude>-85.6922</longitude>
    <elevation>189.3</elevation>
    <locationLabels>
      <type>CNTRY</type>
      <id>FIPS:US</id>
      <displayName>United States</displayName>
    </locationLabels>
    <coverage>0.7096</coverage>
  </station>
  <station>
    <id>GHCND:US1MIKN0008</id>
    <displayName>GRAND RAPIDS 3.1 NNE, MI US</displayName>
    <minDate>2008-01-17</minDate>
    <maxDate>2013-01-16</maxDate>
    <latitude>43.0053</latitude>
    <longitude>-85.6411</longitude>
    <elevation>212.4</elevation>
    <locationLabels>
      <type>CNTRY</type>
      <id>FIPS:US</id>
      <displayName>United States</displayName>
    </locationLabels>
    <coverage>0.7493</coverage>
  </station>
  <station>
    <id>GHCND:US1MIKN0027</id>
    <displayName>GRAND RAPIDS 3.2 S, MI US</displayName>
    <minDate>2008-07-09</minDate>
    <maxDate>2012-12-26</maxDate>
    <latitude>42.9147</latitude>
    <longitude>-85.6492</longitude>
    <elevation>200.3</elevation>
    <locationLabels>
      <type>CNTRY</type>
      <id>FIPS:US</id>
      <displayName>United States</displayName>
    </locationLabels>
    <coverage>0.6985</coverage>
  </station>
  <station>
    <id>GHCND:US1MIKN0064</id>
    <displayName>GRAND RAPIDS 3.8 SE, MI US</displayName>
    <minDate>2012-04-13</minDate>
    <maxDate>2012-12-08</maxDate>
    <latitude>42.9247</latitude>
    <longitude>-85.5994</longitude>
    <elevation>238.4</elevation>
    <locationLabels>
      <type>CNTRY</type>
      <id>FIPS:US</id>
      <displayName>United States</displayName>
    </locationLabels>
    <coverage>0.5333</coverage>
  </station>
  <station>
    <id>GHCND:US1MIKN0056</id>
    <displayName>GRAND RAPIDS 5.5 NNE, MI US</displayName>
    <minDate>2010-08-01</minDate>
    <maxDate>2013-01-16</maxDate>
    <latitude>43.031</latitude>
    <longitude>-85.6127</longitude>
    <elevation>220.1</elevation>
    <locationLabels>
      <type>CNTRY</type>
      <id>FIPS:US</id>
      <displayName>United States</displayName>
    </locationLabels>
    <coverage>0.9522</coverage>
  </station>
  <station>
    <id>GHCND:USC00213303</id>
    <displayName>GRAND RAPIDS FRS LAB, MN US</displayName>
    <minDate>1915-06-01</minDate>
    <maxDate>2013-01-15</maxDate>
    <latitude>47.2436</latitude>
    <longitude>-93.4975</longitude>
    <elevation>399.3</elevation>
    <locationLabels>
      <type>CNTRY</type>
      <id>FIPS:US</id>
      <displayName>United States</displayName>
    </locationLabels>
    <coverage>0.9977</coverage>
  </station>
  <station>
    <id>GHCND:USW00094860</id>
    <displayName>GRAND RAPIDS GERALD R FORD INTERNATIONAL AIRPORT, MI US</displayName>
    <minDate>1963-11-24</minDate>
    <maxDate>2013-01-15</maxDate>
    <latitude>42.8825</latitude>
    <longitude>-85.52389</longitude>
    <elevation>244.8</elevation>
    <locationLabels>
      <type>CNTRY</type>
      <id>FIPS:US</id>
      <displayName>United States</displayName>
    </locationLabels>
    <coverage>0.9996</coverage>
  </station>
  <station>
    <id>GHCND:USC00203327</id>
    <displayName>GRAND RAPIDS LARC, MI US</displayName>
    <minDate>1905-02-01</minDate>
    <maxDate>2013-01-16</maxDate>
    <latitude>42.96667</latitude>
    <longitude>-85.68333</longitude>
    <elevation>178.6</elevation>
    <locationLabels>
      <type>CNTRY</type>
      <id>FIPS:US</id>
      <displayName>United States</displayName>
    </locationLabels>
    <coverage>0.4002</coverage>
  </station>
  <station>
    <id>GHCND:USW00014830</id>
    <displayName>GRAND RAPIDS, MI US</displayName>
    <minDate>1938-04-01</minDate>
    <maxDate>1963-11-23</maxDate>
    <latitude>42.9</latitude>
    <longitude>-85.66667</longitude>
    <elevation>213.1</elevation>
    <locationLabels>
      <type>CNTRY</type>
      <id>FIPS:US</id>
      <displayName>United States</displayName>
    </locationLabels>
    <coverage>0.9994</coverage>
  </station>
  <station>
    <id>GHCND:USC00203337</id>
    <displayName>GRAND RAPIDS, MI US</displayName>
    <minDate>1903-07-01</minDate>
    <maxDate>1956-01-27</maxDate>
    <latitude>42.96667</latitude>
    <longitude>-85.66667</longitude>
    <elevation>206</elevation>
    <locationLabels>
      <type>CNTRY</type>
      <id>FIPS:US</id>
      <displayName>United States</displayName>
    </locationLabels>
    <coverage>0.9953</coverage>
  </station>
  <station>
    <id>GHCND:USC00333292</id>
    <displayName>GRAND RAPIDS, OH US</displayName>
    <minDate>1945-05-17</minDate>
    <maxDate>2013-01-16</maxDate>
    <latitude>41.41667</latitude>
    <longitude>-83.86667</longitude>
    <elevation>190.8</elevation>
    <locationLabels>
      <type>CNTRY</type>
      <id>FIPS:US</id>
      <displayName>United States</displayName>
    </locationLabels>
    <coverage>0.2169</coverage>
  </station>
  <station>
    <id>GHCND:USC00343700</id>
    <displayName>GRAND RIVER DAM, OK US</displayName>
    <minDate>1941-03-10</minDate>
    <maxDate>1979-06-30</maxDate>
    <latitude>36.46667</latitude>
    <longitude>-95.05</longitude>
    <elevation>233.5</elevation>
    <locationLabels>
      <type>CNTRY</type>
      <id>FIPS:US</id>
      <displayName>United States</displayName>
    </locationLabels>
    <coverage>0.9721</coverage>
  </station>
  <station>
    <id>GHCND:USC00473214</id>
    <displayName>GRAND RIVER LOCK, WI US</displayName>
    <minDate>1896-01-01</minDate>
    <maxDate>1954-08-31</maxDate>
    <latitude>43.76667</latitude>
    <longitude>-89.3</longitude>
    <elevation>235</elevation>
    <locationLabels>
      <type>CNTRY</type>
      <id>FIPS:US</id>
      <displayName>United States</displayName>
    </locationLabels>
    <coverage>0.9533</coverage>
  </station>
  <station>
    <id>GHCND:USC00393410</id>
    <displayName>GRAND RIVER SCHOOL, SD US</displayName>
    <minDate>1899-10-01</minDate>
    <maxDate>1908-06-30</maxDate>
    <latitude>45.766667</latitude>
    <longitude>-101.05</longitude>
    <locationLabels>
      <type>CNTRY</type>
      <id>FIPS:US</id>
      <displayName>United States</displayName>
    </locationLabels>
    <coverage>0.8682</coverage>
  </station>
  <station>
    <id>GHCND:USC00353415</id>
    <displayName>GRAND RONDE, OR US</displayName>
    <minDate>1910-05-01</minDate>
    <maxDate>1954-02-28</maxDate>
    <latitude>45.06667</latitude>
    <longitude>-123.61667</longitude>
    <elevation>103.9</elevation>
    <locationLabels>
      <type>CNTRY</type>
      <id>FIPS:US</id>
      <displayName>United States</displayName>
    </locationLabels>
    <coverage>0.3149</coverage>
  </station>
  <station>
    <id>GHCND:USC00113595</id>
    <displayName>GRAND TOWER 2 N, IL US</displayName>
    <minDate>1940-10-01</minDate>
    <maxDate>2009-09-30</maxDate>
    <latitude>37.6591</latitude>
    <longitude>-89.5102</longitude>
    <elevation>116.7</elevation>
    <locationLabels>
      <type>CNTRY</type>
      <id>FIPS:US</id>
      <displayName>United States</displayName>
    </locationLabels>
    <coverage>0.9801</coverage>
  </station>
  <station>
    <id>GHCND:USC00343704</id>
    <displayName>GRAND VALLEY NEAR SOIL CONSERVATION SERVICE NUMBER 9, OK US</displayName>
    <minDate>1942-03-01</minDate>
    <maxDate>1943-09-30</maxDate>
    <latitude>36.566667</latitude>
    <longitude>-101.05</longitude>
    <locationLabels>
      <type>CNTRY</type>
      <id>FIPS:US</id>
      <displayName>United States</displayName>
    </locationLabels>
    <coverage>0.9482</coverage>
  </station>
  <station>
    <id>GHCND:USC00053508</id>
    <displayName>GRAND VALLEY, CO US</displayName>
    <minDate>1904-10-01</minDate>
    <maxDate>1981-05-31</maxDate>
    <latitude>39.45</latitude>
    <longitude>-108.05</longitude>
    <elevation>1552</elevation>
    <locationLabels>
      <type>CNTRY</type>
      <id>FIPS:US</id>
      <displayName>United States</displayName>
    </locationLabels>
    <coverage>0.3344</coverage>
  </station>
  <station>
    <id>GHCND:USC00103760</id>
    <displayName>GRAND VIEW 4 NW, ID US</displayName>
    <minDate>1909-06-01</minDate>
    <maxDate>2010-10-31</maxDate>
    <latitude>43.0176</latitude>
    <longitude>-116.1772</longitude>
    <elevation>731.5</elevation>
    <locationLabels>
      <type>CNTRY</type>
      <id>FIPS:US</id>
      <displayName>United States</displayName>
    </locationLabels>
    <coverage>0.8893</coverage>
  </station>
  <station>
    <id>GHCND:USC00353424</id>
    <displayName>GRAND VIEW, OR US</displayName>
    <minDate>1913-06-01</minDate>
    <maxDate>1925-11-30</maxDate>
    <latitude>44.533333</latitude>
    <longitude>-121.5</longitude>
    <elevation>785.2</elevation>
    <locationLabels>
      <type>CNTRY</type>
      <id>FIPS:US</id>
      <displayName>United States</displayName>
    </locationLabels>
    <coverage>0.1551</coverage>
  </station>
  <station>
    <id>GHCND:USC00343696</id>
    <displayName>GRAND, OK US</displayName>
    <minDate>1903-05-01</minDate>
    <maxDate>1908-09-30</maxDate>
    <latitude>35.983333</latitude>
    <longitude>-99.8</longitude>
    <elevation>701</elevation>
    <locationLabels>
      <type>CNTRY</type>
      <id>FIPS:US</id>
      <displayName>United States</displayName>
    </locationLabels>
    <coverage>0.8783</coverage>
  </station>
  <station>
    <id>GHCND:USR0000OGAD</id>
    <displayName>GRANDAD OREGON, OR US</displayName>
    <minDate>1985-01-23</minDate>
    <maxDate>2012-08-31</maxDate>
    <latitude>43.4158</latitude>
    <longitude>-122.5772</longitude>
    <elevation>883.9</elevation>
    <locationLabels>
      <type>CNTRY</type>
      <id>FIPS:US</id>
      <displayName>United States</displayName>
    </locationLabels>
    <coverage>0.9135</coverage>
  </station>
  <station>
    <id>GHCND:USC00413680</id>
    <displayName>GRANDFALLS 3 SSE, TX US</displayName>
    <minDate>1909-02-01</minDate>
    <maxDate>2012-12-31</maxDate>
    <latitude>31.3027</latitude>
    <longitude>-102.8221</longitude>
    <elevation>739.1</elevation>
    <locationLabels>
      <type>CNTRY</type>
      <id>FIPS:US</id>
      <displayName>United States</displayName>
    </locationLabels>
    <coverage>0.8269</coverage>
  </station>
  <station>
    <id>GHCND:USC00313565</id>
    <displayName>GRANDFATHER MOUNTAIN, NC US</displayName>
    <minDate>1955-08-01</minDate>
    <maxDate>2013-01-16</maxDate>
    <latitude>36.0955</latitude>
    <longitude>-81.8311</longitude>
    <elevation>1615.4</elevation>
    <locationLabels>
      <type>CNTRY</type>
      <id>FIPS:US</id>
      <displayName>United States</displayName>
    </locationLabels>
    <coverage>0.9841</coverage>
  </station>
  <station>
    <id>GHCND:USR0000NGRF</id>
    <displayName>GRANDFATHER NORTH CAROLINA, NC US</displayName>
    <minDate>2003-02-20</minDate>
    <maxDate>2012-08-31</maxDate>
    <latitude>35.7564</latitude>
    <longitude>-82.0439</longitude>
    <elevation>487.7</elevation>
    <locationLabels>
      <type>CNTRY</type>
      <id>FIPS:US</id>
      <displayName>United States</displayName>
    </locationLabels>
    <coverage>0.9302</coverage>
  </station>
  <station>
    <id>GHCND:USC00343707</id>
    <displayName>GRANDFIELD 3 W MESONET, OK US</displayName>
    <minDate>2009-02-01</minDate>
    <maxDate>2013-01-04</maxDate>
    <latitude>34.2392</latitude>
    <longitude>-98.7444</longitude>
    <elevation>342</elevation>
    <locationLabels>
      <type>CNTRY</type>
      <id>FIPS:US</id>
      <displayName>United States</displayName>
    </locationLabels>
    <coverage>0.9351</coverage>
  </station>
  <station>
    <id>GHCND:USC00343709</id>
    <displayName>GRANDFIELD 4 NW, OK US</displayName>
    <minDate>1941-09-13</minDate>
    <maxDate>1994-11-30</maxDate>
    <latitude>34.28333</latitude>
    <longitude>-98.73333</longitude>
    <elevation>323.1</elevation>
    <locationLabels>
      <type>CNTRY</type>
      <id>FIPS:US</id>
      <displayName>United States</displayName>
    </locationLabels>
    <coverage>0.9636</coverage>
  </station>
  <station>
    <id>GHCND:US1NDCS0009</id>
    <displayName>GRANDIN 3.3 SW, ND US</displayName>
    <minDate>2009-01-01</minDate>
    <maxDate>2013-01-02</maxDate>
    <latitude>47.209</latitude>
    <longitude>-97.0611</longitude>
    <elevation>278</elevation>
    <locationLabels>
      <type>CNTRY</type>
      <id>FIPS:US</id>
      <displayName>United States</displayName>
    </locationLabels>
    <coverage>0.9193</coverage>
  </station>
  <station>
    <id>GHCND:US1WAYK0013</id>
    <displayName>GRANDVIEW 1.1 NNE, WA US</displayName>
    <minDate>2009-11-22</minDate>
    <maxDate>2011-10-05</maxDate>
    <latitude>46.2593</latitude>
    <longitude>-119.9027</longitude>
    <elevation>248.4</elevation>
    <locationLabels>
      <type>CNTRY</type>
      <id>FIPS:US</id>
      <displayName>United States</displayName>
    </locationLabels>
    <coverage>0.2592</coverage>
  </station>
  <station>
    <id>GHCND:US1TXJN0004</id>
    <displayName>GRANDVIEW 1.4 SE, TX US</displayName>
    <minDate>2008-05-28</minDate>
    <maxDate>2012-08-18</maxDate>
    <latitude>32.2555</latitude>
    <longitude>-97.1575</longitude>
    <elevation>190.8</elevation>
    <locationLabels>
      <type>CNTRY</type>
      <id>FIPS:US</id>
      <displayName>United States</displayName>
    </locationLabels>
    <coverage>0.9819</coverage>
  </station>
  <station>
    <id>GHCND:US1OHFR0003</id>
    <displayName>GRANDVIEW HEIGHTS 0.1 N, OH US</displayName>
    <minDate>2009-02-01</minDate>
    <maxDate>2013-01-16</maxDate>
    <latitude>39.981</latitude>
    <longitude>-83.0401</longitude>
    <elevation>234.1</elevation>
    <locationLabels>
      <type>CNTRY</type>
      <id>FIPS:US</id>
      <displayName>United States</displayName>
    </locationLabels>
    <coverage>0.9952</coverage>
  </station>
  <station>
    <id>GHCND:US1PAEL0003</id>
    <displayName>GRANDVIEW PARK 8.4 SSE, PA US</displayName>
    <minDate>2006-05-16</minDate>
    <maxDate>2006-12-07</maxDate>
    <latitude>41.3</latitude>
    <longitude>-78.5</longitude>
    <elevation>427.9</elevation>
    <locationLabels>
      <type>CNTRY</type>
      <id>FIPS:US</id>
      <displayName>United States</displayName>
    </locationLabels>
    <coverage>0.8883</coverage>
  </station>
  <station>
    <id>GHCND:USC00103764</id>
    <displayName>GRANDVIEW RANGER STATION, ID US</displayName>
    <minDate>1916-06-01</minDate>
    <maxDate>1926-05-31</maxDate>
    <latitude>43.816667</latitude>
    <longitude>-111.333333</longitude>
    <elevation>2194.6</elevation>
    <locationLabels>
      <type>CNTRY</type>
      <id>FIPS:US</id>
      <displayName>United States</displayName>
    </locationLabels>
    <coverage>0.2484</coverage>
  </station>
  <station>
    <id>GHCND:USR0000VVIE</id>
    <displayName>GRANDVIEW WEST VIRGINIA, WV US</displayName>
    <minDate>2002-10-01</minDate>
    <maxDate>2012-07-14</maxDate>
    <latitude>37.8325</latitude>
    <longitude>-81.0678</longitude>
    <elevation>917.4</elevation>
    <locationLabels>
      <type>CNTRY</type>
      <id>FIPS:US</id>
      <displayName>United States</displayName>
    </locationLabels>
    <coverage>0.8937</coverage>
  </station>
  <station>
    <id>GHCND:USC00123497</id>
    <displayName>GRANDVIEW, IN US</displayName>
    <minDate>2001-11-01</minDate>
    <maxDate>2009-01-31</maxDate>
    <latitude>37.9541</latitude>
    <longitude>-86.9858</longitude>
    <elevation>124.1</elevation>
    <locationLabels>
      <type>CNTRY</type>
      <id>FIPS:US</id>
      <displayName>United States</displayName>
    </locationLabels>
    <coverage>0.9966</coverage>
  </station>
</stationCollection>
