<?xml version="1.0" encoding="UTF-8" standalone="yes"?>
<stationCollection totalCount="46020" pageCount="461" pageSize="100" page="343">
  <station>
    <id>GHCND:US1AZPN0003</id>
    <displayName>QUEEN CREEK 7.4 ESE, AZ US</displayName>
    <minDate>2009-10-01</minDate>
    <maxDate>2012-12-13</maxDate>
    <latitude>33.2018</latitude>
    <longitude>-111.5238</longitude>
    <elevation>466.6</elevation>
    <locationLabels>
      <type>CNTRY</type>
      <id>FIPS:US</id>
      <displayName>United States</displayName>
    </locationLabels>
    <coverage>0.5145</coverage>
  </station>
  <station>
    <id>GHCND:US1AZPN0006</id>
    <displayName>QUEEN CREEK 8.2 ESE, AZ US</displayName>
    <minDate>2009-09-25</minDate>
    <maxDate>2013-01-16</maxDate>
    <latitude>33.1957</latitude>
    <longitude>-111.5127</longitude>
    <elevation>469.4</elevation>
    <locationLabels>
      <type>CNTRY</type>
      <id>FIPS:US</id>
      <displayName>United States</displayName>
    </locationLabels>
    <coverage>0.7579</coverage>
  </station>
  <station>
    <id>GHCND:USC00297176</id>
    <displayName>QUEEN RANGER STATION, NM US</displayName>
    <minDate>1963-01-01</minDate>
    <maxDate>1975-03-31</maxDate>
    <latitude>32.2</latitude>
    <longitude>-104.73333</longitude>
    <elevation>1784</elevation>
    <locationLabels>
      <type>CNTRY</type>
      <id>FIPS:US</id>
      <displayName>United States</displayName>
    </locationLabels>
    <coverage>0.8887</coverage>
  </station>
  <station>
    <id>GHCND:USC00297172</id>
    <displayName>QUEEN, NM US</displayName>
    <minDate>2000-06-01</minDate>
    <maxDate>2005-12-31</maxDate>
    <latitude>32.19361</latitude>
    <longitude>-104.74028</longitude>
    <elevation>1780.3</elevation>
    <locationLabels>
      <type>CNTRY</type>
      <id>FIPS:US</id>
      <displayName>United States</displayName>
    </locationLabels>
    <coverage>0.9167</coverage>
  </station>
  <station>
    <id>GHCND:US1NYQN0002</id>
    <displayName>QUEENS 4.6 WSW, NY US</displayName>
    <minDate>2011-02-02</minDate>
    <maxDate>2013-01-16</maxDate>
    <latitude>40.7145</latitude>
    <longitude>-73.8819</longitude>
    <elevation>32.3</elevation>
    <locationLabels>
      <type>CNTRY</type>
      <id>FIPS:US</id>
      <displayName>United States</displayName>
    </locationLabels>
    <coverage>0.5916</coverage>
  </station>
  <station>
    <id>GHCND:US1MDQA0006</id>
    <displayName>QUEENSTOWN 2.6 S, US</displayName>
    <minDate>2010-02-27</minDate>
    <maxDate>2012-12-26</maxDate>
    <latitude>38.9522</latitude>
    <longitude>-76.1618</longitude>
    <elevation>4.6</elevation>
    <locationLabels>
      <type>CNTRY</type>
      <id>FIPS:US</id>
      <displayName>United States</displayName>
    </locationLabels>
    <coverage>0.5822</coverage>
  </station>
  <station>
    <id>GHCND:USC00187410</id>
    <displayName>QUEENSTOWN, US</displayName>
    <minDate>1899-01-01</minDate>
    <maxDate>1903-04-30</maxDate>
    <latitude>39</latitude>
    <longitude>-76.15</longitude>
    <elevation>3</elevation>
    <locationLabels>
      <type>CNTRY</type>
      <id>FIPS:US</id>
      <displayName>United States</displayName>
    </locationLabels>
    <coverage>0.7215</coverage>
  </station>
  <station>
    <id>GHCND:US1NMCT0008</id>
    <displayName>QUEMADO 14.1 NE, NM US</displayName>
    <minDate>2010-05-01</minDate>
    <maxDate>2013-01-13</maxDate>
    <latitude>34.4669</latitude>
    <longitude>-108.2986</longitude>
    <elevation>2280.8</elevation>
    <locationLabels>
      <type>CNTRY</type>
      <id>FIPS:US</id>
      <displayName>United States</displayName>
    </locationLabels>
    <coverage>0.9808</coverage>
  </station>
  <station>
    <id>GHCND:US1NMCT0009</id>
    <displayName>QUEMADO 8.0 NE, NM US</displayName>
    <minDate>2010-05-07</minDate>
    <maxDate>2013-01-15</maxDate>
    <latitude>34.4349</latitude>
    <longitude>-108.4088</longitude>
    <elevation>2242.1</elevation>
    <locationLabels>
      <type>CNTRY</type>
      <id>FIPS:US</id>
      <displayName>United States</displayName>
    </locationLabels>
    <coverage>0.9452</coverage>
  </station>
  <station>
    <id>GHCND:USC00297195</id>
    <displayName>QUEMADO LAKE ESTS, NM US</displayName>
    <minDate>1993-09-10</minDate>
    <maxDate>2007-04-21</maxDate>
    <latitude>34.14667</latitude>
    <longitude>-108.50861</longitude>
    <elevation>2356.1</elevation>
    <locationLabels>
      <type>CNTRY</type>
      <id>FIPS:US</id>
      <displayName>United States</displayName>
    </locationLabels>
    <coverage>0.6022</coverage>
  </station>
  <station>
    <id>GHCND:USC00297191</id>
    <displayName>QUEMADO LAKE, NM US</displayName>
    <minDate>1986-11-06</minDate>
    <maxDate>1993-08-31</maxDate>
    <latitude>34.13333</latitude>
    <longitude>-108.51667</longitude>
    <elevation>2334.8</elevation>
    <locationLabels>
      <type>CNTRY</type>
      <id>FIPS:US</id>
      <displayName>United States</displayName>
    </locationLabels>
    <coverage>0.9803</coverage>
  </station>
  <station>
    <id>GHCND:USC00297180</id>
    <displayName>QUEMADO, NM US</displayName>
    <minDate>1915-07-01</minDate>
    <maxDate>2013-01-10</maxDate>
    <latitude>34.3447</latitude>
    <longitude>-108.4922</longitude>
    <elevation>2096.4</elevation>
    <locationLabels>
      <type>CNTRY</type>
      <id>FIPS:US</id>
      <displayName>United States</displayName>
    </locationLabels>
    <coverage>0.7816</coverage>
  </station>
  <station>
    <id>GHCND:USS0006P01S</id>
    <displayName>QUEMAZON, NM US</displayName>
    <minDate>1980-06-05</minDate>
    <maxDate>2013-01-13</maxDate>
    <latitude>35.9167</latitude>
    <longitude>-106.3833</longitude>
    <elevation>2895.6</elevation>
    <locationLabels>
      <type>CNTRY</type>
      <id>FIPS:US</id>
      <displayName>United States</displayName>
    </locationLabels>
    <coverage>0.9114</coverage>
  </station>
  <station>
    <id>GHCND:USC00146618</id>
    <displayName>QUENEMO 2, KS US</displayName>
    <minDate>1948-08-01</minDate>
    <maxDate>1970-10-31</maxDate>
    <latitude>38.58333</latitude>
    <longitude>-95.53333</longitude>
    <elevation>287.1</elevation>
    <locationLabels>
      <type>CNTRY</type>
      <id>FIPS:US</id>
      <displayName>United States</displayName>
    </locationLabels>
    <coverage>0.9988</coverage>
  </station>
  <station>
    <id>GHCND:US1KSOS0006</id>
    <displayName>QUENEMO 7.1 N, KS US</displayName>
    <minDate>2006-12-14</minDate>
    <maxDate>2013-01-13</maxDate>
    <latitude>38.6819</latitude>
    <longitude>-95.5095</longitude>
    <elevation>324</elevation>
    <locationLabels>
      <type>CNTRY</type>
      <id>FIPS:US</id>
      <displayName>United States</displayName>
    </locationLabels>
    <coverage>0.9829</coverage>
  </station>
  <station>
    <id>GHCND:USC00146624</id>
    <displayName>QUENEMO RIVER, KS US</displayName>
    <minDate>1962-11-02</minDate>
    <maxDate>1972-06-30</maxDate>
    <latitude>38.58333</latitude>
    <longitude>-95.48333</longitude>
    <elevation>271</elevation>
    <locationLabels>
      <type>CNTRY</type>
      <id>FIPS:US</id>
      <displayName>United States</displayName>
    </locationLabels>
    <coverage>0.65</coverage>
  </station>
  <station>
    <id>GHCND:US1NMTS0022</id>
    <displayName>QUESTA 2.2 NNE, NM US</displayName>
    <minDate>2012-07-25</minDate>
    <maxDate>2013-01-15</maxDate>
    <latitude>36.7389</latitude>
    <longitude>-105.5743</longitude>
    <elevation>2430.2</elevation>
    <locationLabels>
      <type>CNTRY</type>
      <id>FIPS:US</id>
      <displayName>United States</displayName>
    </locationLabels>
    <coverage>0.96</coverage>
  </station>
  <station>
    <id>GHCND:USC00156624</id>
    <displayName>QUICKSAND, KY US</displayName>
    <minDate>1925-07-01</minDate>
    <maxDate>2013-01-16</maxDate>
    <latitude>37.53389</latitude>
    <longitude>-83.34917</longitude>
    <elevation>225.6</elevation>
    <locationLabels>
      <type>CNTRY</type>
      <id>FIPS:US</id>
      <displayName>United States</displayName>
    </locationLabels>
    <coverage>0.4413</coverage>
  </station>
  <station>
    <id>GHCND:USC00507850</id>
    <displayName>QUIGILLINGOK, AK US</displayName>
    <minDate>1930-10-19</minDate>
    <maxDate>1934-05-31</maxDate>
    <latitude>60.6333</latitude>
    <longitude>-163.5333</longitude>
    <locationLabels>
      <type>CNTRY</type>
      <id>FIPS:US</id>
      <displayName>United States</displayName>
    </locationLabels>
    <coverage>0.6571</coverage>
  </station>
  <station>
    <id>GHCND:USC00456846</id>
    <displayName>QUILCENE 2 SW, WA US</displayName>
    <minDate>1920-03-01</minDate>
    <maxDate>2012-12-31</maxDate>
    <latitude>47.8091</latitude>
    <longitude>-122.9136</longitude>
    <elevation>37.5</elevation>
    <locationLabels>
      <type>CNTRY</type>
      <id>FIPS:US</id>
      <displayName>United States</displayName>
    </locationLabels>
    <coverage>0.9212</coverage>
  </station>
  <station>
    <id>GHCND:USC00456851</id>
    <displayName>QUILCENE 5 SW DAM, WA US</displayName>
    <minDate>1950-04-01</minDate>
    <maxDate>1951-09-30</maxDate>
    <latitude>47.7847</latitude>
    <longitude>-122.9797</longitude>
    <elevation>313.3</elevation>
    <locationLabels>
      <type>CNTRY</type>
      <id>FIPS:US</id>
      <displayName>United States</displayName>
    </locationLabels>
    <coverage>0.9799</coverage>
  </station>
  <station>
    <id>GHCND:USW00024252</id>
    <displayName>QUILLAYUTE NAAS, WA US</displayName>
    <minDate>1945-03-02</minDate>
    <maxDate>1945-08-31</maxDate>
    <latitude>47.95</latitude>
    <longitude>-124.53333</longitude>
    <elevation>61.9</elevation>
    <locationLabels>
      <type>CNTRY</type>
      <id>FIPS:US</id>
      <displayName>United States</displayName>
    </locationLabels>
    <coverage>0.9454</coverage>
  </station>
  <station>
    <id>GHCND:USW00094240</id>
    <displayName>QUILLAYUTE STATE AIRPORT, WA US</displayName>
    <minDate>1966-08-01</minDate>
    <maxDate>2013-01-15</maxDate>
    <latitude>47.9375</latitude>
    <longitude>-124.555</longitude>
    <elevation>56.4</elevation>
    <locationLabels>
      <type>CNTRY</type>
      <id>FIPS:US</id>
      <displayName>United States</displayName>
    </locationLabels>
    <coverage>0.9995</coverage>
  </station>
  <station>
    <id>GHCND:USC00196720</id>
    <displayName>QUINAPOXET, MA US</displayName>
    <minDate>1896-01-01</minDate>
    <maxDate>1897-02-28</maxDate>
    <latitude>42.37787</latitude>
    <longitude>-71.850906</longitude>
    <elevation>202.1</elevation>
    <locationLabels>
      <type>CNTRY</type>
      <id>FIPS:US</id>
      <displayName>United States</displayName>
    </locationLabels>
    <coverage>0.9976</coverage>
  </station>
  <station>
    <id>GHCND:USW00004237</id>
    <displayName>QUINAULT 4 NE, WA US</displayName>
    <minDate>2006-09-10</minDate>
    <maxDate>2013-01-15</maxDate>
    <latitude>47.5139</latitude>
    <longitude>-123.8120</longitude>
    <elevation>87.2</elevation>
    <locationLabels>
      <type>CNTRY</type>
      <id>FIPS:US</id>
      <displayName>United States</displayName>
    </locationLabels>
    <coverage>0.9806</coverage>
  </station>
  <station>
    <id>GHCND:USC00456864</id>
    <displayName>QUINAULT RANGER STATION, WA US</displayName>
    <minDate>1906-01-21</minDate>
    <maxDate>1976-12-31</maxDate>
    <latitude>47.4747</latitude>
    <longitude>-123.8497</longitude>
    <elevation>67.1</elevation>
    <locationLabels>
      <type>CNTRY</type>
      <id>FIPS:US</id>
      <displayName>United States</displayName>
    </locationLabels>
    <coverage>0.7458</coverage>
  </station>
  <station>
    <id>GHCND:US1MIBH0005</id>
    <displayName>QUINCY 0.1 SSW, MI US</displayName>
    <minDate>2010-08-31</minDate>
    <maxDate>2012-11-29</maxDate>
    <latitude>41.942</latitude>
    <longitude>-84.884</longitude>
    <elevation>309.4</elevation>
    <locationLabels>
      <type>CNTRY</type>
      <id>FIPS:US</id>
      <displayName>United States</displayName>
    </locationLabels>
    <coverage>0.292</coverage>
  </station>
  <station>
    <id>GHCND:US1MIBH0003</id>
    <displayName>QUINCY 0.2 ENE, MI US</displayName>
    <minDate>2008-07-25</minDate>
    <maxDate>2010-08-30</maxDate>
    <latitude>41.9452</latitude>
    <longitude>-84.8804</longitude>
    <elevation>309.4</elevation>
    <locationLabels>
      <type>CNTRY</type>
      <id>FIPS:US</id>
      <displayName>United States</displayName>
    </locationLabels>
    <coverage>0.2555</coverage>
  </station>
  <station>
    <id>GHCND:USC00456875</id>
    <displayName>QUINCY 1 NE 27, WA US</displayName>
    <minDate>1924-04-01</minDate>
    <maxDate>1952-08-29</maxDate>
    <latitude>47.25</latitude>
    <longitude>-119.83333</longitude>
    <elevation>402.9</elevation>
    <locationLabels>
      <type>CNTRY</type>
      <id>FIPS:US</id>
      <displayName>United States</displayName>
    </locationLabels>
    <coverage>0.4736</coverage>
  </station>
  <station>
    <id>GHCND:USC00456880</id>
    <displayName>QUINCY 1 S, WA US</displayName>
    <minDate>1941-03-01</minDate>
    <maxDate>2013-01-15</maxDate>
    <latitude>47.2156</latitude>
    <longitude>-119.8477</longitude>
    <elevation>388.3</elevation>
    <locationLabels>
      <type>CNTRY</type>
      <id>FIPS:US</id>
      <displayName>United States</displayName>
    </locationLabels>
    <coverage>0.9822</coverage>
  </station>
  <station>
    <id>GHCND:USC00087429</id>
    <displayName>QUINCY 3 SSW, FL US</displayName>
    <minDate>1968-01-01</minDate>
    <maxDate>2013-01-16</maxDate>
    <latitude>30.54972</latitude>
    <longitude>-84.58361</longitude>
    <elevation>74.7</elevation>
    <locationLabels>
      <type>CNTRY</type>
      <id>FIPS:US</id>
      <displayName>United States</displayName>
    </locationLabels>
    <coverage>0.9445</coverage>
  </station>
  <station>
    <id>GHCND:US1ILAD0005</id>
    <displayName>QUINCY 4.0 SSE, IL US</displayName>
    <minDate>2007-07-10</minDate>
    <maxDate>2009-12-25</maxDate>
    <latitude>39.8767</latitude>
    <longitude>-91.3708</longitude>
    <elevation>182</elevation>
    <locationLabels>
      <type>CNTRY</type>
      <id>FIPS:US</id>
      <displayName>United States</displayName>
    </locationLabels>
    <coverage>0.6722</coverage>
  </station>
  <station>
    <id>GHCND:US1WAGR0008</id>
    <displayName>QUINCY 4.9 NE, WA US</displayName>
    <minDate>2009-04-06</minDate>
    <maxDate>2013-01-08</maxDate>
    <latitude>47.2781</latitude>
    <longitude>-119.7689</longitude>
    <elevation>493.2</elevation>
    <locationLabels>
      <type>CNTRY</type>
      <id>FIPS:US</id>
      <displayName>United States</displayName>
    </locationLabels>
    <coverage>0.9025</coverage>
  </station>
  <station>
    <id>GHCND:US1FLGD0003</id>
    <displayName>QUINCY 6.0 SW, FL US</displayName>
    <minDate>2009-04-06</minDate>
    <maxDate>2013-01-11</maxDate>
    <latitude>30.5294</latitude>
    <longitude>-84.6621</longitude>
    <elevation>73.2</elevation>
    <locationLabels>
      <type>CNTRY</type>
      <id>FIPS:US</id>
      <displayName>United States</displayName>
    </locationLabels>
    <coverage>0.9426</coverage>
  </station>
  <station>
    <id>GHCND:US1FLGD0001</id>
    <displayName>QUINCY 6.0 SW, FL US</displayName>
    <minDate>2007-09-20</minDate>
    <maxDate>2013-01-11</maxDate>
    <latitude>30.5247</latitude>
    <longitude>-84.6586</longitude>
    <elevation>64.9</elevation>
    <locationLabels>
      <type>CNTRY</type>
      <id>FIPS:US</id>
      <displayName>United States</displayName>
    </locationLabels>
    <coverage>0.9371</coverage>
  </station>
  <station>
    <id>GHCND:US1FLGD0004</id>
    <displayName>QUINCY 7.5 SSW, FL US</displayName>
    <minDate>2012-02-11</minDate>
    <maxDate>2013-01-15</maxDate>
    <latitude>30.4816</latitude>
    <longitude>-84.6188</longitude>
    <elevation>57.9</elevation>
    <locationLabels>
      <type>CNTRY</type>
      <id>FIPS:US</id>
      <displayName>United States</displayName>
    </locationLabels>
    <coverage>0.6794</coverage>
  </station>
  <station>
    <id>GHCND:USC00117077</id>
    <displayName>QUINCY DAM 21, IL US</displayName>
    <minDate>1937-05-01</minDate>
    <maxDate>2013-01-16</maxDate>
    <latitude>39.9058</latitude>
    <longitude>-91.4281</longitude>
    <elevation>147.2</elevation>
    <locationLabels>
      <type>CNTRY</type>
      <id>FIPS:US</id>
      <displayName>United States</displayName>
    </locationLabels>
    <coverage>0.9348</coverage>
  </station>
  <station>
    <id>GHCND:USC00087424</id>
    <displayName>QUINCY EXPERIMENT ST, FL US</displayName>
    <minDate>1896-05-02</minDate>
    <maxDate>1967-12-31</maxDate>
    <latitude>30.58333</latitude>
    <longitude>-84.58333</longitude>
    <elevation>75.9</elevation>
    <locationLabels>
      <type>CNTRY</type>
      <id>FIPS:US</id>
      <displayName>United States</displayName>
    </locationLabels>
    <coverage>0.7284</coverage>
  </station>
  <station>
    <id>GHCND:USC00117082</id>
    <displayName>QUINCY MEMORIAL BRID, IL US</displayName>
    <minDate>1892-04-01</minDate>
    <maxDate>1992-08-26</maxDate>
    <latitude>39.9325</latitude>
    <longitude>-91.41472</longitude>
    <elevation>154.8</elevation>
    <locationLabels>
      <type>CNTRY</type>
      <id>FIPS:US</id>
      <displayName>United States</displayName>
    </locationLabels>
    <coverage>0.8019</coverage>
  </station>
  <station>
    <id>GHCND:USR0000CQUI</id>
    <displayName>QUINCY RD CALIFORNIA, CA US</displayName>
    <minDate>1988-10-18</minDate>
    <maxDate>2012-08-30</maxDate>
    <latitude>39.9733</latitude>
    <longitude>-120.9419</longitude>
    <elevation>1066.8</elevation>
    <locationLabels>
      <type>CNTRY</type>
      <id>FIPS:US</id>
      <displayName>United States</displayName>
    </locationLabels>
    <coverage>0.9167</coverage>
  </station>
  <station>
    <id>GHCND:USW00093989</id>
    <displayName>QUINCY REGIONAL AIRPORT, IL US</displayName>
    <minDate>1948-06-01</minDate>
    <maxDate>2013-01-15</maxDate>
    <latitude>39.93694</latitude>
    <longitude>-91.19194</longitude>
    <elevation>234.4</elevation>
    <locationLabels>
      <type>CNTRY</type>
      <id>FIPS:US</id>
      <displayName>United States</displayName>
    </locationLabels>
    <coverage>0.9996</coverage>
  </station>
  <station>
    <id>GHCND:USC00047197</id>
    <displayName>QUINCY USFS HELIPORT, CA US</displayName>
    <minDate>1979-09-01</minDate>
    <maxDate>1981-03-31</maxDate>
    <latitude>39.98333</latitude>
    <longitude>-120.95</longitude>
    <elevation>1113.1</elevation>
    <locationLabels>
      <type>CNTRY</type>
      <id>FIPS:US</id>
      <displayName>United States</displayName>
    </locationLabels>
    <coverage>0.5744</coverage>
  </station>
  <station>
    <id>GHCND:USC00047195</id>
    <displayName>QUINCY, CA US</displayName>
    <minDate>1895-04-01</minDate>
    <maxDate>2013-01-16</maxDate>
    <latitude>39.9366</latitude>
    <longitude>-120.9475</longitude>
    <elevation>1042.4</elevation>
    <locationLabels>
      <type>CNTRY</type>
      <id>FIPS:US</id>
      <displayName>United States</displayName>
    </locationLabels>
    <coverage>0.89</coverage>
  </station>
  <station>
    <id>GHCND:USC00117067</id>
    <displayName>QUINCY, IL US</displayName>
    <minDate>1901-01-01</minDate>
    <maxDate>1977-03-31</maxDate>
    <latitude>39.95</latitude>
    <longitude>-91.4</longitude>
    <elevation>182.9</elevation>
    <locationLabels>
      <type>CNTRY</type>
      <id>FIPS:US</id>
      <displayName>United States</displayName>
    </locationLabels>
    <coverage>0.9994</coverage>
  </station>
  <station>
    <id>GHCND:USC00277060</id>
    <displayName>QUINCY, NH US</displayName>
    <minDate>1886-05-01</minDate>
    <maxDate>1887-09-30</maxDate>
    <latitude>43.766667</latitude>
    <longitude>-71.983333</longitude>
    <locationLabels>
      <type>CNTRY</type>
      <id>FIPS:US</id>
      <displayName>United States</displayName>
    </locationLabels>
    <coverage>0.9903</coverage>
  </station>
  <station>
    <id>GHCND:US1OKWW0002</id>
    <displayName>QUINLAN 0.3 SW, OK US</displayName>
    <minDate>2009-11-14</minDate>
    <maxDate>2013-01-16</maxDate>
    <latitude>36.4524</latitude>
    <longitude>-99.05</longitude>
    <elevation>544.1</elevation>
    <locationLabels>
      <type>CNTRY</type>
      <id>FIPS:US</id>
      <displayName>United States</displayName>
    </locationLabels>
    <coverage>0.631</coverage>
  </station>
  <station>
    <id>GHCND:USC00417358</id>
    <displayName>QUINLAN, TX US</displayName>
    <minDate>1962-03-01</minDate>
    <maxDate>1974-11-30</maxDate>
    <latitude>32.91667</latitude>
    <longitude>-96.13333</longitude>
    <elevation>156.1</elevation>
    <locationLabels>
      <type>CNTRY</type>
      <id>FIPS:US</id>
      <displayName>United States</displayName>
    </locationLabels>
    <coverage>0.918</coverage>
  </station>
  <station>
    <id>GHCND:USC00266504</id>
    <displayName>QUINN RIVER CROSSING, NV US</displayName>
    <minDate>1901-02-01</minDate>
    <maxDate>1951-03-31</maxDate>
    <latitude>41.56667</latitude>
    <longitude>-118.43333</longitude>
    <elevation>1246.9</elevation>
    <locationLabels>
      <type>CNTRY</type>
      <id>FIPS:US</id>
      <displayName>United States</displayName>
    </locationLabels>
    <coverage>0.4936</coverage>
  </station>
  <station>
    <id>GHCND:US1KSGO0009</id>
    <displayName>QUINTER 3.3 SSE, KS US</displayName>
    <minDate>2008-04-07</minDate>
    <maxDate>2013-01-15</maxDate>
    <latitude>39.0251</latitude>
    <longitude>-100.2047</longitude>
    <elevation>788.2</elevation>
    <locationLabels>
      <type>CNTRY</type>
      <id>FIPS:US</id>
      <displayName>United States</displayName>
    </locationLabels>
    <coverage>0.9318</coverage>
  </station>
  <station>
    <id>GHCND:US1KSGO0003</id>
    <displayName>QUINTER 5.1 SW, KS US</displayName>
    <minDate>2005-03-01</minDate>
    <maxDate>2007-01-17</maxDate>
    <latitude>39.0799</latitude>
    <longitude>-100.2963</longitude>
    <elevation>826.9</elevation>
    <locationLabels>
      <type>CNTRY</type>
      <id>FIPS:US</id>
      <displayName>United States</displayName>
    </locationLabels>
    <coverage>0.9855</coverage>
  </station>
  <station>
    <id>GHCND:USC00146637</id>
    <displayName>QUINTER, KS US</displayName>
    <minDate>1893-01-01</minDate>
    <maxDate>2013-01-04</maxDate>
    <latitude>39.0669</latitude>
    <longitude>-100.2388</longitude>
    <elevation>817.5</elevation>
    <locationLabels>
      <type>CNTRY</type>
      <id>FIPS:US</id>
      <displayName>United States</displayName>
    </locationLabels>
    <coverage>0.7068</coverage>
  </station>
  <station>
    <id>GHCND:USC00347372</id>
    <displayName>QUINTON, OK US</displayName>
    <minDate>1941-09-01</minDate>
    <maxDate>1998-02-28</maxDate>
    <latitude>35.13333</latitude>
    <longitude>-95.36667</longitude>
    <elevation>199.3</elevation>
    <locationLabels>
      <type>CNTRY</type>
      <id>FIPS:US</id>
      <displayName>United States</displayName>
    </locationLabels>
    <coverage>0.9598</coverage>
  </station>
  <station>
    <id>GHCND:USC00417361</id>
    <displayName>QUITAQUE, TX US</displayName>
    <minDate>1934-07-01</minDate>
    <maxDate>1976-03-31</maxDate>
    <latitude>34.36667</latitude>
    <longitude>-101.05</longitude>
    <elevation>783.9</elevation>
    <locationLabels>
      <type>CNTRY</type>
      <id>FIPS:US</id>
      <displayName>United States</displayName>
    </locationLabels>
    <coverage>0.8208</coverage>
  </station>
  <station>
    <id>GHCND:USC00227252</id>
    <displayName>QUITMAN 2 NNE, MS US</displayName>
    <minDate>1954-01-01</minDate>
    <maxDate>2012-10-31</maxDate>
    <latitude>32.0706</latitude>
    <longitude>-88.7189</longitude>
    <elevation>64.9</elevation>
    <locationLabels>
      <type>CNTRY</type>
      <id>FIPS:US</id>
      <displayName>United States</displayName>
    </locationLabels>
    <coverage>0.8644</coverage>
  </station>
  <station>
    <id>GHCND:USC00097276</id>
    <displayName>QUITMAN 2 NW, GA US</displayName>
    <minDate>1891-11-05</minDate>
    <maxDate>2010-12-26</maxDate>
    <latitude>30.78361</latitude>
    <longitude>-83.56917</longitude>
    <elevation>56.4</elevation>
    <locationLabels>
      <type>CNTRY</type>
      <id>FIPS:US</id>
      <displayName>United States</displayName>
    </locationLabels>
    <coverage>0.9117</coverage>
  </station>
  <station>
    <id>GHCND:USC00167590</id>
    <displayName>QUITMAN 2, LA US</displayName>
    <minDate>2002-12-01</minDate>
    <maxDate>2011-11-18</maxDate>
    <latitude>32.3644</latitude>
    <longitude>-92.7125</longitude>
    <elevation>61.9</elevation>
    <locationLabels>
      <type>CNTRY</type>
      <id>FIPS:US</id>
      <displayName>United States</displayName>
    </locationLabels>
    <coverage>0.3786</coverage>
  </station>
  <station>
    <id>GHCND:USC00417365</id>
    <displayName>QUITMAN 2, TX US</displayName>
    <minDate>1999-10-01</minDate>
    <maxDate>2013-01-16</maxDate>
    <latitude>32.793</latitude>
    <longitude>-95.435</longitude>
    <elevation>125.9</elevation>
    <locationLabels>
      <type>CNTRY</type>
      <id>FIPS:US</id>
      <displayName>United States</displayName>
    </locationLabels>
    <coverage>0.9817</coverage>
  </station>
  <station>
    <id>GHCND:USC00417363</id>
    <displayName>QUITMAN, TX US</displayName>
    <minDate>1948-05-01</minDate>
    <maxDate>1987-08-31</maxDate>
    <latitude>32.78333</latitude>
    <longitude>-95.43333</longitude>
    <elevation>114.3</elevation>
    <locationLabels>
      <type>CNTRY</type>
      <id>FIPS:US</id>
      <displayName>United States</displayName>
    </locationLabels>
    <coverage>0.959</coverage>
  </station>
  <station>
    <id>GHCND:USC00236970</id>
    <displayName>QULIN, MO US</displayName>
    <minDate>1944-06-27</minDate>
    <maxDate>2012-12-20</maxDate>
    <latitude>36.5927</latitude>
    <longitude>-90.2319</longitude>
    <elevation>96.9</elevation>
    <locationLabels>
      <type>CNTRY</type>
      <id>FIPS:US</id>
      <displayName>United States</displayName>
    </locationLabels>
    <coverage>0.9492</coverage>
  </station>
  <station>
    <id>GHCND:USC00467372</id>
    <displayName>R D BAILEY LAKE, WV US</displayName>
    <minDate>1997-12-01</minDate>
    <maxDate>2013-01-14</maxDate>
    <latitude>37.5973</latitude>
    <longitude>-81.8204</longitude>
    <elevation>426.7</elevation>
    <locationLabels>
      <type>CNTRY</type>
      <id>FIPS:US</id>
      <displayName>United States</displayName>
    </locationLabels>
    <coverage>0.9102</coverage>
  </station>
  <station>
    <id>GHCND:USR0000ARAB</id>
    <displayName>RABBIT CREEK ALASKA, AK US</displayName>
    <minDate>1992-06-12</minDate>
    <maxDate>2012-08-30</maxDate>
    <latitude>61.0844</latitude>
    <longitude>-149.7283</longitude>
    <elevation>451.1</elevation>
    <locationLabels>
      <type>CNTRY</type>
      <id>FIPS:US</id>
      <displayName>United States</displayName>
    </locationLabels>
    <coverage>0.7763</coverage>
  </station>
  <station>
    <id>GHCND:USC00056811</id>
    <displayName>RABBIT EARS PASS, CO US</displayName>
    <minDate>1948-09-01</minDate>
    <maxDate>1950-03-23</maxDate>
    <latitude>40.36667</latitude>
    <longitude>-106.71667</longitude>
    <elevation>2849</elevation>
    <locationLabels>
      <type>CNTRY</type>
      <id>FIPS:US</id>
      <displayName>United States</displayName>
    </locationLabels>
    <coverage>0.2091</coverage>
  </station>
  <station>
    <id>GHCND:USS0006J09S</id>
    <displayName>RABBIT EARS, CO US</displayName>
    <minDate>1986-10-01</minDate>
    <maxDate>2013-01-13</maxDate>
    <latitude>40.3667</latitude>
    <longitude>-106.7333</longitude>
    <elevation>2865.1</elevation>
    <locationLabels>
      <type>CNTRY</type>
      <id>FIPS:US</id>
      <displayName>United States</displayName>
    </locationLabels>
    <coverage>0.95</coverage>
  </station>
  <station>
    <id>GHCND:US1GARB0006</id>
    <displayName>RABUN GAP 1.1 WNW, GA US</displayName>
    <minDate>2009-01-11</minDate>
    <maxDate>2013-01-16</maxDate>
    <latitude>34.9606</latitude>
    <longitude>-83.4056</longitude>
    <elevation>687</elevation>
    <locationLabels>
      <type>CNTRY</type>
      <id>FIPS:US</id>
      <displayName>United States</displayName>
    </locationLabels>
    <coverage>0.9823</coverage>
  </station>
  <station>
    <id>GHCND:US1GARB0004</id>
    <displayName>RABUN GAP 2.1 SW, GA US</displayName>
    <minDate>2008-10-12</minDate>
    <maxDate>2013-01-16</maxDate>
    <latitude>34.9415</latitude>
    <longitude>-83.4178</longitude>
    <elevation>672.7</elevation>
    <locationLabels>
      <type>CNTRY</type>
      <id>FIPS:US</id>
      <displayName>United States</displayName>
    </locationLabels>
    <coverage>0.8691</coverage>
  </station>
  <station>
    <id>GHCND:USR0000FRAC</id>
    <displayName>RACCOON POINT FLORIDA, FL US</displayName>
    <minDate>1993-03-29</minDate>
    <maxDate>2012-08-31</maxDate>
    <latitude>25.9708</latitude>
    <longitude>-80.9</longitude>
    <elevation>2.1</elevation>
    <locationLabels>
      <type>CNTRY</type>
      <id>FIPS:US</id>
      <displayName>United States</displayName>
    </locationLabels>
    <coverage>0.9456</coverage>
  </station>
  <station>
    <id>GHCND:US1LALF0002</id>
    <displayName>RACELAND 1.8 WSW, LA US</displayName>
    <minDate>2008-03-21</minDate>
    <maxDate>2009-10-02</maxDate>
    <latitude>29.7056</latitude>
    <longitude>-90.6224</longitude>
    <elevation>0</elevation>
    <locationLabels>
      <type>CNTRY</type>
      <id>FIPS:US</id>
      <displayName>United States</displayName>
    </locationLabels>
    <coverage>0.3244</coverage>
  </station>
  <station>
    <id>GHCND:US1NVLC0004</id>
    <displayName>RACHEL 1.2 WSW, NV US</displayName>
    <minDate>2010-05-26</minDate>
    <maxDate>2011-01-03</maxDate>
    <latitude>37.6375</latitude>
    <longitude>-115.7636</longitude>
    <elevation>1464.6</elevation>
    <locationLabels>
      <type>CNTRY</type>
      <id>FIPS:US</id>
      <displayName>United States</displayName>
    </locationLabels>
    <coverage>0.6682</coverage>
  </station>
  <station>
    <id>GHCND:USR0000MRCA</id>
    <displayName>RACHEL CARSON MAINE, ME US</displayName>
    <minDate>2002-06-22</minDate>
    <maxDate>2012-08-31</maxDate>
    <latitude>43.3472</latitude>
    <longitude>-70.5475</longitude>
    <elevation>6.1</elevation>
    <locationLabels>
      <type>CNTRY</type>
      <id>FIPS:US</id>
      <displayName>United States</displayName>
    </locationLabels>
    <coverage>0.9125</coverage>
  </station>
  <station>
    <id>GHCND:USC00266514</id>
    <displayName>RACHEL, NV US</displayName>
    <minDate>2008-06-01</minDate>
    <maxDate>2013-01-16</maxDate>
    <latitude>37.64667</latitude>
    <longitude>-115.74611</longitude>
    <elevation>1469.1</elevation>
    <locationLabels>
      <type>CNTRY</type>
      <id>FIPS:US</id>
      <displayName>United States</displayName>
    </locationLabels>
    <coverage>0.9905</coverage>
  </station>
  <station>
    <id>GHCND:US1WIRC0003</id>
    <displayName>RACINE 2.3 WSW, WI US</displayName>
    <minDate>2010-03-23</minDate>
    <maxDate>2013-01-16</maxDate>
    <latitude>42.7112</latitude>
    <longitude>-87.8457</longitude>
    <elevation>218.5</elevation>
    <locationLabels>
      <type>CNTRY</type>
      <id>FIPS:US</id>
      <displayName>United States</displayName>
    </locationLabels>
    <coverage>0.934</coverage>
  </station>
  <station>
    <id>GHCND:USW00094818</id>
    <displayName>RACINE BATTEN AIRPORT, WI US</displayName>
    <minDate>1998-03-26</minDate>
    <maxDate>2013-01-14</maxDate>
    <latitude>42.76111</latitude>
    <longitude>-87.81361</longitude>
    <elevation>205.4</elevation>
    <locationLabels>
      <type>CNTRY</type>
      <id>FIPS:US</id>
      <displayName>United States</displayName>
    </locationLabels>
    <coverage>0.9909</coverage>
  </station>
  <station>
    <id>GHCND:USC00336912</id>
    <displayName>RACINE DAM 23, WV US</displayName>
    <minDate>1931-07-01</minDate>
    <maxDate>1969-07-31</maxDate>
    <latitude>38.88333</latitude>
    <longitude>-81.86667</longitude>
    <elevation>171</elevation>
    <locationLabels>
      <type>CNTRY</type>
      <id>FIPS:US</id>
      <displayName>United States</displayName>
    </locationLabels>
    <coverage>0.9411</coverage>
  </station>
  <station>
    <id>GHCND:USC00467287</id>
    <displayName>RACINE LOCK AND DAM, WV US</displayName>
    <minDate>1969-10-01</minDate>
    <maxDate>2013-01-16</maxDate>
    <latitude>38.9188</latitude>
    <longitude>-81.9113</longitude>
    <elevation>177.1</elevation>
    <locationLabels>
      <type>CNTRY</type>
      <id>FIPS:US</id>
      <displayName>United States</displayName>
    </locationLabels>
    <coverage>0.9927</coverage>
  </station>
  <station>
    <id>GHCND:USC00476922</id>
    <displayName>RACINE, WI US</displayName>
    <minDate>1896-05-01</minDate>
    <maxDate>2013-01-16</maxDate>
    <latitude>42.7022</latitude>
    <longitude>-87.7861</longitude>
    <elevation>181.4</elevation>
    <locationLabels>
      <type>CNTRY</type>
      <id>FIPS:US</id>
      <displayName>United States</displayName>
    </locationLabels>
    <coverage>0.9829</coverage>
  </station>
  <station>
    <id>GHCND:USC00256990</id>
    <displayName>RACKETT, NE US</displayName>
    <minDate>1948-09-01</minDate>
    <maxDate>1951-09-30</maxDate>
    <latitude>41.66667</latitude>
    <longitude>-102.2</longitude>
    <elevation>1147</elevation>
    <locationLabels>
      <type>CNTRY</type>
      <id>FIPS:US</id>
      <displayName>United States</displayName>
    </locationLabels>
    <coverage>0.9796</coverage>
  </station>
  <station>
    <id>GHCND:USR0000MRAC</id>
    <displayName>RACO MICHIGAN, MI US</displayName>
    <minDate>2002-04-24</minDate>
    <maxDate>2012-08-31</maxDate>
    <latitude>46.25</latitude>
    <longitude>-84.5833</longitude>
    <elevation>274.3</elevation>
    <locationLabels>
      <type>CNTRY</type>
      <id>FIPS:US</id>
      <displayName>United States</displayName>
    </locationLabels>
    <coverage>0.8707</coverage>
  </station>
  <station>
    <id>GHCND:USC00206800</id>
    <displayName>RACO US FOREST, MI US</displayName>
    <minDate>1948-05-01</minDate>
    <maxDate>1953-04-30</maxDate>
    <latitude>46.38333</latitude>
    <longitude>-84.75</longitude>
    <elevation>214</elevation>
    <locationLabels>
      <type>CNTRY</type>
      <id>FIPS:US</id>
      <displayName>United States</displayName>
    </locationLabels>
    <coverage>0.5329</coverage>
  </station>
  <station>
    <id>GHCND:USC00336917</id>
    <displayName>RADCLIFF 1 E, OH US</displayName>
    <minDate>1954-01-01</minDate>
    <maxDate>1957-04-30</maxDate>
    <latitude>39.13333</latitude>
    <longitude>-82.38333</longitude>
    <elevation>232</elevation>
    <locationLabels>
      <type>CNTRY</type>
      <id>FIPS:US</id>
      <displayName>United States</displayName>
    </locationLabels>
    <coverage>0.991</coverage>
  </station>
  <station>
    <id>GHCND:US1KYHD0009</id>
    <displayName>RADCLIFF 1.4 S, KY US</displayName>
    <minDate>2011-02-11</minDate>
    <maxDate>2012-12-20</maxDate>
    <latitude>37.8068</latitude>
    <longitude>-85.9524</longitude>
    <elevation>229.5</elevation>
    <locationLabels>
      <type>CNTRY</type>
      <id>FIPS:US</id>
      <displayName>United States</displayName>
    </locationLabels>
    <coverage>0.2651</coverage>
  </station>
  <station>
    <id>GHCND:USC00246820</id>
    <displayName>RADERSBURG, MT US</displayName>
    <minDate>1894-05-01</minDate>
    <maxDate>1899-02-28</maxDate>
    <latitude>46.166667</latitude>
    <longitude>-111.566667</longitude>
    <elevation>1234.4</elevation>
    <locationLabels>
      <type>CNTRY</type>
      <id>FIPS:US</id>
      <displayName>United States</displayName>
    </locationLabels>
    <coverage>0.83</coverage>
  </station>
  <station>
    <id>GHCND:US1VARDC001</id>
    <displayName>RADFORD 0.9 WNW, VA US</displayName>
    <minDate>2005-12-22</minDate>
    <maxDate>2013-01-16</maxDate>
    <latitude>37.1306</latitude>
    <longitude>-80.572</longitude>
    <elevation>574.9</elevation>
    <locationLabels>
      <type>CNTRY</type>
      <id>FIPS:US</id>
      <displayName>United States</displayName>
    </locationLabels>
    <coverage>0.9156</coverage>
  </station>
  <station>
    <id>GHCND:USC00447004</id>
    <displayName>RADFORD 5 SW, VA US</displayName>
    <minDate>1867-09-01</minDate>
    <maxDate>1968-04-30</maxDate>
    <latitude>37.1</latitude>
    <longitude>-80.6</longitude>
    <elevation>604.1</elevation>
    <locationLabels>
      <type>CNTRY</type>
      <id>FIPS:US</id>
      <displayName>United States</displayName>
    </locationLabels>
    <coverage>0.3569</coverage>
  </station>
  <station>
    <id>GHCND:USC00447006</id>
    <displayName>RADFORD ORDANCE WORKS, VA US</displayName>
    <minDate>1941-01-18</minDate>
    <maxDate>1945-08-31</maxDate>
    <latitude>37.533333</latitude>
    <longitude>-80.216667</longitude>
    <locationLabels>
      <type>CNTRY</type>
      <id>FIPS:US</id>
      <displayName>United States</displayName>
    </locationLabels>
    <coverage>0.9295</coverage>
  </station>
  <station>
    <id>GHCND:USC00446997</id>
    <displayName>RADFORD, VA US</displayName>
    <minDate>1895-02-16</minDate>
    <maxDate>1941-12-31</maxDate>
    <latitude>37.133333</latitude>
    <longitude>-80.566667</longitude>
    <elevation>548.6</elevation>
    <locationLabels>
      <type>CNTRY</type>
      <id>FIPS:US</id>
      <displayName>United States</displayName>
    </locationLabels>
    <coverage>0.9016</coverage>
  </station>
  <station>
    <id>GHCND:USC00446999</id>
    <displayName>RADFROD 3 N, VA US</displayName>
    <minDate>1968-06-01</minDate>
    <maxDate>2013-01-16</maxDate>
    <latitude>37.2008</latitude>
    <longitude>-80.5864</longitude>
    <elevation>548.6</elevation>
    <locationLabels>
      <type>CNTRY</type>
      <id>FIPS:US</id>
      <displayName>United States</displayName>
    </locationLabels>
    <coverage>0.678</coverage>
  </station>
  <station>
    <id>GHCND:US1PADL0005</id>
    <displayName>RADNOR TOWNSHIP 2.1 N, PA US</displayName>
    <minDate>2010-04-15</minDate>
    <maxDate>2011-01-07</maxDate>
    <latitude>40.0589</latitude>
    <longitude>-75.3706</longitude>
    <elevation>136.9</elevation>
    <locationLabels>
      <type>CNTRY</type>
      <id>FIPS:US</id>
      <displayName>United States</displayName>
    </locationLabels>
    <coverage>0.9701</coverage>
  </station>
  <station>
    <id>GHCND:US1NCHK0005</id>
    <displayName>RAEFORD 4.4 NE, NC US</displayName>
    <minDate>2010-08-13</minDate>
    <maxDate>2012-08-20</maxDate>
    <latitude>35.0184</latitude>
    <longitude>-79.1633</longitude>
    <elevation>81.1</elevation>
    <locationLabels>
      <type>CNTRY</type>
      <id>FIPS:US</id>
      <displayName>United States</displayName>
    </locationLabels>
    <coverage>0.2409</coverage>
  </station>
  <station>
    <id>GHCND:US1NCHK0003</id>
    <displayName>RAEFORD 9.6 E, NC US</displayName>
    <minDate>2009-09-08</minDate>
    <maxDate>2013-01-16</maxDate>
    <latitude>34.9592</latitude>
    <longitude>-79.0558</longitude>
    <elevation>63.1</elevation>
    <locationLabels>
      <type>CNTRY</type>
      <id>FIPS:US</id>
      <displayName>United States</displayName>
    </locationLabels>
    <coverage>0.9128</coverage>
  </station>
  <station>
    <id>GHCND:USC00317056</id>
    <displayName>RAEFORD, NC US</displayName>
    <minDate>1992-07-01</minDate>
    <maxDate>2013-01-16</maxDate>
    <latitude>34.987</latitude>
    <longitude>-79.219</longitude>
    <elevation>76.2</elevation>
    <locationLabels>
      <type>CNTRY</type>
      <id>FIPS:US</id>
      <displayName>United States</displayName>
    </locationLabels>
    <coverage>0.9915</coverage>
  </station>
  <station>
    <id>GHCND:USR0000IRAF</id>
    <displayName>RAFT RIVER IDAHO, ID US</displayName>
    <minDate>1986-11-13</minDate>
    <maxDate>2012-08-31</maxDate>
    <latitude>42.5478</latitude>
    <longitude>-113.2594</longitude>
    <elevation>1341.1</elevation>
    <locationLabels>
      <type>CNTRY</type>
      <id>FIPS:US</id>
      <displayName>United States</displayName>
    </locationLabels>
    <coverage>0.9678</coverage>
  </station>
  <station>
    <id>GHCND:USC00257002</id>
    <displayName>RAGAN, NE US</displayName>
    <minDate>1952-12-01</minDate>
    <maxDate>2009-11-30</maxDate>
    <latitude>40.3119</latitude>
    <longitude>-99.2902</longitude>
    <elevation>682.8</elevation>
    <locationLabels>
      <type>CNTRY</type>
      <id>FIPS:US</id>
      <displayName>United States</displayName>
    </locationLabels>
    <coverage>0.974</coverage>
  </station>
  <station>
    <id>GHCND:USC00356980</id>
    <displayName>RAGER CREEK, OR US</displayName>
    <minDate>1909-08-01</minDate>
    <maxDate>1916-05-31</maxDate>
    <latitude>44.233333</latitude>
    <longitude>-119.75</longitude>
    <elevation>1219.2</elevation>
    <locationLabels>
      <type>CNTRY</type>
      <id>FIPS:US</id>
      <displayName>United States</displayName>
    </locationLabels>
    <coverage>0.9251</coverage>
  </station>
  <station>
    <id>GHCND:USC00356982</id>
    <displayName>RAGER RANGER STATION, OR US</displayName>
    <minDate>1962-05-07</minDate>
    <maxDate>1974-08-31</maxDate>
    <latitude>44.23333</latitude>
    <longitude>-119.73333</longitude>
    <elevation>1220.1</elevation>
    <locationLabels>
      <type>CNTRY</type>
      <id>FIPS:US</id>
      <displayName>United States</displayName>
    </locationLabels>
    <coverage>0.9618</coverage>
  </station>
  <station>
    <id>GHCND:USC00297226</id>
    <displayName>RAGLAND 3 SSW, NM US</displayName>
    <minDate>1935-02-01</minDate>
    <maxDate>2012-12-26</maxDate>
    <latitude>34.78</latitude>
    <longitude>-103.7491</longitude>
    <elevation>1542.3</elevation>
    <locationLabels>
      <type>CNTRY</type>
      <id>FIPS:US</id>
      <displayName>United States</displayName>
    </locationLabels>
    <coverage>0.9712</coverage>
  </station>
  <station>
    <id>GHCND:US1ALSC0008</id>
    <displayName>RAGLAND 4.0 SW, AL US</displayName>
    <minDate>2011-02-09</minDate>
    <maxDate>2013-01-16</maxDate>
    <latitude>33.7068</latitude>
    <longitude>-86.1842</longitude>
    <elevation>146.6</elevation>
    <locationLabels>
      <type>CNTRY</type>
      <id>FIPS:US</id>
      <displayName>United States</displayName>
    </locationLabels>
    <coverage>0.9534</coverage>
  </station>
  <station>
    <id>GHCND:USC00167651</id>
    <displayName>RAGLEY 1 W, LA US</displayName>
    <minDate>1994-11-01</minDate>
    <maxDate>2007-11-30</maxDate>
    <latitude>30.51139</latitude>
    <longitude>-93.21722</longitude>
    <elevation>25.9</elevation>
    <locationLabels>
      <type>CNTRY</type>
      <id>FIPS:US</id>
      <displayName>United States</displayName>
    </locationLabels>
    <coverage>0.4209</coverage>
  </station>
  <station>
    <id>GHCND:USC00287393</id>
    <displayName>RAHWAY, NJ US</displayName>
    <minDate>1940-01-01</minDate>
    <maxDate>2000-06-30</maxDate>
    <latitude>40.60056</latitude>
    <longitude>-74.25694</longitude>
    <elevation>6.1</elevation>
    <locationLabels>
      <type>CNTRY</type>
      <id>FIPS:US</id>
      <displayName>United States</displayName>
    </locationLabels>
    <coverage>0.9766</coverage>
  </station>
  <station>
    <id>GHCND:USC00087440</id>
    <displayName>RAIFORD STATE PRISON, FL US</displayName>
    <minDate>1902-06-01</minDate>
    <maxDate>1956-07-31</maxDate>
    <latitude>30.0678</latitude>
    <longitude>-82.1928</longitude>
    <elevation>36.6</elevation>
    <locationLabels>
      <type>CNTRY</type>
      <id>FIPS:US</id>
      <displayName>United States</displayName>
    </locationLabels>
    <coverage>0.8978</coverage>
  </station>
  <station>
    <id>GHCND:USS0022F05S</id>
    <displayName>RAILROAD OVERPASS, OR US</displayName>
    <minDate>1981-10-01</minDate>
    <maxDate>2013-01-13</maxDate>
    <latitude>43.6167</latitude>
    <longitude>-122.1333</longitude>
    <elevation>838.2</elevation>
    <locationLabels>
      <type>CNTRY</type>
      <id>FIPS:US</id>
      <displayName>United States</displayName>
    </locationLabels>
    <coverage>0.9046</coverage>
  </station>
</stationCollection>
