<?xml version="1.0" encoding="UTF-8" standalone="yes"?>
<stationCollection totalCount="46020" pageCount="461" pageSize="100" page="31">
  <station>
    <id>GHCND:US1COLR0551</id>
    <displayName>BELLVUE 2.4 SSW, CO US</displayName>
    <minDate>2004-07-02</minDate>
    <maxDate>2005-06-12</maxDate>
    <latitude>40.5938</latitude>
    <longitude>-105.1894</longitude>
    <elevation>1702.9</elevation>
    <locationLabels>
      <type>CNTRY</type>
      <id>FIPS:US</id>
      <displayName>United States</displayName>
    </locationLabels>
    <coverage>0.3006</coverage>
  </station>
  <station>
    <id>GHCND:US1COLR0387</id>
    <displayName>BELLVUE 2.4 SSW, CO US</displayName>
    <minDate>2001-05-26</minDate>
    <maxDate>2013-01-16</maxDate>
    <latitude>40.5984</latitude>
    <longitude>-105.189</longitude>
    <elevation>1692.9</elevation>
    <locationLabels>
      <type>CNTRY</type>
      <id>FIPS:US</id>
      <displayName>United States</displayName>
    </locationLabels>
    <coverage>0.897</coverage>
  </station>
  <station>
    <id>GHCND:US1COLR0795</id>
    <displayName>BELLVUE 4.7 W, CO US</displayName>
    <minDate>2008-09-21</minDate>
    <maxDate>2012-07-08</maxDate>
    <latitude>40.6233</latitude>
    <longitude>-105.2588</longitude>
    <elevation>2011.4</elevation>
    <locationLabels>
      <type>CNTRY</type>
      <id>FIPS:US</id>
      <displayName>United States</displayName>
    </locationLabels>
    <coverage>0.7621</coverage>
  </station>
  <station>
    <id>GHCND:US1COLR0360</id>
    <displayName>BELLVUE 4.9 NE, CO US</displayName>
    <minDate>1999-07-19</minDate>
    <maxDate>2012-12-25</maxDate>
    <latitude>40.6833</latitude>
    <longitude>-105.1142</longitude>
    <elevation>1573.1</elevation>
    <locationLabels>
      <type>CNTRY</type>
      <id>FIPS:US</id>
      <displayName>United States</displayName>
    </locationLabels>
    <coverage>0.1442</coverage>
  </station>
  <station>
    <id>GHCND:US1COLR0380</id>
    <displayName>BELLVUE 5.0 W, CO US</displayName>
    <minDate>2000-11-01</minDate>
    <maxDate>2005-04-28</maxDate>
    <latitude>40.6271</latitude>
    <longitude>-105.2628</longitude>
    <elevation>2009.9</elevation>
    <locationLabels>
      <type>CNTRY</type>
      <id>FIPS:US</id>
      <displayName>United States</displayName>
    </locationLabels>
    <coverage>0.1134</coverage>
  </station>
  <station>
    <id>GHCND:US1COLR0553</id>
    <displayName>BELLVUE 5.2 W, CO US</displayName>
    <minDate>1998-06-17</minDate>
    <maxDate>2012-10-17</maxDate>
    <latitude>40.611</latitude>
    <longitude>-105.2702</longitude>
    <elevation>2164.1</elevation>
    <locationLabels>
      <type>CNTRY</type>
      <id>FIPS:US</id>
      <displayName>United States</displayName>
    </locationLabels>
    <coverage>0.1339</coverage>
  </station>
  <station>
    <id>GHCND:US1COLR0549</id>
    <displayName>BELLVUE 5.3 WSW, CO US</displayName>
    <minDate>2004-07-24</minDate>
    <maxDate>2006-10-08</maxDate>
    <latitude>40.5985</latitude>
    <longitude>-105.2675</longitude>
    <elevation>2039.1</elevation>
    <locationLabels>
      <type>CNTRY</type>
      <id>FIPS:US</id>
      <displayName>United States</displayName>
    </locationLabels>
    <coverage>0.7187</coverage>
  </station>
  <station>
    <id>GHCND:US1COLR0819</id>
    <displayName>BELLVUE 5.6 WNW, CO US</displayName>
    <minDate>2008-07-20</minDate>
    <maxDate>2009-04-13</maxDate>
    <latitude>40.6425</latitude>
    <longitude>-105.2746</longitude>
    <elevation>2053.1</elevation>
    <locationLabels>
      <type>CNTRY</type>
      <id>FIPS:US</id>
      <displayName>United States</displayName>
    </locationLabels>
    <coverage>0.3993</coverage>
  </station>
  <station>
    <id>GHCND:US1COLR0004</id>
    <displayName>BELLVUE 5.9 W, CO US</displayName>
    <minDate>2001-05-20</minDate>
    <maxDate>2013-01-16</maxDate>
    <latitude>40.6024</latitude>
    <longitude>-105.2765</longitude>
    <elevation>2015.9</elevation>
    <locationLabels>
      <type>CNTRY</type>
      <id>FIPS:US</id>
      <displayName>United States</displayName>
    </locationLabels>
    <coverage>0.05</coverage>
  </station>
  <station>
    <id>GHCND:US1COLR0308</id>
    <displayName>BELLVUE 8.3 W, CO US</displayName>
    <minDate>2000-04-13</minDate>
    <maxDate>2004-02-01</maxDate>
    <latitude>40.6492</latitude>
    <longitude>-105.3333</longitude>
    <elevation>2169</elevation>
    <locationLabels>
      <type>CNTRY</type>
      <id>FIPS:US</id>
      <displayName>United States</displayName>
    </locationLabels>
    <coverage>0.1906</coverage>
  </station>
  <station>
    <id>GHCND:US1COLR0070</id>
    <displayName>BELLVUE 9.9 WSW, CO US</displayName>
    <minDate>2003-07-24</minDate>
    <maxDate>2004-11-11</maxDate>
    <latitude>40.5825</latitude>
    <longitude>-105.35</longitude>
    <elevation>2186.9</elevation>
    <locationLabels>
      <type>CNTRY</type>
      <id>FIPS:US</id>
      <displayName>United States</displayName>
    </locationLabels>
    <coverage>0.2264</coverage>
  </station>
  <station>
    <id>GHCND:US10butl013</id>
    <displayName>BELLWOOD 0.2 ESE, NE US</displayName>
    <minDate>2008-03-31</minDate>
    <maxDate>2010-06-08</maxDate>
    <latitude>41.3565</latitude>
    <longitude>-97.2356</longitude>
    <elevation>434.9</elevation>
    <locationLabels>
      <type>CNTRY</type>
      <id>FIPS:US</id>
      <displayName>United States</displayName>
    </locationLabels>
    <coverage>0.4975</coverage>
  </station>
  <station>
    <id>GHCND:US10butl011</id>
    <displayName>BELLWOOD 5.8 W, NE US</displayName>
    <minDate>2007-01-01</minDate>
    <maxDate>2013-01-05</maxDate>
    <latitude>41.3221</latitude>
    <longitude>-97.3465</longitude>
    <elevation>451.1</elevation>
    <locationLabels>
      <type>CNTRY</type>
      <id>FIPS:US</id>
      <displayName>United States</displayName>
    </locationLabels>
    <coverage>0.959</coverage>
  </station>
  <station>
    <id>GHCND:US1NJMN0049</id>
    <displayName>BELMAR 0.6 WSW, NJ US</displayName>
    <minDate>2011-08-22</minDate>
    <maxDate>2012-12-24</maxDate>
    <latitude>40.1761</latitude>
    <longitude>-74.0353</longitude>
    <elevation>4.9</elevation>
    <locationLabels>
      <type>CNTRY</type>
      <id>FIPS:US</id>
      <displayName>United States</displayName>
    </locationLabels>
    <coverage>0.3768</coverage>
  </station>
  <station>
    <id>GHCND:US1NJMN0024</id>
    <displayName>BELMAR 1.5 W, NJ US</displayName>
    <minDate>2009-01-11</minDate>
    <maxDate>2013-01-16</maxDate>
    <latitude>40.18</latitude>
    <longitude>-74.052</longitude>
    <elevation>13.1</elevation>
    <locationLabels>
      <type>CNTRY</type>
      <id>FIPS:US</id>
      <displayName>United States</displayName>
    </locationLabels>
    <coverage>0.9312</coverage>
  </station>
  <station>
    <id>GHCND:USC00280721</id>
    <displayName>BELMAR 2 SW, NJ US</displayName>
    <minDate>1941-10-01</minDate>
    <maxDate>1967-09-30</maxDate>
    <latitude>40.15</latitude>
    <longitude>-74.06667</longitude>
    <elevation>11.9</elevation>
    <locationLabels>
      <type>CNTRY</type>
      <id>FIPS:US</id>
      <displayName>United States</displayName>
    </locationLabels>
    <coverage>0.8233</coverage>
  </station>
  <station>
    <id>GHCND:USW00004739</id>
    <displayName>BELMAR ASC, NJ US</displayName>
    <minDate>1955-01-01</minDate>
    <maxDate>1971-07-31</maxDate>
    <latitude>40.18333</latitude>
    <longitude>-74.06667</longitude>
    <elevation>25.9</elevation>
    <locationLabels>
      <type>CNTRY</type>
      <id>FIPS:US</id>
      <displayName>United States</displayName>
    </locationLabels>
    <coverage>0.5687</coverage>
  </station>
  <station>
    <id>GHCND:USW00004783</id>
    <displayName>BELMAR, NJ US</displayName>
    <minDate>1962-01-14</minDate>
    <maxDate>1963-11-29</maxDate>
    <latitude>40.18333</latitude>
    <longitude>-74.11667</longitude>
    <elevation>50</elevation>
    <locationLabels>
      <type>CNTRY</type>
      <id>FIPS:US</id>
      <displayName>United States</displayName>
    </locationLabels>
    <coverage>1</coverage>
  </station>
  <station>
    <id>GHCND:USC00130612</id>
    <displayName>BELMOND, IA US</displayName>
    <minDate>1909-12-01</minDate>
    <maxDate>1945-12-31</maxDate>
    <latitude>42.86667</latitude>
    <longitude>-93.55</longitude>
    <elevation>360</elevation>
    <locationLabels>
      <type>CNTRY</type>
      <id>FIPS:US</id>
      <displayName>United States</displayName>
    </locationLabels>
    <coverage>0.9904</coverage>
  </station>
  <station>
    <id>GHCND:US1PACM0004</id>
    <displayName>BELMONT 0.1 NE, PA US</displayName>
    <minDate>2008-03-12</minDate>
    <maxDate>2013-01-16</maxDate>
    <latitude>40.2833</latitude>
    <longitude>-78.8903</longitude>
    <elevation>524.3</elevation>
    <locationLabels>
      <type>CNTRY</type>
      <id>FIPS:US</id>
      <displayName>United States</displayName>
    </locationLabels>
    <coverage>0.917</coverage>
  </station>
  <station>
    <id>GHCND:US1MAMD0018</id>
    <displayName>BELMONT 0.2 ESE, MA US</displayName>
    <minDate>2011-03-28</minDate>
    <maxDate>2012-11-06</maxDate>
    <latitude>42.3988</latitude>
    <longitude>-71.1638</longitude>
    <elevation>4.3</elevation>
    <locationLabels>
      <type>CNTRY</type>
      <id>FIPS:US</id>
      <displayName>United States</displayName>
    </locationLabels>
    <coverage>0.6356</coverage>
  </station>
  <station>
    <id>GHCND:US1NCGS0009</id>
    <displayName>BELMONT 0.4 E, NC US</displayName>
    <minDate>2009-09-20</minDate>
    <maxDate>2013-01-16</maxDate>
    <latitude>35.249</latitude>
    <longitude>-81.0335</longitude>
    <elevation>205.4</elevation>
    <locationLabels>
      <type>CNTRY</type>
      <id>FIPS:US</id>
      <displayName>United States</displayName>
    </locationLabels>
    <coverage>0.972</coverage>
  </station>
  <station>
    <id>GHCND:US1CASM0014</id>
    <displayName>BELMONT 0.7 WSW, CA US</displayName>
    <minDate>2011-01-01</minDate>
    <maxDate>2013-01-16</maxDate>
    <latitude>37.5104</latitude>
    <longitude>-122.3057</longitude>
    <elevation>146.9</elevation>
    <locationLabels>
      <type>CNTRY</type>
      <id>FIPS:US</id>
      <displayName>United States</displayName>
    </locationLabels>
    <coverage>0.9799</coverage>
  </station>
  <station>
    <id>GHCND:US1MIKN0065</id>
    <displayName>BELMONT 1.0 WNW, MI US</displayName>
    <minDate>2012-05-06</minDate>
    <maxDate>2013-01-16</maxDate>
    <latitude>43.0789</latitude>
    <longitude>-85.6282</longitude>
    <elevation>239.3</elevation>
    <locationLabels>
      <type>CNTRY</type>
      <id>FIPS:US</id>
      <displayName>United States</displayName>
    </locationLabels>
    <coverage>0.9141</coverage>
  </station>
  <station>
    <id>GHCND:US1NHBK0002</id>
    <displayName>BELMONT 1.7 SW, NH US</displayName>
    <minDate>2009-06-22</minDate>
    <maxDate>2013-01-16</maxDate>
    <latitude>43.4356</latitude>
    <longitude>-71.5069</longitude>
    <elevation>214</elevation>
    <locationLabels>
      <type>CNTRY</type>
      <id>FIPS:US</id>
      <displayName>United States</displayName>
    </locationLabels>
    <coverage>0.977</coverage>
  </station>
  <station>
    <id>GHCND:US1MEWL0003</id>
    <displayName>BELMONT 2.7 SSE, ME US</displayName>
    <minDate>2009-09-11</minDate>
    <maxDate>2013-01-16</maxDate>
    <latitude>44.3835</latitude>
    <longitude>-69.1425</longitude>
    <elevation>129.2</elevation>
    <locationLabels>
      <type>CNTRY</type>
      <id>FIPS:US</id>
      <displayName>United States</displayName>
    </locationLabels>
    <coverage>0.9216</coverage>
  </station>
  <station>
    <id>GHCND:USC00330581</id>
    <displayName>BELMONT 4 SE, OH US</displayName>
    <minDate>1948-05-03</minDate>
    <maxDate>1949-06-24</maxDate>
    <latitude>39.98333</latitude>
    <longitude>-80.98333</longitude>
    <elevation>406</elevation>
    <locationLabels>
      <type>CNTRY</type>
      <id>FIPS:US</id>
      <displayName>United States</displayName>
    </locationLabels>
    <coverage>1</coverage>
  </station>
  <station>
    <id>GHCND:USC00190582</id>
    <displayName>BELMONT, MA US</displayName>
    <minDate>1901-11-01</minDate>
    <maxDate>1905-11-30</maxDate>
    <latitude>42.4</latitude>
    <longitude>-71.15</longitude>
    <locationLabels>
      <type>CNTRY</type>
      <id>FIPS:US</id>
      <displayName>United States</displayName>
    </locationLabels>
    <coverage>0.9182</coverage>
  </station>
  <station>
    <id>GHCND:USC00220656</id>
    <displayName>BELMONT, MS US</displayName>
    <minDate>1948-07-01</minDate>
    <maxDate>2013-01-15</maxDate>
    <latitude>34.4773</latitude>
    <longitude>-88.1995</longitude>
    <elevation>186.5</elevation>
    <locationLabels>
      <type>CNTRY</type>
      <id>FIPS:US</id>
      <displayName>United States</displayName>
    </locationLabels>
    <coverage>0.6484</coverage>
  </station>
  <station>
    <id>GHCND:USC00270620</id>
    <displayName>BELMONT, NH US</displayName>
    <minDate>1890-01-01</minDate>
    <maxDate>1896-09-30</maxDate>
    <latitude>43.5</latitude>
    <longitude>-71.583333</longitude>
    <elevation>182.9</elevation>
    <locationLabels>
      <type>CNTRY</type>
      <id>FIPS:US</id>
      <displayName>United States</displayName>
    </locationLabels>
    <coverage>0.9895</coverage>
  </station>
  <station>
    <id>GHCND:USC00260770</id>
    <displayName>BELMONT, NV US</displayName>
    <minDate>1889-05-01</minDate>
    <maxDate>1916-11-30</maxDate>
    <latitude>38.6</latitude>
    <longitude>-116.883333</longitude>
    <elevation>2468.9</elevation>
    <locationLabels>
      <type>CNTRY</type>
      <id>FIPS:US</id>
      <displayName>United States</displayName>
    </locationLabels>
    <coverage>0.4939</coverage>
  </station>
  <station>
    <id>GHCND:USC00410660</id>
    <displayName>BELMONT, TX US</displayName>
    <minDate>1997-02-01</minDate>
    <maxDate>2012-11-30</maxDate>
    <latitude>29.5245</latitude>
    <longitude>-97.6849</longitude>
    <elevation>117.3</elevation>
    <locationLabels>
      <type>CNTRY</type>
      <id>FIPS:US</id>
      <displayName>United States</displayName>
    </locationLabels>
    <coverage>0.8871</coverage>
  </station>
  <station>
    <id>GHCND:US1KSMC0003</id>
    <displayName>BELOIT 6.4 SW, KS US</displayName>
    <minDate>2007-08-28</minDate>
    <maxDate>2011-02-01</maxDate>
    <latitude>39.4073</latitude>
    <longitude>-98.2007</longitude>
    <elevation>456.9</elevation>
    <locationLabels>
      <type>CNTRY</type>
      <id>FIPS:US</id>
      <displayName>United States</displayName>
    </locationLabels>
    <coverage>0.87</coverage>
  </station>
  <station>
    <id>GHCND:US1KSMC0002</id>
    <displayName>BELOIT 8.1 ESE, KS US</displayName>
    <minDate>2006-11-16</minDate>
    <maxDate>2011-07-16</maxDate>
    <latitude>39.407</latitude>
    <longitude>-97.977</longitude>
    <elevation>412.1</elevation>
    <locationLabels>
      <type>CNTRY</type>
      <id>FIPS:US</id>
      <displayName>United States</displayName>
    </locationLabels>
    <coverage>0.2799</coverage>
  </station>
  <station>
    <id>GHCND:US1KSMC0004</id>
    <displayName>BELOIT 9.9 SSW, KS US</displayName>
    <minDate>2007-09-02</minDate>
    <maxDate>2013-01-16</maxDate>
    <latitude>39.3265</latitude>
    <longitude>-98.1518</longitude>
    <elevation>460.9</elevation>
    <locationLabels>
      <type>CNTRY</type>
      <id>FIPS:US</id>
      <displayName>United States</displayName>
    </locationLabels>
    <coverage>0.9313</coverage>
  </station>
  <station>
    <id>GHCND:USC00140693</id>
    <displayName>BELOIT, KS US</displayName>
    <minDate>1893-03-01</minDate>
    <maxDate>2013-01-16</maxDate>
    <latitude>39.4575</latitude>
    <longitude>-98.1125</longitude>
    <elevation>428.2</elevation>
    <locationLabels>
      <type>CNTRY</type>
      <id>FIPS:US</id>
      <displayName>United States</displayName>
    </locationLabels>
    <coverage>0.8283</coverage>
  </station>
  <station>
    <id>GHCND:USC00330600</id>
    <displayName>BELOIT, OH US</displayName>
    <minDate>1911-09-01</minDate>
    <maxDate>1949-01-31</maxDate>
    <latitude>40.91667</latitude>
    <longitude>-81</longitude>
    <elevation>348.1</elevation>
    <locationLabels>
      <type>CNTRY</type>
      <id>FIPS:US</id>
      <displayName>United States</displayName>
    </locationLabels>
    <coverage>0.2425</coverage>
  </station>
  <station>
    <id>GHCND:USC00470696</id>
    <displayName>BELOIT, WI US</displayName>
    <minDate>1893-01-01</minDate>
    <maxDate>2013-01-16</maxDate>
    <latitude>42.5038</latitude>
    <longitude>-89.0311</longitude>
    <elevation>237.7</elevation>
    <locationLabels>
      <type>CNTRY</type>
      <id>FIPS:US</id>
      <displayName>United States</displayName>
    </locationLabels>
    <coverage>0.9642</coverage>
  </station>
  <station>
    <id>GHCND:US1KSED0005</id>
    <displayName>BELPRE 0.1 ESE, KS US</displayName>
    <minDate>2007-03-22</minDate>
    <maxDate>2008-08-14</maxDate>
    <latitude>37.9505</latitude>
    <longitude>-99.0978</longitude>
    <elevation>641</elevation>
    <locationLabels>
      <type>CNTRY</type>
      <id>FIPS:US</id>
      <displayName>United States</displayName>
    </locationLabels>
    <coverage>0.5313</coverage>
  </station>
  <station>
    <id>GHCND:US1MTCC0007</id>
    <displayName>BELT 2.7 NNW, MT US</displayName>
    <minDate>2010-06-21</minDate>
    <maxDate>2012-12-24</maxDate>
    <latitude>47.4192</latitude>
    <longitude>-110.9575</longitude>
    <elevation>1144.5</elevation>
    <locationLabels>
      <type>CNTRY</type>
      <id>FIPS:US</id>
      <displayName>United States</displayName>
    </locationLabels>
    <coverage>0.2407</coverage>
  </station>
  <station>
    <id>GHCND:US1TXBEL023</id>
    <displayName>BELTON 0.4 E, TX US</displayName>
    <minDate>2010-06-21</minDate>
    <maxDate>2013-01-16</maxDate>
    <latitude>31.067</latitude>
    <longitude>-97.4564</longitude>
    <elevation>175.6</elevation>
    <locationLabels>
      <type>CNTRY</type>
      <id>FIPS:US</id>
      <displayName>United States</displayName>
    </locationLabels>
    <coverage>0.8618</coverage>
  </station>
  <station>
    <id>GHCND:US1TXBEL002</id>
    <displayName>BELTON 1.2 N, TX US</displayName>
    <minDate>2008-04-01</minDate>
    <maxDate>2013-01-02</maxDate>
    <latitude>31.0855</latitude>
    <longitude>-97.4649</longitude>
    <elevation>189.9</elevation>
    <locationLabels>
      <type>CNTRY</type>
      <id>FIPS:US</id>
      <displayName>United States</displayName>
    </locationLabels>
    <coverage>0.9074</coverage>
  </station>
  <station>
    <id>GHCND:USC00150582</id>
    <displayName>BELTON 2 NE, KY US</displayName>
    <minDate>2001-10-01</minDate>
    <maxDate>2002-02-28</maxDate>
    <latitude>37.18389</latitude>
    <longitude>-87.00917</longitude>
    <elevation>159.4</elevation>
    <locationLabels>
      <type>CNTRY</type>
      <id>FIPS:US</id>
      <displayName>United States</displayName>
    </locationLabels>
    <coverage>1</coverage>
  </station>
  <station>
    <id>GHCND:US1TXBEL024</id>
    <displayName>BELTON 2.3 NNW, TX US</displayName>
    <minDate>2010-07-05</minDate>
    <maxDate>2013-01-16</maxDate>
    <latitude>31.0984</latitude>
    <longitude>-97.4816</longitude>
    <elevation>203.9</elevation>
    <locationLabels>
      <type>CNTRY</type>
      <id>FIPS:US</id>
      <displayName>United States</displayName>
    </locationLabels>
    <coverage>0.9126</coverage>
  </station>
  <station>
    <id>GHCND:US1TXBEL008</id>
    <displayName>BELTON 3.9 N, TX US</displayName>
    <minDate>2009-06-27</minDate>
    <maxDate>2013-01-16</maxDate>
    <latitude>31.1239</latitude>
    <longitude>-97.4733</longitude>
    <elevation>210.9</elevation>
    <locationLabels>
      <type>CNTRY</type>
      <id>FIPS:US</id>
      <displayName>United States</displayName>
    </locationLabels>
    <coverage>0.9838</coverage>
  </station>
  <station>
    <id>GHCND:US1SCAN0025</id>
    <displayName>BELTON 4.1 SSW, SC US</displayName>
    <minDate>2011-07-04</minDate>
    <maxDate>2013-01-15</maxDate>
    <latitude>34.4662</latitude>
    <longitude>-82.513</longitude>
    <elevation>233.2</elevation>
    <locationLabels>
      <type>CNTRY</type>
      <id>FIPS:US</id>
      <displayName>United States</displayName>
    </locationLabels>
    <coverage>0.8185</coverage>
  </station>
  <station>
    <id>GHCND:US1TXBEL009</id>
    <displayName>BELTON 5.4 NW, TX US</displayName>
    <minDate>2009-07-17</minDate>
    <maxDate>2013-01-16</maxDate>
    <latitude>31.1231</latitude>
    <longitude>-97.5284</longitude>
    <elevation>230.4</elevation>
    <locationLabels>
      <type>CNTRY</type>
      <id>FIPS:US</id>
      <displayName>United States</displayName>
    </locationLabels>
    <coverage>0.9656</coverage>
  </station>
  <station>
    <id>GHCND:USC00150584</id>
    <displayName>BELTON 6 SW, KY US</displayName>
    <minDate>1994-03-01</minDate>
    <maxDate>1999-08-31</maxDate>
    <latitude>37.1</latitude>
    <longitude>-87.05</longitude>
    <elevation>201.2</elevation>
    <locationLabels>
      <type>CNTRY</type>
      <id>FIPS:US</id>
      <displayName>United States</displayName>
    </locationLabels>
    <coverage>0.8642</coverage>
  </station>
  <station>
    <id>GHCND:USC00152366</id>
    <displayName>BELTON 6 SW, KY US</displayName>
    <minDate>1940-02-01</minDate>
    <maxDate>1993-10-31</maxDate>
    <latitude>37.1</latitude>
    <longitude>-87.05</longitude>
    <elevation>201.2</elevation>
    <locationLabels>
      <type>CNTRY</type>
      <id>FIPS:US</id>
      <displayName>United States</displayName>
    </locationLabels>
    <coverage>0.9903</coverage>
  </station>
  <station>
    <id>GHCND:USC00380613</id>
    <displayName>BELTON 7 NNE, SC US</displayName>
    <minDate>2004-07-01</minDate>
    <maxDate>2012-11-30</maxDate>
    <latitude>34.6013</latitude>
    <longitude>-82.4336</longitude>
    <elevation>201.2</elevation>
    <locationLabels>
      <type>CNTRY</type>
      <id>FIPS:US</id>
      <displayName>United States</displayName>
    </locationLabels>
    <coverage>0.8472</coverage>
  </station>
  <station>
    <id>GHCND:USC00410665</id>
    <displayName>BELTON DAM, TX US</displayName>
    <minDate>1951-08-01</minDate>
    <maxDate>1992-12-31</maxDate>
    <latitude>31.1</latitude>
    <longitude>-97.48333</longitude>
    <elevation>202.4</elevation>
    <locationLabels>
      <type>CNTRY</type>
      <id>FIPS:US</id>
      <displayName>United States</displayName>
    </locationLabels>
    <coverage>0.955</coverage>
  </station>
  <station>
    <id>GHCND:USC00380612</id>
    <displayName>BELTON, SC US</displayName>
    <minDate>1941-02-09</minDate>
    <maxDate>1951-07-20</maxDate>
    <latitude>34.5</latitude>
    <longitude>-82.55</longitude>
    <elevation>271.3</elevation>
    <locationLabels>
      <type>CNTRY</type>
      <id>FIPS:US</id>
      <displayName>United States</displayName>
    </locationLabels>
    <coverage>0.333</coverage>
  </station>
  <station>
    <id>GHCND:US1MDPG0009</id>
    <displayName>BELTSVILLE 2.0 ENE, MD US</displayName>
    <minDate>2006-05-01</minDate>
    <maxDate>2006-08-31</maxDate>
    <latitude>39.0443</latitude>
    <longitude>-76.8866</longitude>
    <elevation>46.9</elevation>
    <locationLabels>
      <type>CNTRY</type>
      <id>FIPS:US</id>
      <displayName>United States</displayName>
    </locationLabels>
    <coverage>0.8211</coverage>
  </station>
  <station>
    <id>GHCND:USC00180701</id>
    <displayName>BELTSVILLE PLANT STATION, MD US</displayName>
    <minDate>1949-01-01</minDate>
    <maxDate>1960-12-31</maxDate>
    <latitude>39.01667</latitude>
    <longitude>-76.91667</longitude>
    <elevation>43</elevation>
    <locationLabels>
      <type>CNTRY</type>
      <id>FIPS:US</id>
      <displayName>United States</displayName>
    </locationLabels>
    <coverage>0.9991</coverage>
  </station>
  <station>
    <id>GHCND:USC00180702</id>
    <displayName>BELTSVILLE PLANT STATION, MD US</displayName>
    <minDate>1949-01-01</minDate>
    <maxDate>1960-12-31</maxDate>
    <latitude>39.03333</latitude>
    <longitude>-76.93333</longitude>
    <elevation>43</elevation>
    <locationLabels>
      <type>CNTRY</type>
      <id>FIPS:US</id>
      <displayName>United States</displayName>
    </locationLabels>
    <coverage>0.9993</coverage>
  </station>
  <station>
    <id>GHCND:USC00180703</id>
    <displayName>BELTSVILLE PLANT STATION, MD US</displayName>
    <minDate>1949-01-01</minDate>
    <maxDate>1957-06-30</maxDate>
    <latitude>39.03333</latitude>
    <longitude>-76.93333</longitude>
    <elevation>61</elevation>
    <locationLabels>
      <type>CNTRY</type>
      <id>FIPS:US</id>
      <displayName>United States</displayName>
    </locationLabels>
    <coverage>0.9997</coverage>
  </station>
  <station>
    <id>GHCND:USC00180704</id>
    <displayName>BELTSVILLE PLANT STATION, MD US</displayName>
    <minDate>1949-01-01</minDate>
    <maxDate>1960-12-31</maxDate>
    <latitude>39.03333</latitude>
    <longitude>-76.93333</longitude>
    <elevation>82</elevation>
    <locationLabels>
      <type>CNTRY</type>
      <id>FIPS:US</id>
      <displayName>United States</displayName>
    </locationLabels>
    <coverage>0.9989</coverage>
  </station>
  <station>
    <id>GHCND:USC00180705</id>
    <displayName>BELTSVILLE PLANT STATION, MD US</displayName>
    <minDate>1949-01-01</minDate>
    <maxDate>1978-09-30</maxDate>
    <latitude>39.01667</latitude>
    <longitude>-76.95</longitude>
    <elevation>29.9</elevation>
    <locationLabels>
      <type>CNTRY</type>
      <id>FIPS:US</id>
      <displayName>United States</displayName>
    </locationLabels>
    <coverage>0.9994</coverage>
  </station>
  <station>
    <id>GHCND:USC00180706</id>
    <displayName>BELTSVILLE PLANT STATION, MD US</displayName>
    <minDate>1949-01-01</minDate>
    <maxDate>1960-12-31</maxDate>
    <latitude>39.01667</latitude>
    <longitude>-76.95</longitude>
    <elevation>67.1</elevation>
    <locationLabels>
      <type>CNTRY</type>
      <id>FIPS:US</id>
      <displayName>United States</displayName>
    </locationLabels>
    <coverage>0.9975</coverage>
  </station>
  <station>
    <id>GHCND:USC00180714</id>
    <displayName>BELTSVILLE SOIL CONSERVATION SERVICE R1, MD US</displayName>
    <minDate>1950-07-01</minDate>
    <maxDate>1950-12-31</maxDate>
    <latitude>39.05</latitude>
    <longitude>-76.95</longitude>
    <elevation>95.1</elevation>
    <locationLabels>
      <type>CNTRY</type>
      <id>FIPS:US</id>
      <displayName>United States</displayName>
    </locationLabels>
    <coverage>0.837</coverage>
  </station>
  <station>
    <id>GHCND:USC00180700</id>
    <displayName>BELTSVILLE, MD US</displayName>
    <minDate>1941-05-01</minDate>
    <maxDate>2013-01-01</maxDate>
    <latitude>39.0302</latitude>
    <longitude>-76.9313</longitude>
    <elevation>44.2</elevation>
    <locationLabels>
      <type>CNTRY</type>
      <id>FIPS:US</id>
      <displayName>United States</displayName>
    </locationLabels>
    <coverage>0.9432</coverage>
  </station>
  <station>
    <id>GHCND:USC00360560</id>
    <displayName>BELTZVILLE DAM, PA US</displayName>
    <minDate>1971-09-01</minDate>
    <maxDate>2013-01-15</maxDate>
    <latitude>40.8619</latitude>
    <longitude>-75.6428</longitude>
    <elevation>224</elevation>
    <locationLabels>
      <type>CNTRY</type>
      <id>FIPS:US</id>
      <displayName>United States</displayName>
    </locationLabels>
    <coverage>0.897</coverage>
  </station>
  <station>
    <id>GHCND:USC00500685</id>
    <displayName>BELUGA, AK US</displayName>
    <minDate>1973-08-01</minDate>
    <maxDate>1992-06-30</maxDate>
    <latitude>61.18333</latitude>
    <longitude>-151.03333</longitude>
    <elevation>22.9</elevation>
    <locationLabels>
      <type>CNTRY</type>
      <id>FIPS:US</id>
      <displayName>United States</displayName>
    </locationLabels>
    <coverage>0.9095</coverage>
  </station>
  <station>
    <id>GHCND:USC00460661</id>
    <displayName>BELVA, WV US</displayName>
    <minDate>1951-09-01</minDate>
    <maxDate>1982-03-16</maxDate>
    <latitude>38.23333</latitude>
    <longitude>-81.18333</longitude>
    <elevation>244.1</elevation>
    <locationLabels>
      <type>CNTRY</type>
      <id>FIPS:US</id>
      <displayName>United States</displayName>
    </locationLabels>
    <coverage>0.9126</coverage>
  </station>
  <station>
    <id>GHCND:US1ILBN0009</id>
    <displayName>BELVIDERE 1.6 NE, IL US</displayName>
    <minDate>2009-03-08</minDate>
    <maxDate>2012-07-19</maxDate>
    <latitude>42.2699</latitude>
    <longitude>-88.8284</longitude>
    <elevation>239</elevation>
    <locationLabels>
      <type>CNTRY</type>
      <id>FIPS:US</id>
      <displayName>United States</displayName>
    </locationLabels>
    <coverage>0.3805</coverage>
  </station>
  <station>
    <id>GHCND:US1SDJK0009</id>
    <displayName>BELVIDERE 2.0 E, SD US</displayName>
    <minDate>2007-08-25</minDate>
    <maxDate>2009-12-14</maxDate>
    <latitude>43.8322</latitude>
    <longitude>-101.231</longitude>
    <elevation>710.8</elevation>
    <locationLabels>
      <type>CNTRY</type>
      <id>FIPS:US</id>
      <displayName>United States</displayName>
    </locationLabels>
    <coverage>0.8114</coverage>
  </station>
  <station>
    <id>GHCND:US1NCPR0002</id>
    <displayName>BELVIDERE 5.4 N, NC US</displayName>
    <minDate>2011-03-20</minDate>
    <maxDate>2013-01-16</maxDate>
    <latitude>36.3463</latitude>
    <longitude>-76.5482</longitude>
    <elevation>11.3</elevation>
    <locationLabels>
      <type>CNTRY</type>
      <id>FIPS:US</id>
      <displayName>United States</displayName>
    </locationLabels>
    <coverage>0.9596</coverage>
  </station>
  <station>
    <id>GHCND:USC00280734</id>
    <displayName>BELVIDERE BRIDGE, NJ US</displayName>
    <minDate>1982-04-01</minDate>
    <maxDate>2013-01-16</maxDate>
    <latitude>40.8292</latitude>
    <longitude>-75.0835</longitude>
    <elevation>80.2</elevation>
    <locationLabels>
      <type>CNTRY</type>
      <id>FIPS:US</id>
      <displayName>United States</displayName>
    </locationLabels>
    <coverage>0.9687</coverage>
  </station>
  <station>
    <id>GHCND:USC00110583</id>
    <displayName>BELVIDERE, IL US</displayName>
    <minDate>1941-11-01</minDate>
    <maxDate>2012-12-31</maxDate>
    <latitude>42.255</latitude>
    <longitude>-88.8644</longitude>
    <elevation>224.9</elevation>
    <locationLabels>
      <type>CNTRY</type>
      <id>FIPS:US</id>
      <displayName>United States</displayName>
    </locationLabels>
    <coverage>0.3408</coverage>
  </station>
  <station>
    <id>GHCND:USC00280729</id>
    <displayName>BELVIDERE, NJ US</displayName>
    <minDate>1893-01-01</minDate>
    <maxDate>1981-10-31</maxDate>
    <latitude>40.83333</latitude>
    <longitude>-75.08333</longitude>
    <elevation>85</elevation>
    <locationLabels>
      <type>CNTRY</type>
      <id>FIPS:US</id>
      <displayName>United States</displayName>
    </locationLabels>
    <coverage>0.9788</coverage>
  </station>
  <station>
    <id>GHCND:USC00390574</id>
    <displayName>BELVIDERE, SD US</displayName>
    <minDate>1924-08-28</minDate>
    <maxDate>1951-11-30</maxDate>
    <latitude>43.83333</latitude>
    <longitude>-101.26667</longitude>
    <elevation>705</elevation>
    <locationLabels>
      <type>CNTRY</type>
      <id>FIPS:US</id>
      <displayName>United States</displayName>
    </locationLabels>
    <coverage>0.9706</coverage>
  </station>
  <station>
    <id>GHCND:USC00400603</id>
    <displayName>BELVIDERE, TN US</displayName>
    <minDate>1948-09-01</minDate>
    <maxDate>1962-03-31</maxDate>
    <latitude>35.13333</latitude>
    <longitude>-86.2</longitude>
    <elevation>296</elevation>
    <locationLabels>
      <type>CNTRY</type>
      <id>FIPS:US</id>
      <displayName>United States</displayName>
    </locationLabels>
    <coverage>0.9919</coverage>
  </station>
  <station>
    <id>GHCND:USC00220660</id>
    <displayName>BELZONI, MS US</displayName>
    <minDate>1930-04-10</minDate>
    <maxDate>2013-01-16</maxDate>
    <latitude>33.1772</latitude>
    <longitude>-90.4919</longitude>
    <elevation>35.1</elevation>
    <locationLabels>
      <type>CNTRY</type>
      <id>FIPS:US</id>
      <displayName>United States</displayName>
    </locationLabels>
    <coverage>0.9553</coverage>
  </station>
  <station>
    <id>GHCND:USC00110591</id>
    <displayName>BEMENT, IL US</displayName>
    <minDate>1907-11-01</minDate>
    <maxDate>1917-11-30</maxDate>
    <latitude>39.83333</latitude>
    <longitude>-88.58333</longitude>
    <elevation>210</elevation>
    <locationLabels>
      <type>CNTRY</type>
      <id>FIPS:US</id>
      <displayName>United States</displayName>
    </locationLabels>
    <coverage>0.9128</coverage>
  </station>
  <station>
    <id>GHCND:USC00330610</id>
    <displayName>BEMENT, US</displayName>
    <minDate>1893-01-01</minDate>
    <maxDate>1903-10-31</maxDate>
    <latitude>42.65</latitude>
    <longitude>-82.65</longitude>
    <elevation>225.9</elevation>
    <locationLabels>
      <type>CNTRY</type>
      <id>FIPS:US</id>
      <displayName>United States</displayName>
    </locationLabels>
    <coverage>0.867</coverage>
  </station>
  <station>
    <id>GHCND:US1MNBM0003</id>
    <displayName>BEMIDJI 8.3 ENE, MN US</displayName>
    <minDate>2011-08-24</minDate>
    <maxDate>2012-11-27</maxDate>
    <latitude>47.5417</latitude>
    <longitude>-94.7207</longitude>
    <elevation>421.5</elevation>
    <locationLabels>
      <type>CNTRY</type>
      <id>FIPS:US</id>
      <displayName>United States</displayName>
    </locationLabels>
    <coverage>0.9048</coverage>
  </station>
  <station>
    <id>GHCND:USR0000MBEM</id>
    <displayName>BEMIDJI MINNESOTA, MN US</displayName>
    <minDate>2003-01-06</minDate>
    <maxDate>2012-08-31</maxDate>
    <latitude>47.5033</latitude>
    <longitude>-94.9281</longitude>
    <elevation>419.7</elevation>
    <locationLabels>
      <type>CNTRY</type>
      <id>FIPS:US</id>
      <displayName>United States</displayName>
    </locationLabels>
    <coverage>0.8922</coverage>
  </station>
  <station>
    <id>GHCND:USC00210643</id>
    <displayName>BEMIDJI, MN US</displayName>
    <minDate>1896-02-01</minDate>
    <maxDate>2013-01-15</maxDate>
    <latitude>47.5369</latitude>
    <longitude>-94.8297</longitude>
    <elevation>414.5</elevation>
    <locationLabels>
      <type>CNTRY</type>
      <id>FIPS:US</id>
      <displayName>United States</displayName>
    </locationLabels>
    <coverage>0.8105</coverage>
  </station>
  <station>
    <id>GHCND:USC00170495</id>
    <displayName>BEMIS, ME US</displayName>
    <minDate>1900-01-01</minDate>
    <maxDate>1903-08-31</maxDate>
    <latitude>44.866667</latitude>
    <longitude>-70.75</longitude>
    <elevation>45.1</elevation>
    <locationLabels>
      <type>CNTRY</type>
      <id>FIPS:US</id>
      <displayName>United States</displayName>
    </locationLabels>
    <coverage>0.7608</coverage>
  </station>
  <station>
    <id>GHCND:USR0000CBLT</id>
    <displayName>BEN BOLT CALIFORNIA, CA US</displayName>
    <minDate>1990-05-01</minDate>
    <maxDate>2012-08-30</maxDate>
    <latitude>38.5908</latitude>
    <longitude>-120.9336</longitude>
    <elevation>275.8</elevation>
    <locationLabels>
      <type>CNTRY</type>
      <id>FIPS:US</id>
      <displayName>United States</displayName>
    </locationLabels>
    <coverage>0.9586</coverage>
  </station>
  <station>
    <id>GHCND:USR0000ABEN</id>
    <displayName>BEN CREEK ALASKA, AK US</displayName>
    <minDate>1990-05-09</minDate>
    <maxDate>2012-08-30</maxDate>
    <latitude>65.2833</latitude>
    <longitude>-143.0667</longitude>
    <elevation>563.9</elevation>
    <locationLabels>
      <type>CNTRY</type>
      <id>FIPS:US</id>
      <displayName>United States</displayName>
    </locationLabels>
    <coverage>0.6801</coverage>
  </station>
  <station>
    <id>GHCND:US1CASZ0002</id>
    <displayName>BEN LOMOND 1.2 SSE, CA US</displayName>
    <minDate>2008-09-25</minDate>
    <maxDate>2010-02-05</maxDate>
    <latitude>37.0877</latitude>
    <longitude>-122.0734</longitude>
    <elevation>121</elevation>
    <locationLabels>
      <type>CNTRY</type>
      <id>FIPS:US</id>
      <displayName>United States</displayName>
    </locationLabels>
    <coverage>0.4529</coverage>
  </station>
  <station>
    <id>GHCND:USR0000CBNL</id>
    <displayName>BEN LOMOND CALIFORNIA, CA US</displayName>
    <minDate>1998-06-16</minDate>
    <maxDate>2012-08-30</maxDate>
    <latitude>37.1317</latitude>
    <longitude>-122.17</longitude>
    <elevation>801.6</elevation>
    <locationLabels>
      <type>CNTRY</type>
      <id>FIPS:US</id>
      <displayName>United States</displayName>
    </locationLabels>
    <coverage>0.9322</coverage>
  </station>
  <station>
    <id>GHCND:USC00040674</id>
    <displayName>BEN LOMOND NUMBER 4, CA US</displayName>
    <minDate>1937-01-01</minDate>
    <maxDate>1965-12-09</maxDate>
    <latitude>37.0855</latitude>
    <longitude>-122.0797</longitude>
    <elevation>128</elevation>
    <locationLabels>
      <type>CNTRY</type>
      <id>FIPS:US</id>
      <displayName>United States</displayName>
    </locationLabels>
    <coverage>0.9901</coverage>
  </station>
  <station>
    <id>GHCND:USC00040676</id>
    <displayName>BEN LOMOND NUMBER 4, CA US</displayName>
    <minDate>1966-01-01</minDate>
    <maxDate>1967-07-31</maxDate>
    <latitude>37.0855</latitude>
    <longitude>-122.0797</longitude>
    <elevation>128</elevation>
    <locationLabels>
      <type>CNTRY</type>
      <id>FIPS:US</id>
      <displayName>United States</displayName>
    </locationLabels>
    <coverage>1</coverage>
  </station>
  <station>
    <id>GHCND:USC00040677</id>
    <displayName>BEN LOMOND NUMBER 4, CA US</displayName>
    <minDate>1967-08-01</minDate>
    <maxDate>1972-11-30</maxDate>
    <latitude>37.0855</latitude>
    <longitude>-122.0797</longitude>
    <elevation>128</elevation>
    <locationLabels>
      <type>CNTRY</type>
      <id>FIPS:US</id>
      <displayName>United States</displayName>
    </locationLabels>
    <coverage>1</coverage>
  </station>
  <station>
    <id>GHCND:USC00040673</id>
    <displayName>BEN LOMOND NUMBER 4, CA US</displayName>
    <minDate>1972-12-02</minDate>
    <maxDate>2012-11-30</maxDate>
    <latitude>37.0855</latitude>
    <longitude>-122.0797</longitude>
    <elevation>128</elevation>
    <locationLabels>
      <type>CNTRY</type>
      <id>FIPS:US</id>
      <displayName>United States</displayName>
    </locationLabels>
    <coverage>0.9911</coverage>
  </station>
  <station>
    <id>GHCND:USS0011H08S</id>
    <displayName>BEN LOMOND PEAK, UT US</displayName>
    <minDate>1978-10-01</minDate>
    <maxDate>2013-01-14</maxDate>
    <latitude>41.3667</latitude>
    <longitude>-111.95</longitude>
    <elevation>2438.4</elevation>
    <locationLabels>
      <type>CNTRY</type>
      <id>FIPS:US</id>
      <displayName>United States</displayName>
    </locationLabels>
    <coverage>0.8806</coverage>
  </station>
  <station>
    <id>GHCND:USC00040672</id>
    <displayName>BEN LOMOND SOUTHERN PACIFIC RAILROAD, CA US</displayName>
    <minDate>1906-03-01</minDate>
    <maxDate>1918-05-31</maxDate>
    <latitude>37.083333</latitude>
    <longitude>-122.083333</longitude>
    <elevation>91.4</elevation>
    <locationLabels>
      <type>CNTRY</type>
      <id>FIPS:US</id>
      <displayName>United States</displayName>
    </locationLabels>
    <coverage>0.8241</coverage>
  </station>
  <station>
    <id>GHCND:USS0011H30S</id>
    <displayName>BEN LOMOND TRAIL, UT US</displayName>
    <minDate>1980-10-01</minDate>
    <maxDate>2013-01-14</maxDate>
    <latitude>41.3833</latitude>
    <longitude>-111.9167</longitude>
    <elevation>1828.8</elevation>
    <locationLabels>
      <type>CNTRY</type>
      <id>FIPS:US</id>
      <displayName>United States</displayName>
    </locationLabels>
    <coverage>0.8718</coverage>
  </station>
  <station>
    <id>GHCND:USC00040675</id>
    <displayName>BEN LOMOND WHITNEY, CA US</displayName>
    <minDate>1931-01-01</minDate>
    <maxDate>1933-02-28</maxDate>
    <latitude>37.08333</latitude>
    <longitude>-122.1</longitude>
    <elevation>305.1</elevation>
    <locationLabels>
      <type>CNTRY</type>
      <id>FIPS:US</id>
      <displayName>United States</displayName>
    </locationLabels>
    <coverage>0.9987</coverage>
  </station>
  <station>
    <id>GHCND:RQC00660900</id>
    <displayName>BENAVENTE HORMIGUERO, PR US</displayName>
    <minDate>1973-08-01</minDate>
    <maxDate>2002-08-31</maxDate>
    <latitude>18.11639</latitude>
    <longitude>-67.11333</longitude>
    <elevation>13.7</elevation>
    <locationLabels>
      <type>CNTRY</type>
      <id>FIPS:US</id>
      <displayName>United States</displayName>
    </locationLabels>
    <coverage>0.5157</coverage>
  </station>
  <station>
    <id>GHCND:USC00410690</id>
    <displayName>BENAVIDES 2, TX US</displayName>
    <minDate>1962-07-01</minDate>
    <maxDate>2013-01-09</maxDate>
    <latitude>27.5969</latitude>
    <longitude>-98.4162</longitude>
    <elevation>115.8</elevation>
    <locationLabels>
      <type>CNTRY</type>
      <id>FIPS:US</id>
      <displayName>United States</displayName>
    </locationLabels>
    <coverage>0.9311</coverage>
  </station>
  <station>
    <id>GHCND:USC00410689</id>
    <displayName>BENAVIDES, TX US</displayName>
    <minDate>1948-06-01</minDate>
    <maxDate>1951-09-30</maxDate>
    <latitude>27.6</latitude>
    <longitude>-98.41667</longitude>
    <elevation>116.1</elevation>
    <locationLabels>
      <type>CNTRY</type>
      <id>FIPS:US</id>
      <displayName>United States</displayName>
    </locationLabels>
    <coverage>0.991</coverage>
  </station>
  <station>
    <id>GHCND:US1TXTN0056</id>
    <displayName>BENBROOK 0.6 E, TX US</displayName>
    <minDate>2008-12-09</minDate>
    <maxDate>2013-01-15</maxDate>
    <latitude>32.6784</latitude>
    <longitude>-97.4516</longitude>
    <elevation>207.3</elevation>
    <locationLabels>
      <type>CNTRY</type>
      <id>FIPS:US</id>
      <displayName>United States</displayName>
    </locationLabels>
    <coverage>0.9366</coverage>
  </station>
  <station>
    <id>GHCND:US1TXTN0057</id>
    <displayName>BENBROOK 2.1 N, TX US</displayName>
    <minDate>2008-12-15</minDate>
    <maxDate>2013-01-15</maxDate>
    <latitude>32.7081</latitude>
    <longitude>-97.4603</longitude>
    <elevation>207</elevation>
    <locationLabels>
      <type>CNTRY</type>
      <id>FIPS:US</id>
      <displayName>United States</displayName>
    </locationLabels>
    <coverage>0.9471</coverage>
  </station>
  <station>
    <id>GHCND:USC00410691</id>
    <displayName>BENBROOK DAM, TX US</displayName>
    <minDate>1949-06-25</minDate>
    <maxDate>2012-10-31</maxDate>
    <latitude>32.6475</latitude>
    <longitude>-97.4439</longitude>
    <elevation>240.8</elevation>
    <locationLabels>
      <type>CNTRY</type>
      <id>FIPS:US</id>
      <displayName>United States</displayName>
    </locationLabels>
    <coverage>0.9925</coverage>
  </station>
  <station>
    <id>GHCND:USR0000MBEN</id>
    <displayName>BENCHMARK MONTANA, MT US</displayName>
    <minDate>1985-05-23</minDate>
    <maxDate>2012-08-31</maxDate>
    <latitude>47.5</latitude>
    <longitude>-112.9</longitude>
    <elevation>1630.7</elevation>
    <locationLabels>
      <type>CNTRY</type>
      <id>FIPS:US</id>
      <displayName>United States</displayName>
    </locationLabels>
    <coverage>0.8752</coverage>
  </station>
  <station>
    <id>GHCND:US1ORDS0026</id>
    <displayName>BEND 0.8 ESE, OR US</displayName>
    <minDate>2008-03-11</minDate>
    <maxDate>2012-09-23</maxDate>
    <latitude>44.0619</latitude>
    <longitude>-121.2954</longitude>
    <elevation>1105.8</elevation>
    <locationLabels>
      <type>CNTRY</type>
      <id>FIPS:US</id>
      <displayName>United States</displayName>
    </locationLabels>
    <coverage>0.3607</coverage>
  </station>
  <station>
    <id>GHCND:US1ORDS0029</id>
    <displayName>BEND 1.5 WSW, OR US</displayName>
    <minDate>2009-05-06</minDate>
    <maxDate>2013-01-16</maxDate>
    <latitude>44.0598</latitude>
    <longitude>-121.3394</longitude>
    <elevation>1127.5</elevation>
    <locationLabels>
      <type>CNTRY</type>
      <id>FIPS:US</id>
      <displayName>United States</displayName>
    </locationLabels>
    <coverage>0.7544</coverage>
  </station>
</stationCollection>
