<?xml version="1.0" encoding="UTF-8" standalone="yes"?>
<stationCollection totalCount="46020" pageCount="461" pageSize="100" page="399">
  <station>
    <id>GHCND:US1ILCK0062</id>
    <displayName>STICKNEY 1.2 W, IL US</displayName>
    <minDate>2007-03-06</minDate>
    <maxDate>2011-01-30</maxDate>
    <latitude>41.8212</latitude>
    <longitude>-87.7959</longitude>
    <elevation>187.1</elevation>
    <locationLabels>
      <type>CNTRY</type>
      <id>FIPS:US</id>
      <displayName>United States</displayName>
    </locationLabels>
    <coverage>0.6223</coverage>
  </station>
  <station>
    <id>GHCND:USS0014F02S</id>
    <displayName>STICKNEY MILL, ID US</displayName>
    <minDate>1980-10-01</minDate>
    <maxDate>2013-01-13</maxDate>
    <latitude>43.8667</latitude>
    <longitude>-114.2167</longitude>
    <elevation>2264.7</elevation>
    <locationLabels>
      <type>CNTRY</type>
      <id>FIPS:US</id>
      <displayName>United States</displayName>
    </locationLabels>
    <coverage>0.9015</coverage>
  </station>
  <station>
    <id>GHCND:USC00118278</id>
    <displayName>STICKNEY W SIDE TREA, IL US</displayName>
    <minDate>1948-07-01</minDate>
    <maxDate>1951-09-30</maxDate>
    <latitude>41.81667</latitude>
    <longitude>-87.75</longitude>
    <elevation>195.1</elevation>
    <locationLabels>
      <type>CNTRY</type>
      <id>FIPS:US</id>
      <displayName>United States</displayName>
    </locationLabels>
    <coverage>0.818</coverage>
  </station>
  <station>
    <id>GHCND:USC00398007</id>
    <displayName>STICKNEY, SD US</displayName>
    <minDate>1948-08-01</minDate>
    <maxDate>1951-09-30</maxDate>
    <latitude>43.5947</latitude>
    <longitude>-98.4366</longitude>
    <elevation>495</elevation>
    <locationLabels>
      <type>CNTRY</type>
      <id>FIPS:US</id>
      <displayName>United States</displayName>
    </locationLabels>
    <coverage>0.9689</coverage>
  </station>
  <station>
    <id>GHCND:USC00348497</id>
    <displayName>STIGLER 1 SE, OK US</displayName>
    <minDate>1938-11-01</minDate>
    <maxDate>1951-09-30</maxDate>
    <latitude>35.24528</latitude>
    <longitude>-95.11444</longitude>
    <elevation>173.7</elevation>
    <locationLabels>
      <type>CNTRY</type>
      <id>FIPS:US</id>
      <displayName>United States</displayName>
    </locationLabels>
    <coverage>0.8968</coverage>
  </station>
  <station>
    <id>GHCND:USC00418640</id>
    <displayName>STILES, TX US</displayName>
    <minDate>1916-04-05</minDate>
    <maxDate>1918-04-30</maxDate>
    <latitude>31.4</latitude>
    <longitude>-101.46667</longitude>
    <elevation>885.1</elevation>
    <locationLabels>
      <type>CNTRY</type>
      <id>FIPS:US</id>
      <displayName>United States</displayName>
    </locationLabels>
    <coverage>0.9987</coverage>
  </station>
  <station>
    <id>GHCND:US1INMG0012</id>
    <displayName>STILESVILLE 3.6 S, IN US</displayName>
    <minDate>2007-09-29</minDate>
    <maxDate>2013-01-12</maxDate>
    <latitude>39.5865</latitude>
    <longitude>-86.6333</longitude>
    <elevation>242</elevation>
    <locationLabels>
      <type>CNTRY</type>
      <id>FIPS:US</id>
      <displayName>United States</displayName>
    </locationLabels>
    <coverage>0.6332</coverage>
  </station>
  <station>
    <id>GHCND:USC00168800</id>
    <displayName>STILLE, LA US</displayName>
    <minDate>1944-05-01</minDate>
    <maxDate>1946-03-31</maxDate>
    <latitude>31.233333</latitude>
    <longitude>-92.933333</longitude>
    <elevation>85.3</elevation>
    <locationLabels>
      <type>CNTRY</type>
      <id>FIPS:US</id>
      <displayName>United States</displayName>
    </locationLabels>
    <coverage>1</coverage>
  </station>
  <station>
    <id>GHCND:USC00418646</id>
    <displayName>STILLHOUSE HOLLOW DAM, TX US</displayName>
    <minDate>1963-07-01</minDate>
    <maxDate>2013-01-16</maxDate>
    <latitude>31.0372</latitude>
    <longitude>-97.5283</longitude>
    <elevation>215.2</elevation>
    <locationLabels>
      <type>CNTRY</type>
      <id>FIPS:US</id>
      <displayName>United States</displayName>
    </locationLabels>
    <coverage>0.9822</coverage>
  </station>
  <station>
    <id>GHCND:USC00098351</id>
    <displayName>STILLMORE, GA US</displayName>
    <minDate>1901-04-15</minDate>
    <maxDate>2002-01-31</maxDate>
    <latitude>32.44139</latitude>
    <longitude>-82.21806</longitude>
    <elevation>79.2</elevation>
    <locationLabels>
      <type>CNTRY</type>
      <id>FIPS:US</id>
      <displayName>United States</displayName>
    </locationLabels>
    <coverage>0.6543</coverage>
  </station>
  <station>
    <id>GHCND:US1MNWG0009</id>
    <displayName>STILLWATER 0.2 E, MN US</displayName>
    <minDate>2010-03-01</minDate>
    <maxDate>2012-11-12</maxDate>
    <latitude>45.0561</latitude>
    <longitude>-92.8243</longitude>
    <elevation>261.5</elevation>
    <locationLabels>
      <type>CNTRY</type>
      <id>FIPS:US</id>
      <displayName>United States</displayName>
    </locationLabels>
    <coverage>0.249</coverage>
  </station>
  <station>
    <id>GHCND:USC00218037</id>
    <displayName>STILLWATER 1 SE, MN US</displayName>
    <minDate>1904-11-09</minDate>
    <maxDate>2012-04-16</maxDate>
    <latitude>45.0417</latitude>
    <longitude>-92.7975</longitude>
    <elevation>216.4</elevation>
    <locationLabels>
      <type>CNTRY</type>
      <id>FIPS:US</id>
      <displayName>United States</displayName>
    </locationLabels>
    <coverage>0.6793</coverage>
  </station>
  <station>
    <id>GHCND:US1MNWG0020</id>
    <displayName>STILLWATER 1.4 NE, MN US</displayName>
    <minDate>2011-05-21</minDate>
    <maxDate>2013-01-16</maxDate>
    <latitude>45.0707</latitude>
    <longitude>-92.8085</longitude>
    <elevation>263.7</elevation>
    <locationLabels>
      <type>CNTRY</type>
      <id>FIPS:US</id>
      <displayName>United States</displayName>
    </locationLabels>
    <coverage>0.8122</coverage>
  </station>
  <station>
    <id>GHCND:USC00218039</id>
    <displayName>STILLWATER 2 SW, MN US</displayName>
    <minDate>2006-07-01</minDate>
    <maxDate>2013-01-15</maxDate>
    <latitude>45.0455</latitude>
    <longitude>-92.8522</longitude>
    <elevation>273.7</elevation>
    <locationLabels>
      <type>CNTRY</type>
      <id>FIPS:US</id>
      <displayName>United States</displayName>
    </locationLabels>
    <coverage>0.9632</coverage>
  </station>
  <station>
    <id>GHCND:USW00053926</id>
    <displayName>STILLWATER 2 W, OK US</displayName>
    <minDate>2002-03-13</minDate>
    <maxDate>2013-01-15</maxDate>
    <latitude>36.1181</latitude>
    <longitude>-97.0914</longitude>
    <elevation>271.3</elevation>
    <locationLabels>
      <type>CNTRY</type>
      <id>FIPS:US</id>
      <displayName>United States</displayName>
    </locationLabels>
    <coverage>0.9934</coverage>
  </station>
  <station>
    <id>GHCND:USC00348501</id>
    <displayName>STILLWATER 2 W, OK US</displayName>
    <minDate>1893-01-01</minDate>
    <maxDate>2013-01-16</maxDate>
    <latitude>36.1175</latitude>
    <longitude>-97.095</longitude>
    <elevation>272.8</elevation>
    <locationLabels>
      <type>CNTRY</type>
      <id>FIPS:US</id>
      <displayName>United States</displayName>
    </locationLabels>
    <coverage>0.9665</coverage>
  </station>
  <station>
    <id>GHCND:US1OKPY0006</id>
    <displayName>STILLWATER 2.7 SSE, OK US</displayName>
    <minDate>2009-07-28</minDate>
    <maxDate>2013-01-11</maxDate>
    <latitude>36.0935</latitude>
    <longitude>-97.0593</longitude>
    <elevation>269.4</elevation>
    <locationLabels>
      <type>CNTRY</type>
      <id>FIPS:US</id>
      <displayName>United States</displayName>
    </locationLabels>
    <coverage>0.7302</coverage>
  </station>
  <station>
    <id>GHCND:USW00053927</id>
    <displayName>STILLWATER 5 WNW, OK US</displayName>
    <minDate>2002-03-13</minDate>
    <maxDate>2013-01-15</maxDate>
    <latitude>36.1346</latitude>
    <longitude>-97.1082</longitude>
    <elevation>270.7</elevation>
    <locationLabels>
      <type>CNTRY</type>
      <id>FIPS:US</id>
      <displayName>United States</displayName>
    </locationLabels>
    <coverage>0.9932</coverage>
  </station>
  <station>
    <id>GHCND:USS0005J12S</id>
    <displayName>STILLWATER CREEK, CO US</displayName>
    <minDate>1985-11-01</minDate>
    <maxDate>2013-01-13</maxDate>
    <latitude>40.2333</latitude>
    <longitude>-105.9167</longitude>
    <elevation>2657.9</elevation>
    <locationLabels>
      <type>CNTRY</type>
      <id>FIPS:US</id>
      <displayName>United States</displayName>
    </locationLabels>
    <coverage>0.9641</coverage>
  </station>
  <station>
    <id>GHCND:USC00348499</id>
    <displayName>STILLWATER MESONET, OK US</displayName>
    <minDate>2009-08-01</minDate>
    <maxDate>2012-12-15</maxDate>
    <latitude>36.12083</latitude>
    <longitude>-97.09528</longitude>
    <elevation>271.9</elevation>
    <locationLabels>
      <type>CNTRY</type>
      <id>FIPS:US</id>
      <displayName>United States</displayName>
    </locationLabels>
    <coverage>0.9359</coverage>
  </station>
  <station>
    <id>GHCND:USR0000MSTW</id>
    <displayName>STILLWATER MONTANA, MT US</displayName>
    <minDate>2002-07-02</minDate>
    <maxDate>2012-08-31</maxDate>
    <latitude>48.5394</latitude>
    <longitude>-114.5594</longitude>
    <elevation>949.8</elevation>
    <locationLabels>
      <type>CNTRY</type>
      <id>FIPS:US</id>
      <displayName>United States</displayName>
    </locationLabels>
    <coverage>0.8288</coverage>
  </station>
  <station>
    <id>GHCND:USW00003965</id>
    <displayName>STILLWATER REGIONAL AIRPORT, OK US</displayName>
    <minDate>1996-11-01</minDate>
    <maxDate>2013-01-15</maxDate>
    <latitude>36.1624</latitude>
    <longitude>-97.0894</longitude>
    <elevation>299.9</elevation>
    <locationLabels>
      <type>CNTRY</type>
      <id>FIPS:US</id>
      <displayName>United States</displayName>
    </locationLabels>
    <coverage>0.9817</coverage>
  </station>
  <station>
    <id>GHCND:USC00308248</id>
    <displayName>STILLWATER RESERVOIR, NY US</displayName>
    <minDate>1925-06-01</minDate>
    <maxDate>2013-01-15</maxDate>
    <latitude>43.8999</latitude>
    <longitude>-75.0367</longitude>
    <elevation>515.1</elevation>
    <locationLabels>
      <type>CNTRY</type>
      <id>FIPS:US</id>
      <displayName>United States</displayName>
    </locationLabels>
    <coverage>0.93</coverage>
  </station>
  <station>
    <id>GHCND:USC00157711</id>
    <displayName>STILLWATER, KY US</displayName>
    <minDate>1941-12-01</minDate>
    <maxDate>1948-10-31</maxDate>
    <latitude>37.75</latitude>
    <longitude>-83.48333</longitude>
    <elevation>305.1</elevation>
    <locationLabels>
      <type>CNTRY</type>
      <id>FIPS:US</id>
      <displayName>United States</displayName>
    </locationLabels>
    <coverage>0.7349</coverage>
  </station>
  <station>
    <id>GHCND:USC00267835</id>
    <displayName>STILLWATER, NV US</displayName>
    <minDate>1887-10-01</minDate>
    <maxDate>1906-11-30</maxDate>
    <latitude>39.516667</latitude>
    <longitude>-118.55</longitude>
    <elevation>1187.2</elevation>
    <locationLabels>
      <type>CNTRY</type>
      <id>FIPS:US</id>
      <displayName>United States</displayName>
    </locationLabels>
    <coverage>0.0277</coverage>
  </station>
  <station>
    <id>GHCND:USC00348506</id>
    <displayName>STILWELL 5 NNW, OK US</displayName>
    <minDate>1948-10-02</minDate>
    <maxDate>2003-04-30</maxDate>
    <latitude>35.89528</latitude>
    <longitude>-94.64861</longitude>
    <elevation>304.8</elevation>
    <locationLabels>
      <type>CNTRY</type>
      <id>FIPS:US</id>
      <displayName>United States</displayName>
    </locationLabels>
    <coverage>0.9742</coverage>
  </station>
  <station>
    <id>GHCND:USC00147809</id>
    <displayName>STILWELL, KS US</displayName>
    <minDate>1939-09-20</minDate>
    <maxDate>2010-03-11</maxDate>
    <latitude>38.7695</latitude>
    <longitude>-94.6682</longitude>
    <elevation>335.3</elevation>
    <locationLabels>
      <type>CNTRY</type>
      <id>FIPS:US</id>
      <displayName>United States</displayName>
    </locationLabels>
    <coverage>0.8978</coverage>
  </station>
  <station>
    <id>GHCND:USC00348508</id>
    <displayName>STILWELL, OK US</displayName>
    <minDate>2011-10-04</minDate>
    <maxDate>2012-09-13</maxDate>
    <latitude>35.8119</latitude>
    <longitude>-94.6327</longitude>
    <elevation>328</elevation>
    <locationLabels>
      <type>CNTRY</type>
      <id>FIPS:US</id>
      <displayName>United States</displayName>
    </locationLabels>
    <coverage>0.7399</coverage>
  </station>
  <station>
    <id>GHCND:USC00298555</id>
    <displayName>STINKING LAKE, NM US</displayName>
    <minDate>1952-07-01</minDate>
    <maxDate>1956-11-30</maxDate>
    <latitude>36.46667</latitude>
    <longitude>-106.85</longitude>
    <elevation>2196.1</elevation>
    <locationLabels>
      <type>CNTRY</type>
      <id>FIPS:US</id>
      <displayName>United States</displayName>
    </locationLabels>
    <coverage>0.5737</coverage>
  </station>
  <station>
    <id>GHCND:USR0000MSTI</id>
    <displayName>STINKWATER CREEK MONTANA, MT US</displayName>
    <minDate>1987-10-13</minDate>
    <maxDate>2012-08-31</maxDate>
    <latitude>46.8536</latitude>
    <longitude>-113.3939</longitude>
    <elevation>1649</elevation>
    <locationLabels>
      <type>CNTRY</type>
      <id>FIPS:US</id>
      <displayName>United States</displayName>
    </locationLabels>
    <coverage>0.9265</coverage>
  </station>
  <station>
    <id>GHCND:USC00418648</id>
    <displayName>STINNETT 1, TX US</displayName>
    <minDate>1929-02-01</minDate>
    <maxDate>1944-02-29</maxDate>
    <latitude>35.816667</latitude>
    <longitude>-101.45</longitude>
    <elevation>967.7</elevation>
    <locationLabels>
      <type>CNTRY</type>
      <id>FIPS:US</id>
      <displayName>United States</displayName>
    </locationLabels>
    <coverage>0.1329</coverage>
  </station>
  <station>
    <id>GHCND:USC00418647</id>
    <displayName>STINNETT, TX US</displayName>
    <minDate>1929-02-01</minDate>
    <maxDate>1944-02-29</maxDate>
    <latitude>35.83333</latitude>
    <longitude>-101.45</longitude>
    <elevation>954</elevation>
    <locationLabels>
      <type>CNTRY</type>
      <id>FIPS:US</id>
      <displayName>United States</displayName>
    </locationLabels>
    <coverage>0.1257</coverage>
  </station>
  <station>
    <id>GHCND:USC00048544</id>
    <displayName>STIRLING CITY RANGER STATION, CA US</displayName>
    <minDate>1903-11-01</minDate>
    <maxDate>1966-08-31</maxDate>
    <latitude>39.9041</latitude>
    <longitude>-121.528</longitude>
    <elevation>1072.9</elevation>
    <locationLabels>
      <type>CNTRY</type>
      <id>FIPS:US</id>
      <displayName>United States</displayName>
    </locationLabels>
    <coverage>0.4102</coverage>
  </station>
  <station>
    <id>GHCND:US1MABE0003</id>
    <displayName>STOCKBRIDGE .2 NNE, MA US</displayName>
    <minDate>2010-02-03</minDate>
    <maxDate>2013-01-16</maxDate>
    <latitude>42.2898</latitude>
    <longitude>-73.3195</longitude>
    <elevation>253</elevation>
    <locationLabels>
      <type>CNTRY</type>
      <id>FIPS:US</id>
      <displayName>United States</displayName>
    </locationLabels>
    <coverage>0.6163</coverage>
  </station>
  <station>
    <id>GHCND:US1MIIH0028</id>
    <displayName>STOCKBRIDGE 0.2 NNW, MI US</displayName>
    <minDate>2012-03-25</minDate>
    <maxDate>2012-12-21</maxDate>
    <latitude>42.4535</latitude>
    <longitude>-84.1798</longitude>
    <elevation>284.7</elevation>
    <locationLabels>
      <type>CNTRY</type>
      <id>FIPS:US</id>
      <displayName>United States</displayName>
    </locationLabels>
    <coverage>0.8934</coverage>
  </station>
  <station>
    <id>GHCND:US1GAHY0009</id>
    <displayName>STOCKBRIDGE 3.1 E, GA US</displayName>
    <minDate>2008-12-31</minDate>
    <maxDate>2013-01-16</maxDate>
    <latitude>33.5422</latitude>
    <longitude>-84.1891</longitude>
    <elevation>243.8</elevation>
    <locationLabels>
      <type>CNTRY</type>
      <id>FIPS:US</id>
      <displayName>United States</displayName>
    </locationLabels>
    <coverage>0.9851</coverage>
  </station>
  <station>
    <id>GHCND:US1GAHY0006</id>
    <displayName>STOCKBRIDGE 4.0 NE, GA US</displayName>
    <minDate>2008-10-08</minDate>
    <maxDate>2010-12-16</maxDate>
    <latitude>33.588</latitude>
    <longitude>-84.1964</longitude>
    <elevation>257.3</elevation>
    <locationLabels>
      <type>CNTRY</type>
      <id>FIPS:US</id>
      <displayName>United States</displayName>
    </locationLabels>
    <coverage>0.29</coverage>
  </station>
  <station>
    <id>GHCND:US1GAHY0013</id>
    <displayName>STOCKBRIDGE 4.1 S, GA US</displayName>
    <minDate>2011-04-01</minDate>
    <maxDate>2013-01-14</maxDate>
    <latitude>33.4873</latitude>
    <longitude>-84.2326</longitude>
    <elevation>239.9</elevation>
    <locationLabels>
      <type>CNTRY</type>
      <id>FIPS:US</id>
      <displayName>United States</displayName>
    </locationLabels>
    <coverage>0.8382</coverage>
  </station>
  <station>
    <id>GHCND:US1GAHY0005</id>
    <displayName>STOCKBRIDGE 5.1 SSE, GA US</displayName>
    <minDate>2008-10-01</minDate>
    <maxDate>2013-01-16</maxDate>
    <latitude>33.4732</latitude>
    <longitude>-84.2256</longitude>
    <elevation>282.9</elevation>
    <locationLabels>
      <type>CNTRY</type>
      <id>FIPS:US</id>
      <displayName>United States</displayName>
    </locationLabels>
    <coverage>0.8866</coverage>
  </station>
  <station>
    <id>GHCND:US1MIIH0012</id>
    <displayName>STOCKBRIDGE 6.1 W, MI US</displayName>
    <minDate>2009-01-11</minDate>
    <maxDate>2012-01-23</maxDate>
    <latitude>42.4428</latitude>
    <longitude>-84.2972</longitude>
    <elevation>285.3</elevation>
    <locationLabels>
      <type>CNTRY</type>
      <id>FIPS:US</id>
      <displayName>United States</displayName>
    </locationLabels>
    <coverage>0.3051</coverage>
  </station>
  <station>
    <id>GHCND:USC00478190</id>
    <displayName>STOCKBRIDGE MUNSEE RES, WI US</displayName>
    <minDate>2003-12-01</minDate>
    <maxDate>2013-01-16</maxDate>
    <latitude>44.87</latitude>
    <longitude>-88.9044</longitude>
    <elevation>320</elevation>
    <locationLabels>
      <type>CNTRY</type>
      <id>FIPS:US</id>
      <displayName>United States</displayName>
    </locationLabels>
    <coverage>0.9382</coverage>
  </station>
  <station>
    <id>GHCND:USC00198181</id>
    <displayName>STOCKBRIDGE, MA US</displayName>
    <minDate>1929-12-01</minDate>
    <maxDate>1985-09-30</maxDate>
    <latitude>42.3</latitude>
    <longitude>-73.33333</longitude>
    <elevation>262.1</elevation>
    <locationLabels>
      <type>CNTRY</type>
      <id>FIPS:US</id>
      <displayName>United States</displayName>
    </locationLabels>
    <coverage>0.9257</coverage>
  </station>
  <station>
    <id>GHCND:USC00207912</id>
    <displayName>STOCKBRIDGE, MI US</displayName>
    <minDate>1893-01-01</minDate>
    <maxDate>1893-08-31</maxDate>
    <latitude>42.45111</latitude>
    <longitude>-84.18056</longitude>
    <elevation>287.1</elevation>
    <locationLabels>
      <type>CNTRY</type>
      <id>FIPS:US</id>
      <displayName>United States</displayName>
    </locationLabels>
    <coverage>0.6996</coverage>
  </station>
  <station>
    <id>GHCND:USC00418658</id>
    <displayName>STOCKDALE 6 N, TX US</displayName>
    <minDate>1940-12-01</minDate>
    <maxDate>2013-01-05</maxDate>
    <latitude>29.3258</latitude>
    <longitude>-97.9752</longitude>
    <elevation>161.5</elevation>
    <locationLabels>
      <type>CNTRY</type>
      <id>FIPS:US</id>
      <displayName>United States</displayName>
    </locationLabels>
    <coverage>0.5315</coverage>
  </station>
  <station>
    <id>GHCND:US1TXWO0026</id>
    <displayName>STOCKDALE 6.4 N, TX US</displayName>
    <minDate>2009-10-07</minDate>
    <maxDate>2012-12-16</maxDate>
    <latitude>29.3256</latitude>
    <longitude>-97.975</longitude>
    <elevation>161.8</elevation>
    <locationLabels>
      <type>CNTRY</type>
      <id>FIPS:US</id>
      <displayName>United States</displayName>
    </locationLabels>
    <coverage>0.3445</coverage>
  </station>
  <station>
    <id>GHCND:USC00458115</id>
    <displayName>STOCKDILL RANCH, WA US</displayName>
    <minDate>1909-07-01</minDate>
    <maxDate>1963-11-30</maxDate>
    <latitude>48.36667</latitude>
    <longitude>-120.33333</longitude>
    <elevation>670.9</elevation>
    <locationLabels>
      <type>CNTRY</type>
      <id>FIPS:US</id>
      <displayName>United States</displayName>
    </locationLabels>
    <coverage>0.9623</coverage>
  </station>
  <station>
    <id>GHCND:USC00258210</id>
    <displayName>STOCKHAM, NE US</displayName>
    <minDate>1896-07-01</minDate>
    <maxDate>1898-11-30</maxDate>
    <latitude>40.716667</latitude>
    <longitude>-97.95</longitude>
    <locationLabels>
      <type>CNTRY</type>
      <id>FIPS:US</id>
      <displayName>United States</displayName>
    </locationLabels>
    <coverage>0.7441</coverage>
  </station>
  <station>
    <id>GHCND:US1WIPP0002</id>
    <displayName>STOCKHOLM 3.0 NE, WI US</displayName>
    <minDate>2011-03-22</minDate>
    <maxDate>2013-01-16</maxDate>
    <latitude>44.5179</latitude>
    <longitude>-92.2237</longitude>
    <elevation>348.4</elevation>
    <locationLabels>
      <type>CNTRY</type>
      <id>FIPS:US</id>
      <displayName>United States</displayName>
    </locationLabels>
    <coverage>0.8006</coverage>
  </station>
  <station>
    <id>GHCND:USC00137955</id>
    <displayName>STOCKPORT, IA US</displayName>
    <minDate>1901-10-01</minDate>
    <maxDate>1948-02-29</maxDate>
    <latitude>40.83333</latitude>
    <longitude>-91.83333</longitude>
    <elevation>228.9</elevation>
    <locationLabels>
      <type>CNTRY</type>
      <id>FIPS:US</id>
      <displayName>United States</displayName>
    </locationLabels>
    <coverage>0.9586</coverage>
  </station>
  <station>
    <id>GHCND:US1MNWN0006</id>
    <displayName>STOCKTON 0.1 SSE, MN US</displayName>
    <minDate>2010-07-09</minDate>
    <maxDate>2012-11-09</maxDate>
    <latitude>44.0259</latitude>
    <longitude>-91.769</longitude>
    <elevation>229.8</elevation>
    <locationLabels>
      <type>CNTRY</type>
      <id>FIPS:US</id>
      <displayName>United States</displayName>
    </locationLabels>
    <coverage>0.3801</coverage>
  </station>
  <station>
    <id>GHCND:US1MOFSA039</id>
    <displayName>STOCKTON 0.2 NW, MO US</displayName>
    <minDate>2006-05-01</minDate>
    <maxDate>2013-01-16</maxDate>
    <latitude>37.6984</latitude>
    <longitude>-93.7986</longitude>
    <elevation>291.1</elevation>
    <locationLabels>
      <type>CNTRY</type>
      <id>FIPS:US</id>
      <displayName>United States</displayName>
    </locationLabels>
    <coverage>0.9976</coverage>
  </station>
  <station>
    <id>GHCND:US1UTTL0008</id>
    <displayName>STOCKTON 0.6 NW, UT US</displayName>
    <minDate>2009-12-06</minDate>
    <maxDate>2013-01-16</maxDate>
    <latitude>40.4582</latitude>
    <longitude>-112.3703</longitude>
    <elevation>1550.5</elevation>
    <locationLabels>
      <type>CNTRY</type>
      <id>FIPS:US</id>
      <displayName>United States</displayName>
    </locationLabels>
    <coverage>0.8954</coverage>
  </station>
  <station>
    <id>GHCND:US1CASJ0010</id>
    <displayName>STOCKTON 0.7 E, CA US</displayName>
    <minDate>2011-04-12</minDate>
    <maxDate>2013-01-10</maxDate>
    <latitude>37.9692</latitude>
    <longitude>-121.2934</longitude>
    <elevation>4.9</elevation>
    <locationLabels>
      <type>CNTRY</type>
      <id>FIPS:US</id>
      <displayName>United States</displayName>
    </locationLabels>
    <coverage>0.9125</coverage>
  </station>
  <station>
    <id>GHCND:USC00147832</id>
    <displayName>STOCKTON 1 E, KS US</displayName>
    <minDate>1936-07-01</minDate>
    <maxDate>2001-08-31</maxDate>
    <latitude>39.44528</latitude>
    <longitude>-99.24528</longitude>
    <elevation>539.8</elevation>
    <locationLabels>
      <type>CNTRY</type>
      <id>FIPS:US</id>
      <displayName>United States</displayName>
    </locationLabels>
    <coverage>0.9614</coverage>
  </station>
  <station>
    <id>GHCND:US1KSRO0006</id>
    <displayName>STOCKTON 10.4 WNW, KS US</displayName>
    <minDate>2011-03-31</minDate>
    <maxDate>2013-01-11</maxDate>
    <latitude>39.4666</latitude>
    <longitude>-99.4622</longitude>
    <elevation>596.8</elevation>
    <locationLabels>
      <type>CNTRY</type>
      <id>FIPS:US</id>
      <displayName>United States</displayName>
    </locationLabels>
    <coverage>0.196</coverage>
  </station>
  <station>
    <id>GHCND:USC00048557</id>
    <displayName>STOCKTON 2, CA US</displayName>
    <minDate>1893-01-01</minDate>
    <maxDate>1948-06-30</maxDate>
    <latitude>37.95</latitude>
    <longitude>-121.26667</longitude>
    <elevation>6.1</elevation>
    <locationLabels>
      <type>CNTRY</type>
      <id>FIPS:US</id>
      <displayName>United States</displayName>
    </locationLabels>
    <coverage>0.9783</coverage>
  </station>
  <station>
    <id>GHCND:US1CASJ0003</id>
    <displayName>STOCKTON 2.1 NW, CA US</displayName>
    <minDate>2008-10-17</minDate>
    <maxDate>2013-01-16</maxDate>
    <latitude>37.9912</latitude>
    <longitude>-121.3333</longitude>
    <elevation>2.1</elevation>
    <locationLabels>
      <type>CNTRY</type>
      <id>FIPS:US</id>
      <displayName>United States</displayName>
    </locationLabels>
    <coverage>0.9453</coverage>
  </station>
  <station>
    <id>GHCND:US1MOCD0002</id>
    <displayName>STOCKTON 2.5 NNE, MO US</displayName>
    <minDate>2006-06-02</minDate>
    <maxDate>2013-01-16</maxDate>
    <latitude>37.7322</latitude>
    <longitude>-93.7868</longitude>
    <elevation>257.9</elevation>
    <locationLabels>
      <type>CNTRY</type>
      <id>FIPS:US</id>
      <displayName>United States</displayName>
    </locationLabels>
    <coverage>0.8984</coverage>
  </station>
  <station>
    <id>GHCND:USC00118293</id>
    <displayName>STOCKTON 3 NNE, IL US</displayName>
    <minDate>1943-11-01</minDate>
    <maxDate>2013-01-15</maxDate>
    <latitude>42.4005</latitude>
    <longitude>-89.9958</longitude>
    <elevation>295.7</elevation>
    <locationLabels>
      <type>CNTRY</type>
      <id>FIPS:US</id>
      <displayName>United States</displayName>
    </locationLabels>
    <coverage>0.9896</coverage>
  </station>
  <station>
    <id>GHCND:US1CASJ0006</id>
    <displayName>STOCKTON 3.3 SE, CA US</displayName>
    <minDate>2008-10-01</minDate>
    <maxDate>2013-01-16</maxDate>
    <latitude>37.9417</latitude>
    <longitude>-121.2585</longitude>
    <elevation>7</elevation>
    <locationLabels>
      <type>CNTRY</type>
      <id>FIPS:US</id>
      <displayName>United States</displayName>
    </locationLabels>
    <coverage>0.9713</coverage>
  </station>
  <station>
    <id>GHCND:US1NJHN0022</id>
    <displayName>STOCKTON 3.8 NNW, NJ US</displayName>
    <minDate>2010-04-05</minDate>
    <maxDate>2013-01-16</maxDate>
    <latitude>40.4549</latitude>
    <longitude>-75.012</longitude>
    <elevation>157.3</elevation>
    <locationLabels>
      <type>CNTRY</type>
      <id>FIPS:US</id>
      <displayName>United States</displayName>
    </locationLabels>
    <coverage>0.7741</coverage>
  </station>
  <station>
    <id>GHCND:US1MOCD0016</id>
    <displayName>STOCKTON 4.0 ESE, MO US</displayName>
    <minDate>2012-02-22</minDate>
    <maxDate>2013-01-16</maxDate>
    <latitude>37.6784</latitude>
    <longitude>-93.7258</longitude>
    <elevation>269.4</elevation>
    <locationLabels>
      <type>CNTRY</type>
      <id>FIPS:US</id>
      <displayName>United States</displayName>
    </locationLabels>
    <coverage>0.5485</coverage>
  </station>
  <station>
    <id>GHCND:US1NJHN0002</id>
    <displayName>STOCKTON 4.4 NW, NJ US</displayName>
    <minDate>2008-03-01</minDate>
    <maxDate>2012-12-21</maxDate>
    <latitude>40.4547</latitude>
    <longitude>-75.0318</longitude>
    <elevation>143.6</elevation>
    <locationLabels>
      <type>CNTRY</type>
      <id>FIPS:US</id>
      <displayName>United States</displayName>
    </locationLabels>
    <coverage>0.2015</coverage>
  </station>
  <station>
    <id>GHCND:USC00048559</id>
    <displayName>STOCKTON 5 SSE, CA US</displayName>
    <minDate>1998-02-01</minDate>
    <maxDate>2001-12-31</maxDate>
    <latitude>37.89917</latitude>
    <longitude>-121.25139</longitude>
    <elevation>6.7</elevation>
    <locationLabels>
      <type>CNTRY</type>
      <id>FIPS:US</id>
      <displayName>United States</displayName>
    </locationLabels>
    <coverage>1</coverage>
  </station>
  <station>
    <id>GHCND:US1MOCD0004</id>
    <displayName>STOCKTON 5.6 S, MO US</displayName>
    <minDate>2006-12-21</minDate>
    <maxDate>2013-01-16</maxDate>
    <latitude>37.6156</latitude>
    <longitude>-93.8049</longitude>
    <elevation>320</elevation>
    <locationLabels>
      <type>CNTRY</type>
      <id>FIPS:US</id>
      <displayName>United States</displayName>
    </locationLabels>
    <coverage>0.689</coverage>
  </station>
  <station>
    <id>GHCND:US1CASJ0004</id>
    <displayName>STOCKTON 5.8 NNE, CA US</displayName>
    <minDate>2008-10-31</minDate>
    <maxDate>2013-01-16</maxDate>
    <latitude>38.0381</latitude>
    <longitude>-121.2547</longitude>
    <elevation>10.7</elevation>
    <locationLabels>
      <type>CNTRY</type>
      <id>FIPS:US</id>
      <displayName>United States</displayName>
    </locationLabels>
    <coverage>0.9734</coverage>
  </station>
  <station>
    <id>GHCND:USC00147836</id>
    <displayName>STOCKTON 9 N, KS US</displayName>
    <minDate>1952-05-01</minDate>
    <maxDate>1959-10-31</maxDate>
    <latitude>39.5628</latitude>
    <longitude>-99.2844</longitude>
    <elevation>555.3</elevation>
    <locationLabels>
      <type>CNTRY</type>
      <id>FIPS:US</id>
      <displayName>United States</displayName>
    </locationLabels>
    <coverage>0.5343</coverage>
  </station>
  <station>
    <id>GHCND:USC00238082</id>
    <displayName>STOCKTON DAM, MO US</displayName>
    <minDate>1970-07-01</minDate>
    <maxDate>2013-01-16</maxDate>
    <latitude>37.6966</latitude>
    <longitude>-93.7722</longitude>
    <elevation>266.1</elevation>
    <locationLabels>
      <type>CNTRY</type>
      <id>FIPS:US</id>
      <displayName>United States</displayName>
    </locationLabels>
    <coverage>0.9615</coverage>
  </station>
  <station>
    <id>GHCND:USC00048554</id>
    <displayName>STOCKTON DISPOSAL PLANT, CA US</displayName>
    <minDate>1948-07-01</minDate>
    <maxDate>1951-09-30</maxDate>
    <latitude>37.93333</latitude>
    <longitude>-121.33333</longitude>
    <elevation>3</elevation>
    <locationLabels>
      <type>CNTRY</type>
      <id>FIPS:US</id>
      <displayName>United States</displayName>
    </locationLabels>
    <coverage>0.9705</coverage>
  </station>
  <station>
    <id>GHCND:USC00048560</id>
    <displayName>STOCKTON FIRE STATION 4, CA US</displayName>
    <minDate>1906-03-03</minDate>
    <maxDate>2012-11-17</maxDate>
    <latitude>37.9994</latitude>
    <longitude>-121.3177</longitude>
    <elevation>3.7</elevation>
    <locationLabels>
      <type>CNTRY</type>
      <id>FIPS:US</id>
      <displayName>United States</displayName>
    </locationLabels>
    <coverage>0.8018</coverage>
  </station>
  <station>
    <id>GHCND:USW00023237</id>
    <displayName>STOCKTON METROPOLITAN AIRPORT, CA US</displayName>
    <minDate>1948-10-01</minDate>
    <maxDate>2013-01-15</maxDate>
    <latitude>37.8891</latitude>
    <longitude>-121.2258</longitude>
    <elevation>7.9</elevation>
    <locationLabels>
      <type>CNTRY</type>
      <id>FIPS:US</id>
      <displayName>United States</displayName>
    </locationLabels>
    <coverage>0.9992</coverage>
  </station>
  <station>
    <id>GHCND:USC00048562</id>
    <displayName>STOCKTON MOWRY BRIDG, CA US</displayName>
    <minDate>1955-05-01</minDate>
    <maxDate>1965-04-30</maxDate>
    <latitude>37.85</latitude>
    <longitude>-121.38333</longitude>
    <elevation>6.1</elevation>
    <locationLabels>
      <type>CNTRY</type>
      <id>FIPS:US</id>
      <displayName>United States</displayName>
    </locationLabels>
    <coverage>1</coverage>
  </station>
  <station>
    <id>GHCND:USC00258220</id>
    <displayName>STOCKVILLE 5 S, NE US</displayName>
    <minDate>1951-05-01</minDate>
    <maxDate>1952-12-31</maxDate>
    <latitude>40.46667</latitude>
    <longitude>-100.35</longitude>
    <elevation>719.9</elevation>
    <locationLabels>
      <type>CNTRY</type>
      <id>FIPS:US</id>
      <displayName>United States</displayName>
    </locationLabels>
    <coverage>0.8232</coverage>
  </station>
  <station>
    <id>GHCND:USC00258225</id>
    <displayName>STOCKVILLE 6 NNE, NE US</displayName>
    <minDate>1951-05-01</minDate>
    <maxDate>1954-08-31</maxDate>
    <latitude>40.61667</latitude>
    <longitude>-100.35</longitude>
    <elevation>762.9</elevation>
    <locationLabels>
      <type>CNTRY</type>
      <id>FIPS:US</id>
      <displayName>United States</displayName>
    </locationLabels>
    <coverage>0.8097</coverage>
  </station>
  <station>
    <id>GHCND:USC00258226</id>
    <displayName>STOCKVILLE 8 S, NE US</displayName>
    <minDate>1956-07-01</minDate>
    <maxDate>1957-09-30</maxDate>
    <latitude>40.43333</latitude>
    <longitude>-100.38333</longitude>
    <elevation>830</elevation>
    <locationLabels>
      <type>CNTRY</type>
      <id>FIPS:US</id>
      <displayName>United States</displayName>
    </locationLabels>
    <coverage>0.9956</coverage>
  </station>
  <station>
    <id>GHCND:USC00258215</id>
    <displayName>STOCKVILLE, NE US</displayName>
    <minDate>1947-08-01</minDate>
    <maxDate>2012-12-16</maxDate>
    <latitude>40.5247</latitude>
    <longitude>-100.3816</longitude>
    <elevation>746.8</elevation>
    <locationLabels>
      <type>CNTRY</type>
      <id>FIPS:US</id>
      <displayName>United States</displayName>
    </locationLabels>
    <coverage>0.9554</coverage>
  </station>
  <station>
    <id>GHCND:USC00278350</id>
    <displayName>STODDARD, NH US</displayName>
    <minDate>1944-10-15</minDate>
    <maxDate>1951-05-31</maxDate>
    <latitude>43.08333</latitude>
    <longitude>-72.11667</longitude>
    <elevation>427</elevation>
    <locationLabels>
      <type>CNTRY</type>
      <id>FIPS:US</id>
      <displayName>United States</displayName>
    </locationLabels>
    <coverage>0.9851</coverage>
  </station>
  <station>
    <id>GHCND:USC00267848</id>
    <displayName>STOFIEL, NV US</displayName>
    <minDate>1891-09-01</minDate>
    <maxDate>1896-12-31</maxDate>
    <latitude>41.5</latitude>
    <longitude>-115.333333</longitude>
    <elevation>2133.6</elevation>
    <locationLabels>
      <type>CNTRY</type>
      <id>FIPS:US</id>
      <displayName>United States</displayName>
    </locationLabels>
    <coverage>0.9661</coverage>
  </station>
  <station>
    <id>GHCND:US1NYOD0003</id>
    <displayName>STOKES CORNER 1.4 NE, NY US</displayName>
    <minDate>2006-10-01</minDate>
    <maxDate>2013-01-14</maxDate>
    <latitude>43.3167</latitude>
    <longitude>-75.4458</longitude>
    <elevation>311.5</elevation>
    <locationLabels>
      <type>CNTRY</type>
      <id>FIPS:US</id>
      <displayName>United States</displayName>
    </locationLabels>
    <coverage>0.1706</coverage>
  </station>
  <station>
    <id>GHCND:USC00267855</id>
    <displayName>STONE CABIN VALLEY, NV US</displayName>
    <minDate>1968-08-01</minDate>
    <maxDate>1971-07-31</maxDate>
    <latitude>38.15</latitude>
    <longitude>-116.58333</longitude>
    <elevation>1711.1</elevation>
    <locationLabels>
      <type>CNTRY</type>
      <id>FIPS:US</id>
      <displayName>United States</displayName>
    </locationLabels>
    <coverage>0.5763</coverage>
  </station>
  <station>
    <id>GHCND:USC00518710</id>
    <displayName>STONE CORRAL 115, HI US</displayName>
    <minDate>1949-10-01</minDate>
    <maxDate>1963-04-30</maxDate>
    <latitude>19.95</latitude>
    <longitude>-155.41667</longitude>
    <elevation>1598.1</elevation>
    <locationLabels>
      <type>CNTRY</type>
      <id>FIPS:US</id>
      <displayName>United States</displayName>
    </locationLabels>
    <coverage>0.3929</coverage>
  </station>
  <station>
    <id>GHCND:US1NJCM0016</id>
    <displayName>STONE HARBOR 1.6 NNW, NJ US</displayName>
    <minDate>2010-02-10</minDate>
    <maxDate>2013-01-16</maxDate>
    <latitude>39.0647</latitude>
    <longitude>-74.7793</longitude>
    <elevation>0.3</elevation>
    <locationLabels>
      <type>CNTRY</type>
      <id>FIPS:US</id>
      <displayName>United States</displayName>
    </locationLabels>
    <coverage>0.6996</coverage>
  </station>
  <station>
    <id>GHCND:US1WIWB0002</id>
    <displayName>STONE LAKE 2.0 NW, WI US</displayName>
    <minDate>2008-04-04</minDate>
    <maxDate>2013-01-16</maxDate>
    <latitude>45.8596</latitude>
    <longitude>-91.5771</longitude>
    <elevation>404.8</elevation>
    <locationLabels>
      <type>CNTRY</type>
      <id>FIPS:US</id>
      <displayName>United States</displayName>
    </locationLabels>
    <coverage>0.976</coverage>
  </station>
  <station>
    <id>GHCND:USC00408659</id>
    <displayName>STONE MOUNTAIN, TN US</displayName>
    <minDate>1949-01-01</minDate>
    <maxDate>1962-03-31</maxDate>
    <latitude>36.2</latitude>
    <longitude>-82.23333</longitude>
    <elevation>790</elevation>
    <locationLabels>
      <type>CNTRY</type>
      <id>FIPS:US</id>
      <displayName>United States</displayName>
    </locationLabels>
    <coverage>0.9965</coverage>
  </station>
  <station>
    <id>GHCND:US1NYUL0008</id>
    <displayName>STONE RIDGE 4.9 NNW, NY US</displayName>
    <minDate>2010-04-23</minDate>
    <maxDate>2013-01-16</maxDate>
    <latitude>41.9162</latitude>
    <longitude>-74.1832</longitude>
    <elevation>154.8</elevation>
    <locationLabels>
      <type>CNTRY</type>
      <id>FIPS:US</id>
      <displayName>United States</displayName>
    </locationLabels>
    <coverage>0.823</coverage>
  </station>
  <station>
    <id>GHCND:USC00108765</id>
    <displayName>STONE, ID US</displayName>
    <minDate>1908-05-22</minDate>
    <maxDate>1911-05-31</maxDate>
    <latitude>42.05</latitude>
    <longitude>-112.65</longitude>
    <elevation>1377.7</elevation>
    <locationLabels>
      <type>CNTRY</type>
      <id>FIPS:US</id>
      <displayName>United States</displayName>
    </locationLabels>
    <coverage>0.8851</coverage>
  </station>
  <station>
    <id>GHCND:US1NCRG0004</id>
    <displayName>STONEVILLE 3.9 SSE, NC US</displayName>
    <minDate>2010-05-14</minDate>
    <maxDate>2010-11-24</maxDate>
    <latitude>36.4101</latitude>
    <longitude>-79.8922</longitude>
    <elevation>182.3</elevation>
    <locationLabels>
      <type>CNTRY</type>
      <id>FIPS:US</id>
      <displayName>United States</displayName>
    </locationLabels>
    <coverage>0.9538</coverage>
  </station>
  <station>
    <id>GHCND:USC00228445</id>
    <displayName>STONEVILLE EXPERIMENTAL STATION, MS US</displayName>
    <minDate>1914-07-01</minDate>
    <maxDate>2013-01-09</maxDate>
    <latitude>33.4311</latitude>
    <longitude>-90.9108</longitude>
    <elevation>38.7</elevation>
    <locationLabels>
      <type>CNTRY</type>
      <id>FIPS:US</id>
      <displayName>United States</displayName>
    </locationLabels>
    <coverage>0.9626</coverage>
  </station>
  <station>
    <id>GHCND:US1TXGS0015</id>
    <displayName>STONEWALL 2.3 ENE, TX US</displayName>
    <minDate>2009-01-01</minDate>
    <maxDate>2013-01-09</maxDate>
    <latitude>30.2375</latitude>
    <longitude>-98.6258</longitude>
    <elevation>432.8</elevation>
    <locationLabels>
      <type>CNTRY</type>
      <id>FIPS:US</id>
      <displayName>United States</displayName>
    </locationLabels>
    <coverage>0.9823</coverage>
  </station>
  <station>
    <id>GHCND:USC00468522</id>
    <displayName>STONEWALL JACKSON DAM, WV US</displayName>
    <minDate>1999-10-01</minDate>
    <maxDate>2013-01-16</maxDate>
    <latitude>39.0044</latitude>
    <longitude>-80.4744</longitude>
    <elevation>326.1</elevation>
    <locationLabels>
      <type>CNTRY</type>
      <id>FIPS:US</id>
      <displayName>United States</displayName>
    </locationLabels>
    <coverage>0.9829</coverage>
  </station>
  <station>
    <id>GHCND:USC00318370</id>
    <displayName>STONEWELL, NC US</displayName>
    <minDate>1922-10-01</minDate>
    <maxDate>1940-01-31</maxDate>
    <latitude>35.15</latitude>
    <longitude>-76.766667</longitude>
    <elevation>5.2</elevation>
    <locationLabels>
      <type>CNTRY</type>
      <id>FIPS:US</id>
      <displayName>United States</displayName>
    </locationLabels>
    <coverage>0.9935</coverage>
  </station>
  <station>
    <id>GHCND:USR0000ASTO</id>
    <displayName>STONEY ALASKA, AK US</displayName>
    <minDate>1992-06-23</minDate>
    <maxDate>2012-08-30</maxDate>
    <latitude>61.0008</latitude>
    <longitude>-153.8958</longitude>
    <elevation>381</elevation>
    <locationLabels>
      <type>CNTRY</type>
      <id>FIPS:US</id>
      <displayName>United States</displayName>
    </locationLabels>
    <coverage>0.7929</coverage>
  </station>
  <station>
    <id>GHCND:USR0000ASTR</id>
    <displayName>STONEY RIVER ALASKA, AK US</displayName>
    <minDate>1990-09-24</minDate>
    <maxDate>2011-05-10</maxDate>
    <latitude>61.6467</latitude>
    <longitude>-156.4333</longitude>
    <elevation>80.8</elevation>
    <locationLabels>
      <type>CNTRY</type>
      <id>FIPS:US</id>
      <displayName>United States</displayName>
    </locationLabels>
    <coverage>0.9088</coverage>
  </station>
  <station>
    <id>GHCND:US1COBA0014</id>
    <displayName>STONINGTON 1.6 ENE, CO US</displayName>
    <minDate>2006-08-22</minDate>
    <maxDate>2010-10-22</maxDate>
    <latitude>37.3052</latitude>
    <longitude>-102.151</longitude>
    <elevation>1147.9</elevation>
    <locationLabels>
      <type>CNTRY</type>
      <id>FIPS:US</id>
      <displayName>United States</displayName>
    </locationLabels>
    <coverage>0.1142</coverage>
  </station>
  <station>
    <id>GHCND:USC00057992</id>
    <displayName>STONINGTON, CO US</displayName>
    <minDate>1941-01-01</minDate>
    <maxDate>1999-07-31</maxDate>
    <latitude>37.29306</latitude>
    <longitude>-102.18639</longitude>
    <elevation>1158.8</elevation>
    <locationLabels>
      <type>CNTRY</type>
      <id>FIPS:US</id>
      <displayName>United States</displayName>
    </locationLabels>
    <coverage>0.9602</coverage>
  </station>
  <station>
    <id>GHCND:USC00228460</id>
    <displayName>STONINGTON, MS US</displayName>
    <minDate>1893-07-05</minDate>
    <maxDate>1908-01-31</maxDate>
    <latitude>31.76667</latitude>
    <longitude>-91.01667</longitude>
    <elevation>57.9</elevation>
    <locationLabels>
      <type>CNTRY</type>
      <id>FIPS:US</id>
      <displayName>United States</displayName>
    </locationLabels>
    <coverage>0.4341</coverage>
  </station>
  <station>
    <id>GHCND:USC00198218</id>
    <displayName>STONY BROOK, MA US</displayName>
    <minDate>1929-08-01</minDate>
    <maxDate>1934-01-31</maxDate>
    <latitude>42.366667</latitude>
    <longitude>-71.266667</longitude>
    <elevation>17.7</elevation>
    <locationLabels>
      <type>CNTRY</type>
      <id>FIPS:US</id>
      <displayName>United States</displayName>
    </locationLabels>
    <coverage>0.696</coverage>
  </station>
  <station>
    <id>GHCND:USC00448129</id>
    <displayName>STONY CREEK 2 N, VA US</displayName>
    <minDate>1948-08-01</minDate>
    <maxDate>2013-01-15</maxDate>
    <latitude>36.9742</latitude>
    <longitude>-77.4041</longitude>
    <elevation>32</elevation>
    <locationLabels>
      <type>CNTRY</type>
      <id>FIPS:US</id>
      <displayName>United States</displayName>
    </locationLabels>
    <coverage>0.705</coverage>
  </station>
  <station>
    <id>GHCND:USC00048587</id>
    <displayName>STONY GORGE RESERVOIR, CA US</displayName>
    <minDate>1926-11-01</minDate>
    <maxDate>2013-01-16</maxDate>
    <latitude>39.5861</latitude>
    <longitude>-122.5341</longitude>
    <elevation>243.8</elevation>
    <locationLabels>
      <type>CNTRY</type>
      <id>FIPS:US</id>
      <displayName>United States</displayName>
    </locationLabels>
    <coverage>0.9846</coverage>
  </station>
  <station>
    <id>GHCND:USC00468538</id>
    <displayName>STONY RIVER DAM 2, WV US</displayName>
    <minDate>1972-06-01</minDate>
    <maxDate>1972-12-31</maxDate>
    <latitude>39.16667</latitude>
    <longitude>-79.28333</longitude>
    <elevation>990.9</elevation>
    <locationLabels>
      <type>CNTRY</type>
      <id>FIPS:US</id>
      <displayName>United States</displayName>
    </locationLabels>
    <coverage>0.9299</coverage>
  </station>
</stationCollection>
