<?xml version="1.0" encoding="UTF-8" standalone="yes"?>
<stationCollection totalCount="46020" pageCount="461" pageSize="100" page="85">
  <station>
    <id>GHCND:US1MECM0073</id>
    <displayName>CLIFF ISLAND 0.2 E, ME US</displayName>
    <minDate>2010-11-18</minDate>
    <maxDate>2013-01-16</maxDate>
    <latitude>43.6967</latitude>
    <longitude>-70.104</longitude>
    <elevation>9.4</elevation>
    <locationLabels>
      <type>CNTRY</type>
      <id>FIPS:US</id>
      <displayName>United States</displayName>
    </locationLabels>
    <coverage>0.3464</coverage>
  </station>
  <station>
    <id>GHCND:USR0000WCLI</id>
    <displayName>CLIFF RIDGE WASHINGTON, WA US</displayName>
    <minDate>1985-06-24</minDate>
    <maxDate>1993-10-14</maxDate>
    <latitude>48.4167</latitude>
    <longitude>-117.6833</longitude>
    <elevation>1181.1</elevation>
    <locationLabels>
      <type>CNTRY</type>
      <id>FIPS:US</id>
      <displayName>United States</displayName>
    </locationLabels>
    <coverage>0.9753</coverage>
  </station>
  <station>
    <id>GHCND:USC00291901</id>
    <displayName>CLIFF, NM US</displayName>
    <minDate>1894-07-01</minDate>
    <maxDate>1946-10-31</maxDate>
    <latitude>32.98333</latitude>
    <longitude>-108.63333</longitude>
    <elevation>1402.1</elevation>
    <locationLabels>
      <type>CNTRY</type>
      <id>FIPS:US</id>
      <displayName>United States</displayName>
    </locationLabels>
    <coverage>0.6073</coverage>
  </station>
  <station>
    <id>GHCND:USC00351664</id>
    <displayName>CLIFF, OR US</displayName>
    <minDate>1907-08-19</minDate>
    <maxDate>1916-12-31</maxDate>
    <latitude>43.366667</latitude>
    <longitude>-120.45</longitude>
    <elevation>1310.6</elevation>
    <locationLabels>
      <type>CNTRY</type>
      <id>FIPS:US</id>
      <displayName>United States</displayName>
    </locationLabels>
    <coverage>0.9912</coverage>
  </station>
  <station>
    <id>GHCND:USC00101898</id>
    <displayName>CLIFFS, ID US</displayName>
    <minDate>1954-12-14</minDate>
    <maxDate>1958-06-30</maxDate>
    <latitude>42.66667</latitude>
    <longitude>-117</longitude>
    <elevation>1585.9</elevation>
    <locationLabels>
      <type>CNTRY</type>
      <id>FIPS:US</id>
      <displayName>United States</displayName>
    </locationLabels>
    <coverage>0.9444</coverage>
  </station>
  <station>
    <id>GHCND:US1WVMS0002</id>
    <displayName>CLIFTON 0.4 E, WV US</displayName>
    <minDate>2011-03-04</minDate>
    <maxDate>2011-11-01</maxDate>
    <latitude>39.003</latitude>
    <longitude>-82.0349</longitude>
    <elevation>250.9</elevation>
    <locationLabels>
      <type>CNTRY</type>
      <id>FIPS:US</id>
      <displayName>United States</displayName>
    </locationLabels>
    <coverage>0.8272</coverage>
  </station>
  <station>
    <id>GHCND:US1COME0008</id>
    <displayName>CLIFTON 1.4 SSE, CO US</displayName>
    <minDate>2003-02-15</minDate>
    <maxDate>2008-05-10</maxDate>
    <latitude>39.0724</latitude>
    <longitude>-108.4435</longitude>
    <elevation>1417.3</elevation>
    <locationLabels>
      <type>CNTRY</type>
      <id>FIPS:US</id>
      <displayName>United States</displayName>
    </locationLabels>
    <coverage>0.6396</coverage>
  </station>
  <station>
    <id>GHCND:USC00411823</id>
    <displayName>CLIFTON 10 E, TX US</displayName>
    <minDate>1911-03-01</minDate>
    <maxDate>1975-07-31</maxDate>
    <latitude>31.8</latitude>
    <longitude>-97.43333</longitude>
    <elevation>203.9</elevation>
    <locationLabels>
      <type>CNTRY</type>
      <id>FIPS:US</id>
      <displayName>United States</displayName>
    </locationLabels>
    <coverage>0.9933</coverage>
  </station>
  <station>
    <id>GHCND:USC00411824</id>
    <displayName>CLIFTON 2, TX US</displayName>
    <minDate>1992-01-01</minDate>
    <maxDate>1994-10-31</maxDate>
    <latitude>31.78333</latitude>
    <longitude>-97.58333</longitude>
    <elevation>233.2</elevation>
    <locationLabels>
      <type>CNTRY</type>
      <id>FIPS:US</id>
      <displayName>United States</displayName>
    </locationLabels>
    <coverage>1</coverage>
  </station>
  <station>
    <id>GHCND:US1TNHN0003</id>
    <displayName>CLIFTON 4.3 WNW, TN US</displayName>
    <minDate>2007-07-23</minDate>
    <maxDate>2013-01-16</maxDate>
    <latitude>35.4</latitude>
    <longitude>-88.0655</longitude>
    <elevation>125</elevation>
    <locationLabels>
      <type>CNTRY</type>
      <id>FIPS:US</id>
      <displayName>United States</displayName>
    </locationLabels>
    <coverage>0.8419</coverage>
  </station>
  <station>
    <id>GHCND:USC00231704</id>
    <displayName>CLIFTON CITY, MO US</displayName>
    <minDate>1948-07-01</minDate>
    <maxDate>1996-12-31</maxDate>
    <latitude>38.75</latitude>
    <longitude>-93.01667</longitude>
    <elevation>222.5</elevation>
    <locationLabels>
      <type>CNTRY</type>
      <id>FIPS:US</id>
      <displayName>United States</displayName>
    </locationLabels>
    <coverage>0.9888</coverage>
  </station>
  <station>
    <id>GHCND:USC00441801</id>
    <displayName>CLIFTON FORGE 2 NW, VA US</displayName>
    <minDate>1896-08-06</minDate>
    <maxDate>1983-10-31</maxDate>
    <latitude>37.85</latitude>
    <longitude>-79.83333</longitude>
    <elevation>426.7</elevation>
    <locationLabels>
      <type>CNTRY</type>
      <id>FIPS:US</id>
      <displayName>United States</displayName>
    </locationLabels>
    <coverage>0.5717</coverage>
  </station>
  <station>
    <id>GHCND:US1MORN0006</id>
    <displayName>CLIFTON HILL 1.2 SSE, MO US</displayName>
    <minDate>2008-01-10</minDate>
    <maxDate>2012-12-31</maxDate>
    <latitude>39.4224</latitude>
    <longitude>-92.6588</longitude>
    <elevation>202.1</elevation>
    <locationLabels>
      <type>CNTRY</type>
      <id>FIPS:US</id>
      <displayName>United States</displayName>
    </locationLabels>
    <coverage>0.6298</coverage>
  </station>
  <station>
    <id>GHCND:USC00231708</id>
    <displayName>CLIFTON HILL, MO US</displayName>
    <minDate>1902-06-01</minDate>
    <maxDate>1946-04-30</maxDate>
    <latitude>39.45</latitude>
    <longitude>-92.66667</longitude>
    <elevation>223.1</elevation>
    <locationLabels>
      <type>CNTRY</type>
      <id>FIPS:US</id>
      <displayName>United States</displayName>
    </locationLabels>
    <coverage>0.7407</coverage>
  </station>
  <station>
    <id>GHCND:USC00401824</id>
    <displayName>CLIFTON JUNCTION, TN US</displayName>
    <minDate>1949-01-01</minDate>
    <maxDate>1962-03-31</maxDate>
    <latitude>35.31667</latitude>
    <longitude>-87.91667</longitude>
    <elevation>143</elevation>
    <locationLabels>
      <type>CNTRY</type>
      <id>FIPS:US</id>
      <displayName>United States</displayName>
    </locationLabels>
    <coverage>0.9975</coverage>
  </station>
  <station>
    <id>GHCND:USC00021849</id>
    <displayName>CLIFTON, AZ US</displayName>
    <minDate>1893-01-01</minDate>
    <maxDate>2012-11-24</maxDate>
    <latitude>33.0561</latitude>
    <longitude>-109.3072</longitude>
    <elevation>1072.9</elevation>
    <locationLabels>
      <type>CNTRY</type>
      <id>FIPS:US</id>
      <displayName>United States</displayName>
    </locationLabels>
    <coverage>0.9582</coverage>
  </station>
  <station>
    <id>GHCND:USC00141593</id>
    <displayName>CLIFTON, KS US</displayName>
    <minDate>1931-04-01</minDate>
    <maxDate>2013-01-11</maxDate>
    <latitude>39.5643</latitude>
    <longitude>-97.2877</longitude>
    <elevation>388.9</elevation>
    <locationLabels>
      <type>CNTRY</type>
      <id>FIPS:US</id>
      <displayName>United States</displayName>
    </locationLabels>
    <coverage>0.9543</coverage>
  </station>
  <station>
    <id>GHCND:USC00121615</id>
    <displayName>CLIFTY CREEK, IN US</displayName>
    <minDate>2011-01-01</minDate>
    <maxDate>2013-01-16</maxDate>
    <latitude>38.73944</latitude>
    <longitude>-85.42139</longitude>
    <elevation>143.9</elevation>
    <locationLabels>
      <type>CNTRY</type>
      <id>FIPS:US</id>
      <displayName>United States</displayName>
    </locationLabels>
    <coverage>0.9639</coverage>
  </station>
  <station>
    <id>GHCND:USC00231709</id>
    <displayName>CLIMAX SPRINGS, MO US</displayName>
    <minDate>1973-09-01</minDate>
    <maxDate>1981-12-31</maxDate>
    <latitude>38.1</latitude>
    <longitude>-93.05</longitude>
    <elevation>305.1</elevation>
    <locationLabels>
      <type>CNTRY</type>
      <id>FIPS:US</id>
      <displayName>United States</displayName>
    </locationLabels>
    <coverage>0.9967</coverage>
  </station>
  <station>
    <id>GHCND:USC00051660</id>
    <displayName>CLIMAX, CO US</displayName>
    <minDate>1893-01-01</minDate>
    <maxDate>2013-01-16</maxDate>
    <latitude>39.3671</latitude>
    <longitude>-106.1898</longitude>
    <elevation>3442.4</elevation>
    <locationLabels>
      <type>CNTRY</type>
      <id>FIPS:US</id>
      <displayName>United States</displayName>
    </locationLabels>
    <coverage>0.5478</coverage>
  </station>
  <station>
    <id>GHCND:USC00141602</id>
    <displayName>CLIMAX, KS US</displayName>
    <minDate>1948-08-01</minDate>
    <maxDate>1954-06-30</maxDate>
    <latitude>37.71667</latitude>
    <longitude>-96.23333</longitude>
    <elevation>317</elevation>
    <locationLabels>
      <type>CNTRY</type>
      <id>FIPS:US</id>
      <displayName>United States</displayName>
    </locationLabels>
    <coverage>0.9731</coverage>
  </station>
  <station>
    <id>GHCND:USC00201629</id>
    <displayName>CLIMAX, MI US</displayName>
    <minDate>1893-08-01</minDate>
    <maxDate>1895-10-31</maxDate>
    <latitude>42.25</latitude>
    <longitude>-85.3</longitude>
    <locationLabels>
      <type>CNTRY</type>
      <id>FIPS:US</id>
      <displayName>United States</displayName>
    </locationLabels>
    <coverage>0.4854</coverage>
  </station>
  <station>
    <id>GHCND:USC00441808</id>
    <displayName>CLINCHCO, VA US</displayName>
    <minDate>1951-09-01</minDate>
    <maxDate>1974-06-30</maxDate>
    <latitude>37.16667</latitude>
    <longitude>-82.31667</longitude>
    <elevation>467</elevation>
    <locationLabels>
      <type>CNTRY</type>
      <id>FIPS:US</id>
      <displayName>United States</displayName>
    </locationLabels>
    <coverage>0.9688</coverage>
  </station>
  <station>
    <id>GHCND:USC00441816</id>
    <displayName>CLINCHPORT, VA US</displayName>
    <minDate>1946-01-01</minDate>
    <maxDate>1962-03-31</maxDate>
    <latitude>36.66667</latitude>
    <longitude>-82.75</longitude>
    <elevation>384</elevation>
    <locationLabels>
      <type>CNTRY</type>
      <id>FIPS:US</id>
      <displayName>United States</displayName>
    </locationLabels>
    <coverage>0.9835</coverage>
  </station>
  <station>
    <id>GHCND:USC00351667</id>
    <displayName>CLINE BRIDGE, OR US</displayName>
    <minDate>1943-12-01</minDate>
    <maxDate>1944-12-31</maxDate>
    <latitude>45.066667</latitude>
    <longitude>-122.833333</longitude>
    <elevation>48.8</elevation>
    <locationLabels>
      <type>CNTRY</type>
      <id>FIPS:US</id>
      <displayName>United States</displayName>
    </locationLabels>
    <coverage>0.9496</coverage>
  </station>
  <station>
    <id>GHCND:USC00291918</id>
    <displayName>CLINES CORNERS 7 SE, NM US</displayName>
    <minDate>1968-12-10</minDate>
    <maxDate>2012-05-31</maxDate>
    <latitude>34.9319</latitude>
    <longitude>-105.5872</longitude>
    <elevation>2110.4</elevation>
    <locationLabels>
      <type>CNTRY</type>
      <id>FIPS:US</id>
      <displayName>United States</displayName>
    </locationLabels>
    <coverage>0.8398</coverage>
  </station>
  <station>
    <id>GHCND:USC00291913</id>
    <displayName>CLINES CORNERS, NM US</displayName>
    <minDate>1959-07-01</minDate>
    <maxDate>1968-11-30</maxDate>
    <latitude>35.05</latitude>
    <longitude>-105.68333</longitude>
    <elevation>2196.1</elevation>
    <locationLabels>
      <type>CNTRY</type>
      <id>FIPS:US</id>
      <displayName>United States</displayName>
    </locationLabels>
    <coverage>0.8399</coverage>
  </station>
  <station>
    <id>GHCND:USW00003027</id>
    <displayName>CLINES CORNERS, NM US</displayName>
    <minDate>1998-05-25</minDate>
    <maxDate>2013-01-14</maxDate>
    <latitude>35.00278</latitude>
    <longitude>-105.66278</longitude>
    <elevation>2159.8</elevation>
    <locationLabels>
      <type>CNTRY</type>
      <id>FIPS:US</id>
      <displayName>United States</displayName>
    </locationLabels>
    <coverage>0.9897</coverage>
  </station>
  <station>
    <id>GHCND:USC00311869</id>
    <displayName>CLINGMANS DOME, NC US</displayName>
    <minDate>1948-09-01</minDate>
    <maxDate>1962-03-31</maxDate>
    <latitude>35.55</latitude>
    <longitude>-83.5</longitude>
    <elevation>1905.9</elevation>
    <locationLabels>
      <type>CNTRY</type>
      <id>FIPS:US</id>
      <displayName>United States</displayName>
    </locationLabels>
    <coverage>0.9468</coverage>
  </station>
  <station>
    <id>GHCND:US1TXEP0015</id>
    <displayName>CLINT 0.2 S, TX US</displayName>
    <minDate>2008-01-18</minDate>
    <maxDate>2009-08-23</maxDate>
    <latitude>31.5871</latitude>
    <longitude>-106.2287</longitude>
    <elevation>1107.9</elevation>
    <locationLabels>
      <type>CNTRY</type>
      <id>FIPS:US</id>
      <displayName>United States</displayName>
    </locationLabels>
    <coverage>0.2003</coverage>
  </station>
  <station>
    <id>GHCND:US1TXEP0020</id>
    <displayName>CLINT 2.0 SSE, TX US</displayName>
    <minDate>2008-01-18</minDate>
    <maxDate>2009-08-23</maxDate>
    <latitude>31.5651</latitude>
    <longitude>-106.2095</longitude>
    <elevation>1097.9</elevation>
    <locationLabels>
      <type>CNTRY</type>
      <id>FIPS:US</id>
      <displayName>United States</displayName>
    </locationLabels>
    <coverage>0.2021</coverage>
  </station>
  <station>
    <id>GHCND:US1TXEP0019</id>
    <displayName>CLINT 7.1 SSE, TX US</displayName>
    <minDate>2008-01-18</minDate>
    <maxDate>2009-07-24</maxDate>
    <latitude>31.4911</latitude>
    <longitude>-106.1932</longitude>
    <elevation>1097</elevation>
    <locationLabels>
      <type>CNTRY</type>
      <id>FIPS:US</id>
      <displayName>United States</displayName>
    </locationLabels>
    <coverage>0.2112</coverage>
  </station>
  <station>
    <id>GHCND:US1WIRK0002</id>
    <displayName>CLINTON 0.4 NNW, WI US</displayName>
    <minDate>2007-05-12</minDate>
    <maxDate>2007-12-03</maxDate>
    <latitude>42.562</latitude>
    <longitude>-88.8694</longitude>
    <elevation>296.9</elevation>
    <locationLabels>
      <type>CNTRY</type>
      <id>FIPS:US</id>
      <displayName>United States</displayName>
    </locationLabels>
    <coverage>0.9612</coverage>
  </station>
  <station>
    <id>GHCND:US1SCLR0010</id>
    <displayName>CLINTON 0.6 NW, SC US</displayName>
    <minDate>2010-06-18</minDate>
    <maxDate>2012-05-24</maxDate>
    <latitude>34.4832</latitude>
    <longitude>-81.8741</longitude>
    <elevation>199.9</elevation>
    <locationLabels>
      <type>CNTRY</type>
      <id>FIPS:US</id>
      <displayName>United States</displayName>
    </locationLabels>
    <coverage>0.1754</coverage>
  </station>
  <station>
    <id>GHCND:US1MSHD0004</id>
    <displayName>CLINTON 0.6 WNW, MS US</displayName>
    <minDate>2008-08-02</minDate>
    <maxDate>2013-01-16</maxDate>
    <latitude>32.3434</latitude>
    <longitude>-90.3434</longitude>
    <elevation>96.9</elevation>
    <locationLabels>
      <type>CNTRY</type>
      <id>FIPS:US</id>
      <displayName>United States</displayName>
    </locationLabels>
    <coverage>0.8478</coverage>
  </station>
  <station>
    <id>GHCND:US1INVR0001</id>
    <displayName>CLINTON 0.7 NW, IN US</displayName>
    <minDate>2012-04-04</minDate>
    <maxDate>2013-01-15</maxDate>
    <latitude>39.6698</latitude>
    <longitude>-87.4126</longitude>
    <elevation>152.4</elevation>
    <locationLabels>
      <type>CNTRY</type>
      <id>FIPS:US</id>
      <displayName>United States</displayName>
    </locationLabels>
    <coverage>0.8502</coverage>
  </station>
  <station>
    <id>GHCND:US1SCLR0013</id>
    <displayName>CLINTON 0.8 NW, SC US</displayName>
    <minDate>2010-08-13</minDate>
    <maxDate>2013-01-16</maxDate>
    <latitude>34.4857</latitude>
    <longitude>-81.8757</longitude>
    <elevation>199.6</elevation>
    <locationLabels>
      <type>CNTRY</type>
      <id>FIPS:US</id>
      <displayName>United States</displayName>
    </locationLabels>
    <coverage>0.7646</coverage>
  </station>
  <station>
    <id>GHCND:US1MOFSA083</id>
    <displayName>CLINTON 0.9 NNW, MO US</displayName>
    <minDate>2006-05-01</minDate>
    <maxDate>2013-01-16</maxDate>
    <latitude>38.3839</latitude>
    <longitude>-93.7722</longitude>
    <elevation>242.9</elevation>
    <locationLabels>
      <type>CNTRY</type>
      <id>FIPS:US</id>
      <displayName>United States</displayName>
    </locationLabels>
    <coverage>0.998</coverage>
  </station>
  <station>
    <id>GHCND:US1IACN0007</id>
    <displayName>CLINTON 0.9 WSW, IA US</displayName>
    <minDate>2009-04-15</minDate>
    <maxDate>2010-03-10</maxDate>
    <latitude>41.8328</latitude>
    <longitude>-90.2069</longitude>
    <elevation>200.3</elevation>
    <locationLabels>
      <type>CNTRY</type>
      <id>FIPS:US</id>
      <displayName>United States</displayName>
    </locationLabels>
    <coverage>0.6273</coverage>
  </station>
  <station>
    <id>GHCND:USC00111743</id>
    <displayName>CLINTON 1 SSW, IL US</displayName>
    <minDate>1910-01-01</minDate>
    <maxDate>2012-12-31</maxDate>
    <latitude>40.1376</latitude>
    <longitude>-88.9674</longitude>
    <elevation>213.4</elevation>
    <locationLabels>
      <type>CNTRY</type>
      <id>FIPS:US</id>
      <displayName>United States</displayName>
    </locationLabels>
    <coverage>0.9772</coverage>
  </station>
  <station>
    <id>GHCND:US1MIMB0023</id>
    <displayName>CLINTON 1.0 S, MI US</displayName>
    <minDate>2010-09-01</minDate>
    <maxDate>2013-01-16</maxDate>
    <latitude>42.5732</latitude>
    <longitude>-82.9173</longitude>
    <elevation>184.7</elevation>
    <locationLabels>
      <type>CNTRY</type>
      <id>FIPS:US</id>
      <displayName>United States</displayName>
    </locationLabels>
    <coverage>0.2923</coverage>
  </station>
  <station>
    <id>GHCND:US1MDPG0027</id>
    <displayName>CLINTON 1.0 WNW, MD US</displayName>
    <minDate>2006-05-01</minDate>
    <maxDate>2006-08-28</maxDate>
    <latitude>38.7689</latitude>
    <longitude>-76.9139</longitude>
    <elevation>71</elevation>
    <locationLabels>
      <type>CNTRY</type>
      <id>FIPS:US</id>
      <displayName>United States</displayName>
    </locationLabels>
    <coverage>1</coverage>
  </station>
  <station>
    <id>GHCND:US1MIMB0025</id>
    <displayName>CLINTON 1.2 N, MI US</displayName>
    <minDate>2011-10-05</minDate>
    <maxDate>2012-08-21</maxDate>
    <latitude>42.6037</latitude>
    <longitude>-82.9245</longitude>
    <elevation>180.4</elevation>
    <locationLabels>
      <type>CNTRY</type>
      <id>FIPS:US</id>
      <displayName>United States</displayName>
    </locationLabels>
    <coverage>0.8323</coverage>
  </station>
  <station>
    <id>GHCND:US1LAEF0001</id>
    <displayName>CLINTON 1.4 S, LA US</displayName>
    <minDate>2008-01-16</minDate>
    <maxDate>2011-12-14</maxDate>
    <latitude>30.8404</latitude>
    <longitude>-91.0159</longitude>
    <elevation>65.8</elevation>
    <locationLabels>
      <type>CNTRY</type>
      <id>FIPS:US</id>
      <displayName>United States</displayName>
    </locationLabels>
    <coverage>0.105</coverage>
  </station>
  <station>
    <id>GHCND:US1ILDW0003</id>
    <displayName>CLINTON 1.7 SSW, IL US</displayName>
    <minDate>2008-03-19</minDate>
    <maxDate>2008-12-16</maxDate>
    <latitude>40.1286</latitude>
    <longitude>-88.9769</longitude>
    <elevation>225.9</elevation>
    <locationLabels>
      <type>CNTRY</type>
      <id>FIPS:US</id>
      <displayName>United States</displayName>
    </locationLabels>
    <coverage>0.9707</coverage>
  </station>
  <station>
    <id>GHCND:US1IACN0010</id>
    <displayName>CLINTON 1.7 W, IA US</displayName>
    <minDate>2012-04-12</minDate>
    <maxDate>2012-11-13</maxDate>
    <latitude>41.8398</latitude>
    <longitude>-90.2252</longitude>
    <elevation>205.1</elevation>
    <locationLabels>
      <type>CNTRY</type>
      <id>FIPS:US</id>
      <displayName>United States</displayName>
    </locationLabels>
    <coverage>0.963</coverage>
  </station>
  <station>
    <id>GHCND:US1NCSM0004</id>
    <displayName>CLINTON 10.6 N, NC US</displayName>
    <minDate>2011-05-17</minDate>
    <maxDate>2013-01-16</maxDate>
    <latitude>35.1512</latitude>
    <longitude>-78.3633</longitude>
    <elevation>54.6</elevation>
    <locationLabels>
      <type>CNTRY</type>
      <id>FIPS:US</id>
      <displayName>United States</displayName>
    </locationLabels>
    <coverage>0.9771</coverage>
  </station>
  <station>
    <id>GHCND:USC00311881</id>
    <displayName>CLINTON 2 NE, NC US</displayName>
    <minDate>1971-01-01</minDate>
    <maxDate>2013-01-16</maxDate>
    <latitude>35.0247</latitude>
    <longitude>-78.2758</longitude>
    <elevation>48.2</elevation>
    <locationLabels>
      <type>CNTRY</type>
      <id>FIPS:US</id>
      <displayName>United States</displayName>
    </locationLabels>
    <coverage>0.9845</coverage>
  </station>
  <station>
    <id>GHCND:USC00401840</id>
    <displayName>CLINTON 2 NW, TN US</displayName>
    <minDate>1961-01-01</minDate>
    <maxDate>1962-03-31</maxDate>
    <latitude>36.13333</latitude>
    <longitude>-84.15</longitude>
    <elevation>302.1</elevation>
    <locationLabels>
      <type>CNTRY</type>
      <id>FIPS:US</id>
      <displayName>United States</displayName>
    </locationLabels>
    <coverage>1</coverage>
  </station>
  <station>
    <id>GHCND:USC00311877</id>
    <displayName>CLINTON 2 S, NC US</displayName>
    <minDate>1906-12-01</minDate>
    <maxDate>1976-11-30</maxDate>
    <latitude>34.96667</latitude>
    <longitude>-78.31667</longitude>
    <elevation>46</elevation>
    <locationLabels>
      <type>CNTRY</type>
      <id>FIPS:US</id>
      <displayName>United States</displayName>
    </locationLabels>
    <coverage>0.6024</coverage>
  </station>
  <station>
    <id>GHCND:USC00121628</id>
    <displayName>CLINTON 2 W, IN US</displayName>
    <minDate>1994-04-01</minDate>
    <maxDate>2011-10-20</maxDate>
    <latitude>39.6593</latitude>
    <longitude>-87.4393</longitude>
    <elevation>184.4</elevation>
    <locationLabels>
      <type>CNTRY</type>
      <id>FIPS:US</id>
      <displayName>United States</displayName>
    </locationLabels>
    <coverage>0.9707</coverage>
  </station>
  <station>
    <id>GHCND:USC00131640</id>
    <displayName>CLINTON 2, IA US</displayName>
    <minDate>1904-07-01</minDate>
    <maxDate>1985-10-31</maxDate>
    <latitude>41.83333</latitude>
    <longitude>-90.21667</longitude>
    <elevation>182.9</elevation>
    <locationLabels>
      <type>CNTRY</type>
      <id>FIPS:US</id>
      <displayName>United States</displayName>
    </locationLabels>
    <coverage>0.9091</coverage>
  </station>
  <station>
    <id>GHCND:USC00161894</id>
    <displayName>CLINTON 2, LA US</displayName>
    <minDate>1948-06-01</minDate>
    <maxDate>1951-09-30</maxDate>
    <latitude>30.88333</latitude>
    <longitude>-91.01667</longitude>
    <elevation>64</elevation>
    <locationLabels>
      <type>CNTRY</type>
      <id>FIPS:US</id>
      <displayName>United States</displayName>
    </locationLabels>
    <coverage>0.7921</coverage>
  </station>
  <station>
    <id>GHCND:US1MSHD0017</id>
    <displayName>CLINTON 2.1 SW, MS US</displayName>
    <minDate>2010-04-27</minDate>
    <maxDate>2013-01-16</maxDate>
    <latitude>32.3152</latitude>
    <longitude>-90.3574</longitude>
    <elevation>85</elevation>
    <locationLabels>
      <type>CNTRY</type>
      <id>FIPS:US</id>
      <displayName>United States</displayName>
    </locationLabels>
    <coverage>0.6878</coverage>
  </station>
  <station>
    <id>GHCND:US1MIMB0016</id>
    <displayName>CLINTON 2.3 N, MI US</displayName>
    <minDate>2009-04-19</minDate>
    <maxDate>2013-01-16</maxDate>
    <latitude>42.6208</latitude>
    <longitude>-82.9205</longitude>
    <elevation>181.4</elevation>
    <locationLabels>
      <type>CNTRY</type>
      <id>FIPS:US</id>
      <displayName>United States</displayName>
    </locationLabels>
    <coverage>0.6143</coverage>
  </station>
  <station>
    <id>GHCND:US1OHSM0010</id>
    <displayName>CLINTON 3.2 ESE, OH US</displayName>
    <minDate>2009-04-19</minDate>
    <maxDate>2012-02-21</maxDate>
    <latitude>40.9197</latitude>
    <longitude>-81.5705</longitude>
    <elevation>293.5</elevation>
    <locationLabels>
      <type>CNTRY</type>
      <id>FIPS:US</id>
      <displayName>United States</displayName>
    </locationLabels>
    <coverage>0.7122</coverage>
  </station>
  <station>
    <id>GHCND:US1OHSM0009</id>
    <displayName>CLINTON 3.5 NE, OH US</displayName>
    <minDate>2009-04-10</minDate>
    <maxDate>2011-10-20</maxDate>
    <latitude>40.9604</latitude>
    <longitude>-81.5788</longitude>
    <elevation>340.5</elevation>
    <locationLabels>
      <type>CNTRY</type>
      <id>FIPS:US</id>
      <displayName>United States</displayName>
    </locationLabels>
    <coverage>0.3171</coverage>
  </station>
  <station>
    <id>GHCND:USC00151631</id>
    <displayName>CLINTON 4 S, KY US</displayName>
    <minDate>1948-08-01</minDate>
    <maxDate>2012-12-26</maxDate>
    <latitude>36.6266</latitude>
    <longitude>-88.9605</longitude>
    <elevation>106.7</elevation>
    <locationLabels>
      <type>CNTRY</type>
      <id>FIPS:US</id>
      <displayName>United States</displayName>
    </locationLabels>
    <coverage>0.0685</coverage>
  </station>
  <station>
    <id>GHCND:US1TNAN0006</id>
    <displayName>CLINTON 4.3 SSW, TN US</displayName>
    <minDate>2007-04-19</minDate>
    <maxDate>2012-04-01</maxDate>
    <latitude>36.0312</latitude>
    <longitude>-84.15</longitude>
    <elevation>274.3</elevation>
    <locationLabels>
      <type>CNTRY</type>
      <id>FIPS:US</id>
      <displayName>United States</displayName>
    </locationLabels>
    <coverage>0.2453</coverage>
  </station>
  <station>
    <id>GHCND:USC00161899</id>
    <displayName>CLINTON 5 SE, LA US</displayName>
    <minDate>1974-08-01</minDate>
    <maxDate>2013-01-16</maxDate>
    <latitude>30.8177</latitude>
    <longitude>-90.9733</longitude>
    <elevation>61</elevation>
    <locationLabels>
      <type>CNTRY</type>
      <id>FIPS:US</id>
      <displayName>United States</displayName>
    </locationLabels>
    <coverage>0.9831</coverage>
  </station>
  <station>
    <id>GHCND:US1MTMS0004</id>
    <displayName>CLINTON 5.0 WNW, MT US</displayName>
    <minDate>2007-03-09</minDate>
    <maxDate>2007-06-23</maxDate>
    <latitude>46.8133</latitude>
    <longitude>-113.7833</longitude>
    <elevation>1074.1</elevation>
    <locationLabels>
      <type>CNTRY</type>
      <id>FIPS:US</id>
      <displayName>United States</displayName>
    </locationLabels>
    <coverage>1</coverage>
  </station>
  <station>
    <id>GHCND:US1OKWH0003</id>
    <displayName>CLINTON 5.2 SSW, OK US</displayName>
    <minDate>2008-10-21</minDate>
    <maxDate>2013-01-16</maxDate>
    <latitude>35.4369</latitude>
    <longitude>-99.0096</longitude>
    <elevation>497.4</elevation>
    <locationLabels>
      <type>CNTRY</type>
      <id>FIPS:US</id>
      <displayName>United States</displayName>
    </locationLabels>
    <coverage>0.9839</coverage>
  </station>
  <station>
    <id>GHCND:US1NCSM0001</id>
    <displayName>CLINTON 5.8 SW, NC US</displayName>
    <minDate>2009-08-30</minDate>
    <maxDate>2013-01-16</maxDate>
    <latitude>34.9412</latitude>
    <longitude>-78.4058</longitude>
    <elevation>43.9</elevation>
    <locationLabels>
      <type>CNTRY</type>
      <id>FIPS:US</id>
      <displayName>United States</displayName>
    </locationLabels>
    <coverage>0.5178</coverage>
  </station>
  <station>
    <id>GHCND:USC00031492</id>
    <displayName>CLINTON 6 SE, AR US</displayName>
    <minDate>1921-10-01</minDate>
    <maxDate>2013-01-15</maxDate>
    <latitude>35.5836</latitude>
    <longitude>-92.4511</longitude>
    <elevation>173.7</elevation>
    <locationLabels>
      <type>CNTRY</type>
      <id>FIPS:US</id>
      <displayName>United States</displayName>
    </locationLabels>
    <coverage>0.891</coverage>
  </station>
  <station>
    <id>GHCND:USC00241831</id>
    <displayName>CLINTON 6 SE, MT US</displayName>
    <minDate>2002-10-01</minDate>
    <maxDate>2008-09-03</maxDate>
    <latitude>46.7169</latitude>
    <longitude>-113.6672</longitude>
    <elevation>1088.1</elevation>
    <locationLabels>
      <type>CNTRY</type>
      <id>FIPS:US</id>
      <displayName>United States</displayName>
    </locationLabels>
    <coverage>0.9995</coverage>
  </station>
  <station>
    <id>GHCND:US1ARVB0001</id>
    <displayName>CLINTON 8.2 NW, AR US</displayName>
    <minDate>2009-12-24</minDate>
    <maxDate>2013-01-16</maxDate>
    <latitude>35.6749</latitude>
    <longitude>-92.5408</longitude>
    <elevation>209.1</elevation>
    <locationLabels>
      <type>CNTRY</type>
      <id>FIPS:US</id>
      <displayName>United States</displayName>
    </locationLabels>
    <coverage>0.8339</coverage>
  </station>
  <station>
    <id>GHCND:USC00191563</id>
    <displayName>CLINTON B, MA US</displayName>
    <minDate>1893-01-01</minDate>
    <maxDate>1907-12-31</maxDate>
    <latitude>42.416667</latitude>
    <longitude>-71.683333</longitude>
    <elevation>85.3</elevation>
    <locationLabels>
      <type>CNTRY</type>
      <id>FIPS:US</id>
      <displayName>United States</displayName>
    </locationLabels>
    <coverage>0.6022</coverage>
  </station>
  <station>
    <id>GHCND:USC00221764</id>
    <displayName>CLINTON EXPERIMENTAL STATION, MS US</displayName>
    <minDate>1944-03-01</minDate>
    <maxDate>1971-12-31</maxDate>
    <latitude>32.3</latitude>
    <longitude>-90.31667</longitude>
    <elevation>98.1</elevation>
    <locationLabels>
      <type>CNTRY</type>
      <id>FIPS:US</id>
      <displayName>United States</displayName>
    </locationLabels>
    <coverage>0.9966</coverage>
  </station>
  <station>
    <id>GHCND:USC00161891</id>
    <displayName>CLINTON FORESTRY HQ, LA US</displayName>
    <minDate>1891-02-01</minDate>
    <maxDate>2012-11-29</maxDate>
    <latitude>30.8544</latitude>
    <longitude>-91.0091</longitude>
    <elevation>76.2</elevation>
    <locationLabels>
      <type>CNTRY</type>
      <id>FIPS:US</id>
      <displayName>United States</displayName>
    </locationLabels>
    <coverage>0.7467</coverage>
  </station>
  <station>
    <id>GHCND:USC00141612</id>
    <displayName>CLINTON LAKE, KS US</displayName>
    <minDate>1977-08-01</minDate>
    <maxDate>2013-01-16</maxDate>
    <latitude>38.9407</latitude>
    <longitude>-95.3396</longitude>
    <elevation>299.9</elevation>
    <locationLabels>
      <type>CNTRY</type>
      <id>FIPS:US</id>
      <displayName>United States</displayName>
    </locationLabels>
    <coverage>0.981</coverage>
  </station>
  <station>
    <id>GHCND:USC00131635</id>
    <displayName>CLINTON NUMBER 1, IA US</displayName>
    <minDate>1893-01-01</minDate>
    <maxDate>2013-01-15</maxDate>
    <latitude>41.7947</latitude>
    <longitude>-90.2639</longitude>
    <elevation>178.3</elevation>
    <locationLabels>
      <type>CNTRY</type>
      <id>FIPS:US</id>
      <displayName>United States</displayName>
    </locationLabels>
    <coverage>0.9956</coverage>
  </station>
  <station>
    <id>GHCND:USW00013999</id>
    <displayName>CLINTON REGIONAL AIRPORT, OK US</displayName>
    <minDate>1945-02-01</minDate>
    <maxDate>1946-05-14</maxDate>
    <latitude>35.53827</latitude>
    <longitude>-98.93278</longitude>
    <elevation>492.6</elevation>
    <locationLabels>
      <type>CNTRY</type>
      <id>FIPS:US</id>
      <displayName>United States</displayName>
    </locationLabels>
    <coverage>1</coverage>
  </station>
  <station>
    <id>GHCND:USW00003932</id>
    <displayName>CLINTON SHERMAN AIRPORT, OK US</displayName>
    <minDate>1958-08-17</minDate>
    <maxDate>2013-01-15</maxDate>
    <latitude>35.21</latitude>
    <longitude>-99.12</longitude>
    <elevation>585.8</elevation>
    <locationLabels>
      <type>CNTRY</type>
      <id>FIPS:US</id>
      <displayName>United States</displayName>
    </locationLabels>
    <coverage>0.4985</coverage>
  </station>
  <station>
    <id>GHCND:US1NJHN0018</id>
    <displayName>CLINTON TWP 3.9 N, NJ US</displayName>
    <minDate>2009-09-27</minDate>
    <maxDate>2013-01-16</maxDate>
    <latitude>40.6872</latitude>
    <longitude>-74.8575</longitude>
    <elevation>186.8</elevation>
    <locationLabels>
      <type>CNTRY</type>
      <id>FIPS:US</id>
      <displayName>United States</displayName>
    </locationLabels>
    <coverage>0.9536</coverage>
  </station>
  <station>
    <id>GHCND:USC00121626</id>
    <displayName>CLINTON, IN US</displayName>
    <minDate>1953-11-02</minDate>
    <maxDate>1994-01-19</maxDate>
    <latitude>39.65639</latitude>
    <longitude>-87.39528</longitude>
    <elevation>139</elevation>
    <locationLabels>
      <type>CNTRY</type>
      <id>FIPS:US</id>
      <displayName>United States</displayName>
    </locationLabels>
    <coverage>0.4352</coverage>
  </station>
  <station>
    <id>GHCND:USC00191561</id>
    <displayName>CLINTON, MA US</displayName>
    <minDate>1896-10-01</minDate>
    <maxDate>1985-12-31</maxDate>
    <latitude>42.4</latitude>
    <longitude>-71.68333</longitude>
    <elevation>121.9</elevation>
    <locationLabels>
      <type>CNTRY</type>
      <id>FIPS:US</id>
      <displayName>United States</displayName>
    </locationLabels>
    <coverage>0.8032</coverage>
  </station>
  <station>
    <id>GHCND:USC00231711</id>
    <displayName>CLINTON, MO US</displayName>
    <minDate>1906-10-01</minDate>
    <maxDate>2013-01-16</maxDate>
    <latitude>38.395</latitude>
    <longitude>-93.7711</longitude>
    <elevation>234.7</elevation>
    <locationLabels>
      <type>CNTRY</type>
      <id>FIPS:US</id>
      <displayName>United States</displayName>
    </locationLabels>
    <coverage>0.9594</coverage>
  </station>
  <station>
    <id>GHCND:USC00281749</id>
    <displayName>CLINTON, NJ US</displayName>
    <minDate>1943-04-01</minDate>
    <maxDate>1969-07-31</maxDate>
    <latitude>40.63333</latitude>
    <longitude>-74.91667</longitude>
    <elevation>61</elevation>
    <locationLabels>
      <type>CNTRY</type>
      <id>FIPS:US</id>
      <displayName>United States</displayName>
    </locationLabels>
    <coverage>0.9722</coverage>
  </station>
  <station>
    <id>GHCND:USC00201634</id>
    <displayName>CLINTON, OH US</displayName>
    <minDate>1893-01-01</minDate>
    <maxDate>1916-04-30</maxDate>
    <latitude>40.66667</latitude>
    <longitude>-83.96667</longitude>
    <elevation>253</elevation>
    <locationLabels>
      <type>CNTRY</type>
      <id>FIPS:US</id>
      <displayName>United States</displayName>
    </locationLabels>
    <coverage>0.9965</coverage>
  </station>
  <station>
    <id>GHCND:USC00341909</id>
    <displayName>CLINTON, OK US</displayName>
    <minDate>1936-08-01</minDate>
    <maxDate>2005-08-18</maxDate>
    <latitude>35.50139</latitude>
    <longitude>-98.97722</longitude>
    <elevation>478.5</elevation>
    <locationLabels>
      <type>CNTRY</type>
      <id>FIPS:US</id>
      <displayName>United States</displayName>
    </locationLabels>
    <coverage>0.9865</coverage>
  </station>
  <station>
    <id>GHCND:USC00381814</id>
    <displayName>CLINTON, SC US</displayName>
    <minDate>2011-01-01</minDate>
    <maxDate>2012-11-30</maxDate>
    <latitude>34.4719</latitude>
    <longitude>-81.8838</longitude>
    <elevation>192</elevation>
    <locationLabels>
      <type>CNTRY</type>
      <id>FIPS:US</id>
      <displayName>United States</displayName>
    </locationLabels>
    <coverage>0.9771</coverage>
  </station>
  <station>
    <id>GHCND:USC00401835</id>
    <displayName>CLINTON, TN US</displayName>
    <minDate>1883-02-06</minDate>
    <maxDate>1962-03-31</maxDate>
    <latitude>36.1</latitude>
    <longitude>-84.1</longitude>
    <elevation>259.1</elevation>
    <locationLabels>
      <type>CNTRY</type>
      <id>FIPS:US</id>
      <displayName>United States</displayName>
    </locationLabels>
    <coverage>0.8838</coverage>
  </station>
  <station>
    <id>GHCND:USC00471667</id>
    <displayName>CLINTON, WI US</displayName>
    <minDate>1948-08-01</minDate>
    <maxDate>2013-01-16</maxDate>
    <latitude>42.5491</latitude>
    <longitude>-88.8752</longitude>
    <elevation>292.6</elevation>
    <locationLabels>
      <type>CNTRY</type>
      <id>FIPS:US</id>
      <displayName>United States</displayName>
    </locationLabels>
    <coverage>0.9657</coverage>
  </station>
  <station>
    <id>GHCND:USC00471676</id>
    <displayName>CLINTONVILLE, WI US</displayName>
    <minDate>1948-08-01</minDate>
    <maxDate>2013-01-14</maxDate>
    <latitude>44.6227</latitude>
    <longitude>-88.7483</longitude>
    <elevation>244.4</elevation>
    <locationLabels>
      <type>CNTRY</type>
      <id>FIPS:US</id>
      <displayName>United States</displayName>
    </locationLabels>
    <coverage>0.9751</coverage>
  </station>
  <station>
    <id>GHCND:USC00441825</id>
    <displayName>CLINTWOOD 1 W, VA US</displayName>
    <minDate>1993-07-01</minDate>
    <maxDate>2013-01-14</maxDate>
    <latitude>37.1453</latitude>
    <longitude>-82.4911</longitude>
    <elevation>542.5</elevation>
    <locationLabels>
      <type>CNTRY</type>
      <id>FIPS:US</id>
      <displayName>United States</displayName>
    </locationLabels>
    <coverage>0.9945</coverage>
  </station>
  <station>
    <id>GHCND:US1ALBR0001</id>
    <displayName>CLIO 0.2 SSW, AL US</displayName>
    <minDate>2007-11-18</minDate>
    <maxDate>2012-02-21</maxDate>
    <latitude>31.706</latitude>
    <longitude>-85.6116</longitude>
    <elevation>173.1</elevation>
    <locationLabels>
      <type>CNTRY</type>
      <id>FIPS:US</id>
      <displayName>United States</displayName>
    </locationLabels>
    <coverage>0.5254</coverage>
  </station>
  <station>
    <id>GHCND:USC00131651</id>
    <displayName>CLIO 4 NW, IA US</displayName>
    <minDate>1992-01-01</minDate>
    <maxDate>1997-09-30</maxDate>
    <latitude>40.7</latitude>
    <longitude>-93.48333</longitude>
    <elevation>338.3</elevation>
    <locationLabels>
      <type>CNTRY</type>
      <id>FIPS:US</id>
      <displayName>United States</displayName>
    </locationLabels>
    <coverage>0.9519</coverage>
  </station>
  <station>
    <id>GHCND:USC00201645</id>
    <displayName>CLIO, MI US</displayName>
    <minDate>2005-08-01</minDate>
    <maxDate>2006-10-31</maxDate>
    <latitude>43.1794</latitude>
    <longitude>-83.7369</longitude>
    <elevation>214.9</elevation>
    <locationLabels>
      <type>CNTRY</type>
      <id>FIPS:US</id>
      <displayName>United States</displayName>
    </locationLabels>
    <coverage>0.6083</coverage>
  </station>
  <station>
    <id>GHCND:US1IAPK0027</id>
    <displayName>CLIVE 0.6 ESE, IA US</displayName>
    <minDate>2007-08-21</minDate>
    <maxDate>2012-10-22</maxDate>
    <latitude>41.6035</latitude>
    <longitude>-93.7599</longitude>
    <elevation>274</elevation>
    <locationLabels>
      <type>CNTRY</type>
      <id>FIPS:US</id>
      <displayName>United States</displayName>
    </locationLabels>
    <coverage>0.7429</coverage>
  </station>
  <station>
    <id>GHCND:US1IAPK0068</id>
    <displayName>CLIVE 1.2 E, IA US</displayName>
    <minDate>2010-01-05</minDate>
    <maxDate>2013-01-16</maxDate>
    <latitude>41.6061</latitude>
    <longitude>-93.7462</longitude>
    <elevation>257.9</elevation>
    <locationLabels>
      <type>CNTRY</type>
      <id>FIPS:US</id>
      <displayName>United States</displayName>
    </locationLabels>
    <coverage>0.6724</coverage>
  </station>
  <station>
    <id>GHCND:USC00411838</id>
    <displayName>CLODINE, TX US</displayName>
    <minDate>1943-01-01</minDate>
    <maxDate>2011-11-22</maxDate>
    <latitude>29.7067</latitude>
    <longitude>-95.6878</longitude>
    <elevation>26.5</elevation>
    <locationLabels>
      <type>CNTRY</type>
      <id>FIPS:US</id>
      <displayName>United States</displayName>
    </locationLabels>
    <coverage>0.8746</coverage>
  </station>
  <station>
    <id>GHCND:USC00361551</id>
    <displayName>CLOE, PA US</displayName>
    <minDate>1920-02-19</minDate>
    <maxDate>1932-06-30</maxDate>
    <latitude>40.933333</latitude>
    <longitude>-78.916667</longitude>
    <elevation>431.3</elevation>
    <locationLabels>
      <type>CNTRY</type>
      <id>FIPS:US</id>
      <displayName>United States</displayName>
    </locationLabels>
    <coverage>1</coverage>
  </station>
  <station>
    <id>GHCND:US1ALDL0002</id>
    <displayName>CLOPTON 0.1 SW, AL US</displayName>
    <minDate>2007-10-01</minDate>
    <maxDate>2009-12-30</maxDate>
    <latitude>31.6071</latitude>
    <longitude>-85.431</longitude>
    <elevation>145.7</elevation>
    <locationLabels>
      <type>CNTRY</type>
      <id>FIPS:US</id>
      <displayName>United States</displayName>
    </locationLabels>
    <coverage>0.9842</coverage>
  </station>
  <station>
    <id>GHCND:US1MNCN0005</id>
    <displayName>CLOQUET 5.9 SW, MN US</displayName>
    <minDate>2012-05-27</minDate>
    <maxDate>2013-01-14</maxDate>
    <latitude>46.668</latitude>
    <longitude>-92.5901</longitude>
    <elevation>394.1</elevation>
    <locationLabels>
      <type>CNTRY</type>
      <id>FIPS:US</id>
      <displayName>United States</displayName>
    </locationLabels>
    <coverage>0.8755</coverage>
  </station>
  <station>
    <id>GHCND:USC00211630</id>
    <displayName>CLOQUET, MN US</displayName>
    <minDate>1900-01-16</minDate>
    <maxDate>2013-01-06</maxDate>
    <latitude>46.7047</latitude>
    <longitude>-92.5253</longitude>
    <elevation>385.6</elevation>
    <locationLabels>
      <type>CNTRY</type>
      <id>FIPS:US</id>
      <displayName>United States</displayName>
    </locationLabels>
    <coverage>0.8979</coverage>
  </station>
  <station>
    <id>GHCND:USC00151640</id>
    <displayName>CLOSPLINT 4 ESE, KY US</displayName>
    <minDate>1980-05-01</minDate>
    <maxDate>2010-01-31</maxDate>
    <latitude>36.88333</latitude>
    <longitude>-83.01667</longitude>
    <elevation>548.6</elevation>
    <locationLabels>
      <type>CNTRY</type>
      <id>FIPS:US</id>
      <displayName>United States</displayName>
    </locationLabels>
    <coverage>0.9994</coverage>
  </station>
  <station>
    <id>GHCND:USC00341927</id>
    <displayName>CLOUD CHIEF 2 SE, OK US</displayName>
    <minDate>1893-06-01</minDate>
    <maxDate>1975-06-30</maxDate>
    <latitude>35.23333</latitude>
    <longitude>-98.81667</longitude>
    <elevation>458.1</elevation>
    <locationLabels>
      <type>CNTRY</type>
      <id>FIPS:US</id>
      <displayName>United States</displayName>
    </locationLabels>
    <coverage>0.8894</coverage>
  </station>
  <station>
    <id>GHCND:USC00291933</id>
    <displayName>CLOUD COUNTRY CLUB, NM US</displayName>
    <minDate>1973-12-01</minDate>
    <maxDate>1979-05-31</maxDate>
    <latitude>32.96667</latitude>
    <longitude>-105.75</longitude>
    <elevation>2692.9</elevation>
    <locationLabels>
      <type>CNTRY</type>
      <id>FIPS:US</id>
      <displayName>United States</displayName>
    </locationLabels>
    <coverage>0.9686</coverage>
  </station>
  <station>
    <id>GHCND:USS0007E36S</id>
    <displayName>CLOUD PEAK RESERVOIR, WY US</displayName>
    <minDate>1978-10-01</minDate>
    <maxDate>2013-01-13</maxDate>
    <latitude>44.4</latitude>
    <longitude>-107.0667</longitude>
    <elevation>3005.3</elevation>
    <locationLabels>
      <type>CNTRY</type>
      <id>FIPS:US</id>
      <displayName>United States</displayName>
    </locationLabels>
    <coverage>0.8784</coverage>
  </station>
  <station>
    <id>GHCND:US1NMOT0037</id>
    <displayName>CLOUDCROFT 0.4 ESE, NM US</displayName>
    <minDate>2006-08-13</minDate>
    <maxDate>2013-01-15</maxDate>
    <latitude>32.9502</latitude>
    <longitude>-105.7337</longitude>
    <elevation>2706.9</elevation>
    <locationLabels>
      <type>CNTRY</type>
      <id>FIPS:US</id>
      <displayName>United States</displayName>
    </locationLabels>
    <coverage>0.9655</coverage>
  </station>
</stationCollection>
