<?xml version="1.0" encoding="UTF-8" standalone="yes"?>
<stationCollection totalCount="46020" pageCount="461" pageSize="100" page="453">
  <station>
    <id>GHCND:USC00129678</id>
    <displayName>WINCHESTER AAP 3, IN US</displayName>
    <minDate>1942-06-02</minDate>
    <maxDate>2012-02-29</maxDate>
    <latitude>40.1715</latitude>
    <longitude>-84.9207</longitude>
    <elevation>338.3</elevation>
    <locationLabels>
      <type>CNTRY</type>
      <id>FIPS:US</id>
      <displayName>United States</displayName>
    </locationLabels>
    <coverage>0.9807</coverage>
  </station>
  <station>
    <id>GHCND:USC00409785</id>
    <displayName>WINCHESTER SUBSTN, TN US</displayName>
    <minDate>1949-01-01</minDate>
    <maxDate>1962-03-31</maxDate>
    <latitude>35.23333</latitude>
    <longitude>-86.1</longitude>
    <elevation>292.9</elevation>
    <locationLabels>
      <type>CNTRY</type>
      <id>FIPS:US</id>
      <displayName>United States</displayName>
    </locationLabels>
    <coverage>0.9715</coverage>
  </station>
  <station>
    <id>GHCND:USC00049722</id>
    <displayName>WINCHESTER, CA US</displayName>
    <minDate>1893-01-01</minDate>
    <maxDate>1951-09-30</maxDate>
    <latitude>33.71667</latitude>
    <longitude>-117.08333</longitude>
    <elevation>451.1</elevation>
    <locationLabels>
      <type>CNTRY</type>
      <id>FIPS:US</id>
      <displayName>United States</displayName>
    </locationLabels>
    <coverage>0.0786</coverage>
  </station>
  <station>
    <id>GHCND:USC00109846</id>
    <displayName>WINCHESTER, ID US</displayName>
    <minDate>1965-07-01</minDate>
    <maxDate>2013-01-15</maxDate>
    <latitude>46.2381</latitude>
    <longitude>-116.6232</longitude>
    <elevation>1210.7</elevation>
    <locationLabels>
      <type>CNTRY</type>
      <id>FIPS:US</id>
      <displayName>United States</displayName>
    </locationLabels>
    <coverage>0.9934</coverage>
  </station>
  <station>
    <id>GHCND:USC00119331</id>
    <displayName>WINCHESTER, IL US</displayName>
    <minDate>1897-10-01</minDate>
    <maxDate>2012-12-28</maxDate>
    <latitude>39.6319</latitude>
    <longitude>-90.4572</longitude>
    <elevation>155.4</elevation>
    <locationLabels>
      <type>CNTRY</type>
      <id>FIPS:US</id>
      <displayName>United States</displayName>
    </locationLabels>
    <coverage>0.1943</coverage>
  </station>
  <station>
    <id>GHCND:US1KYCK0002</id>
    <displayName>WINCHESTER, KY US</displayName>
    <minDate>2011-03-28</minDate>
    <maxDate>2013-01-16</maxDate>
    <latitude>37.994</latitude>
    <longitude>-84.1786</longitude>
    <elevation>289.6</elevation>
    <locationLabels>
      <type>CNTRY</type>
      <id>FIPS:US</id>
      <displayName>United States</displayName>
    </locationLabels>
    <coverage>0.4629</coverage>
  </station>
  <station>
    <id>GHCND:USC00158757</id>
    <displayName>WINCHESTER, KY US</displayName>
    <minDate>1894-12-01</minDate>
    <maxDate>1944-10-31</maxDate>
    <latitude>37.91667</latitude>
    <longitude>-84.26667</longitude>
    <elevation>301.4</elevation>
    <locationLabels>
      <type>CNTRY</type>
      <id>FIPS:US</id>
      <displayName>United States</displayName>
    </locationLabels>
    <coverage>0.1191</coverage>
  </station>
  <station>
    <id>GHCND:USC00199795</id>
    <displayName>WINCHESTER, MA US</displayName>
    <minDate>1893-04-01</minDate>
    <maxDate>1900-05-21</maxDate>
    <latitude>42.45</latitude>
    <longitude>-71.3</longitude>
    <elevation>27.4</elevation>
    <locationLabels>
      <type>CNTRY</type>
      <id>FIPS:US</id>
      <displayName>United States</displayName>
    </locationLabels>
    <coverage>0.9662</coverage>
  </station>
  <station>
    <id>GHCND:USC00279726</id>
    <displayName>WINCHESTER, NH US</displayName>
    <minDate>1948-06-01</minDate>
    <maxDate>1951-09-30</maxDate>
    <latitude>42.76667</latitude>
    <longitude>-72.36667</longitude>
    <elevation>149</elevation>
    <locationLabels>
      <type>CNTRY</type>
      <id>FIPS:US</id>
      <displayName>United States</displayName>
    </locationLabels>
    <coverage>0.9893</coverage>
  </station>
  <station>
    <id>GHCND:USC00359461</id>
    <displayName>WINCHESTER, OR US</displayName>
    <minDate>1950-12-06</minDate>
    <maxDate>2013-01-16</maxDate>
    <latitude>43.2827</latitude>
    <longitude>-123.3536</longitude>
    <elevation>140.2</elevation>
    <locationLabels>
      <type>CNTRY</type>
      <id>FIPS:US</id>
      <displayName>United States</displayName>
    </locationLabels>
    <coverage>0.994</coverage>
  </station>
  <station>
    <id>GHCND:USC00409780</id>
    <displayName>WINCHESTER, TN US</displayName>
    <minDate>1956-01-17</minDate>
    <maxDate>1962-03-31</maxDate>
    <latitude>35.18333</latitude>
    <longitude>-86.11667</longitude>
    <elevation>302.1</elevation>
    <locationLabels>
      <type>CNTRY</type>
      <id>FIPS:US</id>
      <displayName>United States</displayName>
    </locationLabels>
    <coverage>0.9912</coverage>
  </station>
  <station>
    <id>GHCND:USC00449181</id>
    <displayName>WINCHESTER, VA US</displayName>
    <minDate>1982-07-01</minDate>
    <maxDate>2012-12-17</maxDate>
    <latitude>39.1881</latitude>
    <longitude>-78.1514</longitude>
    <elevation>219.5</elevation>
    <locationLabels>
      <type>CNTRY</type>
      <id>FIPS:US</id>
      <displayName>United States</displayName>
    </locationLabels>
    <coverage>0.9705</coverage>
  </station>
  <station>
    <id>GHCND:USC00399347</id>
    <displayName>WIND CAVE, SD US</displayName>
    <minDate>1948-08-01</minDate>
    <maxDate>2013-01-15</maxDate>
    <latitude>43.5606</latitude>
    <longitude>-103.4881</longitude>
    <elevation>1261.9</elevation>
    <locationLabels>
      <type>CNTRY</type>
      <id>FIPS:US</id>
      <displayName>United States</displayName>
    </locationLabels>
    <coverage>0.3755</coverage>
  </station>
  <station>
    <id>GHCND:USC00369781</id>
    <displayName>WIND GAP 1 S, PA US</displayName>
    <minDate>1948-05-01</minDate>
    <maxDate>1951-09-30</maxDate>
    <latitude>40.83333</latitude>
    <longitude>-75.3</longitude>
    <elevation>220.1</elevation>
    <locationLabels>
      <type>CNTRY</type>
      <id>FIPS:US</id>
      <displayName>United States</displayName>
    </locationLabels>
    <coverage>0.6875</coverage>
  </station>
  <station>
    <id>GHCND:USC00459342</id>
    <displayName>WIND RIVER, WA US</displayName>
    <minDate>1901-07-22</minDate>
    <maxDate>1977-08-22</maxDate>
    <latitude>45.8</latitude>
    <longitude>-121.93333</longitude>
    <elevation>351.1</elevation>
    <locationLabels>
      <type>CNTRY</type>
      <id>FIPS:US</id>
      <displayName>United States</displayName>
    </locationLabels>
    <coverage>0.5677</coverage>
  </station>
  <station>
    <id>GHCND:US1TXBXR133</id>
    <displayName>WINDCREST 0.3 NNE, TX US</displayName>
    <minDate>2009-03-28</minDate>
    <maxDate>2013-01-14</maxDate>
    <latitude>29.5215</latitude>
    <longitude>-98.3768</longitude>
    <elevation>248.4</elevation>
    <locationLabels>
      <type>CNTRY</type>
      <id>FIPS:US</id>
      <displayName>United States</displayName>
    </locationLabels>
    <coverage>0.9352</coverage>
  </station>
  <station>
    <id>GHCND:US1TXBXR099</id>
    <displayName>WINDCREST 3.9 NNW, TX US</displayName>
    <minDate>2008-05-01</minDate>
    <maxDate>2009-02-11</maxDate>
    <latitude>29.5704</latitude>
    <longitude>-98.4028</longitude>
    <elevation>260.3</elevation>
    <locationLabels>
      <type>CNTRY</type>
      <id>FIPS:US</id>
      <displayName>United States</displayName>
    </locationLabels>
    <coverage>0.9895</coverage>
  </station>
  <station>
    <id>GHCND:USC00309510</id>
    <displayName>WINDECKER, NY US</displayName>
    <minDate>1927-07-01</minDate>
    <maxDate>1932-11-30</maxDate>
    <latitude>43.8</latitude>
    <longitude>-75.616667</longitude>
    <elevation>518.2</elevation>
    <locationLabels>
      <type>CNTRY</type>
      <id>FIPS:US</id>
      <displayName>United States</displayName>
    </locationLabels>
    <coverage>0.9914</coverage>
  </station>
  <station>
    <id>GHCND:US1GABW0007</id>
    <displayName>WINDER 1.1 SE, GA US</displayName>
    <minDate>2010-12-24</minDate>
    <maxDate>2013-01-16</maxDate>
    <latitude>33.9787</latitude>
    <longitude>-83.7103</longitude>
    <elevation>300.5</elevation>
    <locationLabels>
      <type>CNTRY</type>
      <id>FIPS:US</id>
      <displayName>United States</displayName>
    </locationLabels>
    <coverage>0.9417</coverage>
  </station>
  <station>
    <id>GHCND:US1GABW0004</id>
    <displayName>WINDER 3.9 NNE, GA US</displayName>
    <minDate>2008-12-18</minDate>
    <maxDate>2013-01-14</maxDate>
    <latitude>34.0426</latitude>
    <longitude>-83.6919</longitude>
    <elevation>226.2</elevation>
    <locationLabels>
      <type>CNTRY</type>
      <id>FIPS:US</id>
      <displayName>United States</displayName>
    </locationLabels>
    <coverage>0.5675</coverage>
  </station>
  <station>
    <id>GHCND:USC00099466</id>
    <displayName>WINDER 4 S, GA US</displayName>
    <minDate>1940-10-24</minDate>
    <maxDate>2006-07-13</maxDate>
    <latitude>33.9275</latitude>
    <longitude>-83.72611</longitude>
    <elevation>271</elevation>
    <locationLabels>
      <type>CNTRY</type>
      <id>FIPS:US</id>
      <displayName>United States</displayName>
    </locationLabels>
    <coverage>0.8222</coverage>
  </station>
  <station>
    <id>GHCND:US1GABW0005</id>
    <displayName>WINDER 5.1 ENE, GA US</displayName>
    <minDate>2009-08-06</minDate>
    <maxDate>2009-12-29</maxDate>
    <latitude>34.0125</latitude>
    <longitude>-83.6361</longitude>
    <elevation>249.6</elevation>
    <locationLabels>
      <type>CNTRY</type>
      <id>FIPS:US</id>
      <displayName>United States</displayName>
    </locationLabels>
    <coverage>0.9247</coverage>
  </station>
  <station>
    <id>GHCND:USC00179720</id>
    <displayName>WINDHAM 2 NW, ME US</displayName>
    <minDate>2010-07-01</minDate>
    <maxDate>2013-01-16</maxDate>
    <latitude>43.85667</latitude>
    <longitude>-70.46639</longitude>
    <elevation>114.3</elevation>
    <locationLabels>
      <type>CNTRY</type>
      <id>FIPS:US</id>
      <displayName>United States</displayName>
    </locationLabels>
    <coverage>0.9957</coverage>
  </station>
  <station>
    <id>GHCND:USC00309516</id>
    <displayName>WINDHAM 3 E, NY US</displayName>
    <minDate>1900-01-01</minDate>
    <maxDate>2012-02-15</maxDate>
    <latitude>42.3031</latitude>
    <longitude>-74.2011</longitude>
    <elevation>512.1</elevation>
    <locationLabels>
      <type>CNTRY</type>
      <id>FIPS:US</id>
      <displayName>United States</displayName>
    </locationLabels>
    <coverage>0.575</coverage>
  </station>
  <station>
    <id>GHCND:USC00279740</id>
    <displayName>WINDHAM 3 NW, NH US</displayName>
    <minDate>1948-06-01</minDate>
    <maxDate>1976-07-31</maxDate>
    <latitude>42.81667</latitude>
    <longitude>-71.33333</longitude>
    <elevation>67.1</elevation>
    <locationLabels>
      <type>CNTRY</type>
      <id>FIPS:US</id>
      <displayName>United States</displayName>
    </locationLabels>
    <coverage>0.9979</coverage>
  </station>
  <station>
    <id>GHCND:US1MECM0054</id>
    <displayName>WINDHAM 3.9 NW, ME US</displayName>
    <minDate>2010-05-03</minDate>
    <maxDate>2013-01-16</maxDate>
    <latitude>43.8579</latitude>
    <longitude>-70.462</longitude>
    <elevation>118</elevation>
    <locationLabels>
      <type>CNTRY</type>
      <id>FIPS:US</id>
      <displayName>United States</displayName>
    </locationLabels>
    <coverage>0.9222</coverage>
  </station>
  <station>
    <id>GHCND:USC00306042</id>
    <displayName>WINDHAM NORTH SETTLE, NY US</displayName>
    <minDate>1948-05-01</minDate>
    <maxDate>1952-12-31</maxDate>
    <latitude>42.35</latitude>
    <longitude>-74.28333</longitude>
    <elevation>579.1</elevation>
    <locationLabels>
      <type>CNTRY</type>
      <id>FIPS:US</id>
      <displayName>United States</displayName>
    </locationLabels>
    <coverage>0.9988</coverage>
  </station>
  <station>
    <id>GHCND:USC00309512</id>
    <displayName>WINDHAM NORTH SETTLE, NY US</displayName>
    <minDate>1953-01-01</minDate>
    <maxDate>1959-06-30</maxDate>
    <latitude>42.35</latitude>
    <longitude>-74.28333</longitude>
    <elevation>579.1</elevation>
    <locationLabels>
      <type>CNTRY</type>
      <id>FIPS:US</id>
      <displayName>United States</displayName>
    </locationLabels>
    <coverage>0.9996</coverage>
  </station>
  <station>
    <id>GHCND:USC00509873</id>
    <displayName>WINDHAM, AK US</displayName>
    <minDate>1952-07-01</minDate>
    <maxDate>1956-04-30</maxDate>
    <latitude>57.6</latitude>
    <longitude>-133.35</longitude>
    <elevation>3</elevation>
    <locationLabels>
      <type>CNTRY</type>
      <id>FIPS:US</id>
      <displayName>United States</displayName>
    </locationLabels>
    <coverage>0.9864</coverage>
  </station>
  <station>
    <id>GHCND:USC00229735</id>
    <displayName>WINDHAM, MS US</displayName>
    <minDate>1896-05-01</minDate>
    <maxDate>1901-09-30</maxDate>
    <latitude>31.7</latitude>
    <longitude>-89.18333</longitude>
    <locationLabels>
      <type>CNTRY</type>
      <id>FIPS:US</id>
      <displayName>United States</displayName>
    </locationLabels>
    <coverage>0.5956</coverage>
  </station>
  <station>
    <id>GHCND:USC00309514</id>
    <displayName>WINDHAM, NY US</displayName>
    <minDate>1961-05-01</minDate>
    <maxDate>1969-01-31</maxDate>
    <latitude>42.3</latitude>
    <longitude>-74.25</longitude>
    <elevation>458.1</elevation>
    <locationLabels>
      <type>CNTRY</type>
      <id>FIPS:US</id>
      <displayName>United States</displayName>
    </locationLabels>
    <coverage>0.9862</coverage>
  </station>
  <station>
    <id>GHCND:USR0000MWDO</id>
    <displayName>WINDIGO MICHIGAN, MI US</displayName>
    <minDate>2001-10-13</minDate>
    <maxDate>2012-08-31</maxDate>
    <latitude>47.9117</latitude>
    <longitude>-89.1547</longitude>
    <elevation>213.4</elevation>
    <locationLabels>
      <type>CNTRY</type>
      <id>FIPS:US</id>
      <displayName>United States</displayName>
    </locationLabels>
    <coverage>0.7291</coverage>
  </station>
  <station>
    <id>GHCND:USC00148950</id>
    <displayName>WINDOM 5 SE, KS US</displayName>
    <minDate>2001-11-01</minDate>
    <maxDate>2013-01-10</maxDate>
    <latitude>38.2936</latitude>
    <longitude>-97.9113</longitude>
    <elevation>472.4</elevation>
    <locationLabels>
      <type>CNTRY</type>
      <id>FIPS:US</id>
      <displayName>United States</displayName>
    </locationLabels>
    <coverage>0.991</coverage>
  </station>
  <station>
    <id>GHCND:USC00219033</id>
    <displayName>WINDOM, MN US</displayName>
    <minDate>1905-08-01</minDate>
    <maxDate>2013-01-16</maxDate>
    <latitude>43.8575</latitude>
    <longitude>-95.1168</longitude>
    <elevation>419.1</elevation>
    <locationLabels>
      <type>CNTRY</type>
      <id>FIPS:US</id>
      <displayName>United States</displayName>
    </locationLabels>
    <coverage>0.7807</coverage>
  </station>
  <station>
    <id>GHCND:USC00029410</id>
    <displayName>WINDOW ROCK 4 SW, AZ US</displayName>
    <minDate>1937-03-17</minDate>
    <maxDate>1999-09-20</maxDate>
    <latitude>35.61694</latitude>
    <longitude>-109.12444</longitude>
    <elevation>2109.2</elevation>
    <locationLabels>
      <type>CNTRY</type>
      <id>FIPS:US</id>
      <displayName>United States</displayName>
    </locationLabels>
    <coverage>0.9448</coverage>
  </station>
  <station>
    <id>GHCND:USW00003029</id>
    <displayName>WINDOW ROCK AIRPORT, AZ US</displayName>
    <minDate>1998-08-14</minDate>
    <maxDate>2013-01-14</maxDate>
    <latitude>35.6575</latitude>
    <longitude>-109.06139</longitude>
    <elevation>2054</elevation>
    <locationLabels>
      <type>CNTRY</type>
      <id>FIPS:US</id>
      <displayName>United States</displayName>
    </locationLabels>
    <coverage>0.9704</coverage>
  </station>
  <station>
    <id>GHCND:US1COWE0019</id>
    <displayName>WINDSOR .53 SSW, CO US</displayName>
    <minDate>2004-03-25</minDate>
    <maxDate>2006-08-24</maxDate>
    <latitude>40.4702</latitude>
    <longitude>-104.9044</longitude>
    <elevation>1463</elevation>
    <locationLabels>
      <type>CNTRY</type>
      <id>FIPS:US</id>
      <displayName>United States</displayName>
    </locationLabels>
    <coverage>0.2174</coverage>
  </station>
  <station>
    <id>GHCND:US1CASN0054</id>
    <displayName>WINDSOR 0.3 E, CA US</displayName>
    <minDate>2009-02-09</minDate>
    <maxDate>2010-06-22</maxDate>
    <latitude>38.5451</latitude>
    <longitude>-122.7917</longitude>
    <elevation>43</elevation>
    <locationLabels>
      <type>CNTRY</type>
      <id>FIPS:US</id>
      <displayName>United States</displayName>
    </locationLabels>
    <coverage>0.6834</coverage>
  </station>
  <station>
    <id>GHCND:US1COWE0119</id>
    <displayName>WINDSOR 0.3 SE, CO US</displayName>
    <minDate>2000-04-16</minDate>
    <maxDate>2002-10-08</maxDate>
    <latitude>40.477</latitude>
    <longitude>-104.9046</longitude>
    <elevation>1467</elevation>
    <locationLabels>
      <type>CNTRY</type>
      <id>FIPS:US</id>
      <displayName>United States</displayName>
    </locationLabels>
    <coverage>0.4238</coverage>
  </station>
  <station>
    <id>GHCND:US1CASN0063</id>
    <displayName>WINDSOR 0.6 NNE, CA US</displayName>
    <minDate>2009-02-06</minDate>
    <maxDate>2013-01-16</maxDate>
    <latitude>38.5534</latitude>
    <longitude>-122.7929</longitude>
    <elevation>47.9</elevation>
    <locationLabels>
      <type>CNTRY</type>
      <id>FIPS:US</id>
      <displayName>United States</displayName>
    </locationLabels>
    <coverage>0.9896</coverage>
  </station>
  <station>
    <id>GHCND:US1NCBT0001</id>
    <displayName>WINDSOR 0.6 WNW, NC US</displayName>
    <minDate>2007-09-06</minDate>
    <maxDate>2008-09-13</maxDate>
    <latitude>36.0036</latitude>
    <longitude>-76.9533</longitude>
    <elevation>28</elevation>
    <locationLabels>
      <type>CNTRY</type>
      <id>FIPS:US</id>
      <displayName>United States</displayName>
    </locationLabels>
    <coverage>0.9305</coverage>
  </station>
  <station>
    <id>GHCND:US1KYCS0003</id>
    <displayName>WINDSOR 0.8 NW, KY US</displayName>
    <minDate>2009-10-02</minDate>
    <maxDate>2012-12-10</maxDate>
    <latitude>37.1364</latitude>
    <longitude>-84.9214</longitude>
    <elevation>348.1</elevation>
    <locationLabels>
      <type>CNTRY</type>
      <id>FIPS:US</id>
      <displayName>United States</displayName>
    </locationLabels>
    <coverage>0.1304</coverage>
  </station>
  <station>
    <id>GHCND:US1COWE0350</id>
    <displayName>WINDSOR 0.8 SSW, CO US</displayName>
    <minDate>2011-05-19</minDate>
    <maxDate>2013-01-14</maxDate>
    <latitude>40.4739</latitude>
    <longitude>-104.9106</longitude>
    <elevation>1461.2</elevation>
    <locationLabels>
      <type>CNTRY</type>
      <id>FIPS:US</id>
      <displayName>United States</displayName>
    </locationLabels>
    <coverage>0.8863</coverage>
  </station>
  <station>
    <id>GHCND:US1COWE0130</id>
    <displayName>WINDSOR 0.9 W, CO US</displayName>
    <minDate>2003-12-01</minDate>
    <maxDate>2007-01-07</maxDate>
    <latitude>40.4834</latitude>
    <longitude>-104.923</longitude>
    <elevation>1467</elevation>
    <locationLabels>
      <type>CNTRY</type>
      <id>FIPS:US</id>
      <displayName>United States</displayName>
    </locationLabels>
    <coverage>0.9815</coverage>
  </station>
  <station>
    <id>GHCND:US1CASN0050</id>
    <displayName>WINDSOR 1.2 NNW, CA US</displayName>
    <minDate>2009-02-13</minDate>
    <maxDate>2013-01-06</maxDate>
    <latitude>38.5617</latitude>
    <longitude>-122.8055</longitude>
    <elevation>47.2</elevation>
    <locationLabels>
      <type>CNTRY</type>
      <id>FIPS:US</id>
      <displayName>United States</displayName>
    </locationLabels>
    <coverage>0.2697</coverage>
  </station>
  <station>
    <id>GHCND:US1KYCS0002</id>
    <displayName>WINDSOR 1.2 NW, KY US</displayName>
    <minDate>2009-06-10</minDate>
    <maxDate>2012-11-27</maxDate>
    <latitude>37.1338</latitude>
    <longitude>-84.9333</longitude>
    <elevation>338.3</elevation>
    <locationLabels>
      <type>CNTRY</type>
      <id>FIPS:US</id>
      <displayName>United States</displayName>
    </locationLabels>
    <coverage>0.6433</coverage>
  </station>
  <station>
    <id>GHCND:US1CASN0023</id>
    <displayName>WINDSOR 1.4 SE, CA US</displayName>
    <minDate>2009-01-24</minDate>
    <maxDate>2013-01-16</maxDate>
    <latitude>38.5317</latitude>
    <longitude>-122.78</longitude>
    <elevation>42.7</elevation>
    <locationLabels>
      <type>CNTRY</type>
      <id>FIPS:US</id>
      <displayName>United States</displayName>
    </locationLabels>
    <coverage>0.9794</coverage>
  </station>
  <station>
    <id>GHCND:US1CASN0021</id>
    <displayName>WINDSOR 1.5 WNW, CA US</displayName>
    <minDate>2009-01-26</minDate>
    <maxDate>2013-01-06</maxDate>
    <latitude>38.5551</latitude>
    <longitude>-122.8227</longitude>
    <elevation>37.5</elevation>
    <locationLabels>
      <type>CNTRY</type>
      <id>FIPS:US</id>
      <displayName>United States</displayName>
    </locationLabels>
    <coverage>0.6068</coverage>
  </station>
  <station>
    <id>GHCND:US1COWE0359</id>
    <displayName>WINDSOR 1.8 NNW, CO US</displayName>
    <minDate>2011-09-04</minDate>
    <maxDate>2012-12-15</maxDate>
    <latitude>40.5087</latitude>
    <longitude>-104.9219</longitude>
    <elevation>1477.1</elevation>
    <locationLabels>
      <type>CNTRY</type>
      <id>FIPS:US</id>
      <displayName>United States</displayName>
    </locationLabels>
    <coverage>0.3475</coverage>
  </station>
  <station>
    <id>GHCND:US1CASN0030</id>
    <displayName>WINDSOR 1.8 SE, CA US</displayName>
    <minDate>2009-02-05</minDate>
    <maxDate>2013-01-06</maxDate>
    <latitude>38.5258</latitude>
    <longitude>-122.7772</longitude>
    <elevation>43.3</elevation>
    <locationLabels>
      <type>CNTRY</type>
      <id>FIPS:US</id>
      <displayName>United States</displayName>
    </locationLabels>
    <coverage>0.1878</coverage>
  </station>
  <station>
    <id>GHCND:US1COLR0753</id>
    <displayName>WINDSOR 2.6 SW, CO US</displayName>
    <minDate>2007-09-06</minDate>
    <maxDate>2012-09-30</maxDate>
    <latitude>40.4638</latitude>
    <longitude>-104.9477</longitude>
    <elevation>1495</elevation>
    <locationLabels>
      <type>CNTRY</type>
      <id>FIPS:US</id>
      <displayName>United States</displayName>
    </locationLabels>
    <coverage>0.926</coverage>
  </station>
  <station>
    <id>GHCND:US1COLR0747</id>
    <displayName>WINDSOR 2.6 WSW, CO US</displayName>
    <minDate>2007-04-11</minDate>
    <maxDate>2012-09-27</maxDate>
    <latitude>40.472</latitude>
    <longitude>-104.952</longitude>
    <elevation>1477.4</elevation>
    <locationLabels>
      <type>CNTRY</type>
      <id>FIPS:US</id>
      <displayName>United States</displayName>
    </locationLabels>
    <coverage>0.1082</coverage>
  </station>
  <station>
    <id>GHCND:US1COWE0145</id>
    <displayName>WINDSOR 3.0 ENE, CO US</displayName>
    <minDate>2000-05-20</minDate>
    <maxDate>2003-06-07</maxDate>
    <latitude>40.4945</latitude>
    <longitude>-104.8582</longitude>
    <elevation>1474.9</elevation>
    <locationLabels>
      <type>CNTRY</type>
      <id>FIPS:US</id>
      <displayName>United States</displayName>
    </locationLabels>
    <coverage>0.2926</coverage>
  </station>
  <station>
    <id>GHCND:US1COLR0093</id>
    <displayName>WINDSOR 3.4 SW, CO US</displayName>
    <minDate>2004-02-17</minDate>
    <maxDate>2013-01-16</maxDate>
    <latitude>40.443</latitude>
    <longitude>-104.948</longitude>
    <elevation>1516.1</elevation>
    <locationLabels>
      <type>CNTRY</type>
      <id>FIPS:US</id>
      <displayName>United States</displayName>
    </locationLabels>
    <coverage>0.8707</coverage>
  </station>
  <station>
    <id>GHCND:US1MABE0001</id>
    <displayName>WINDSOR 3.8 NE, MA US</displayName>
    <minDate>2009-03-08</minDate>
    <maxDate>2011-01-28</maxDate>
    <latitude>42.5281</latitude>
    <longitude>-72.9869</longitude>
    <elevation>501.1</elevation>
    <locationLabels>
      <type>CNTRY</type>
      <id>FIPS:US</id>
      <displayName>United States</displayName>
    </locationLabels>
    <coverage>0.8569</coverage>
  </station>
  <station>
    <id>GHCND:US1COLR0845</id>
    <displayName>WINDSOR 3.8 WSW, CO US</displayName>
    <minDate>2009-07-25</minDate>
    <maxDate>2013-01-13</maxDate>
    <latitude>40.4721</latitude>
    <longitude>-104.9772</longitude>
    <elevation>1508.5</elevation>
    <locationLabels>
      <type>CNTRY</type>
      <id>FIPS:US</id>
      <displayName>United States</displayName>
    </locationLabels>
    <coverage>0.9456</coverage>
  </station>
  <station>
    <id>GHCND:US1COLR0680</id>
    <displayName>WINDSOR 3.9 WSW, CO US</displayName>
    <minDate>2006-02-16</minDate>
    <maxDate>2006-08-15</maxDate>
    <latitude>40.4701</latitude>
    <longitude>-104.9779</longitude>
    <elevation>1512.1</elevation>
    <locationLabels>
      <type>CNTRY</type>
      <id>FIPS:US</id>
      <displayName>United States</displayName>
    </locationLabels>
    <coverage>0.7182</coverage>
  </station>
  <station>
    <id>GHCND:US1COWE0097</id>
    <displayName>WINDSOR 4 NE, CO US</displayName>
    <minDate>2000-05-09</minDate>
    <maxDate>2001-07-24</maxDate>
    <latitude>40.5228</latitude>
    <longitude>-104.8558</longitude>
    <elevation>1485.9</elevation>
    <locationLabels>
      <type>CNTRY</type>
      <id>FIPS:US</id>
      <displayName>United States</displayName>
    </locationLabels>
    <coverage>0.3009</coverage>
  </station>
  <station>
    <id>GHCND:US1MOHN0001</id>
    <displayName>WINDSOR 7.1 SSW, MO US</displayName>
    <minDate>2007-06-27</minDate>
    <maxDate>2012-04-22</maxDate>
    <latitude>38.4336</latitude>
    <longitude>-93.5532</longitude>
    <elevation>243.8</elevation>
    <locationLabels>
      <type>CNTRY</type>
      <id>FIPS:US</id>
      <displayName>United States</displayName>
    </locationLabels>
    <coverage>0.6583</coverage>
  </station>
  <station>
    <id>GHCND:US1NYBM0021</id>
    <displayName>WINDSOR 8.0 SE, NY US</displayName>
    <minDate>2009-01-21</minDate>
    <maxDate>2013-01-16</maxDate>
    <latitude>42.0099</latitude>
    <longitude>-75.5142</longitude>
    <elevation>507.8</elevation>
    <locationLabels>
      <type>CNTRY</type>
      <id>FIPS:US</id>
      <displayName>United States</displayName>
    </locationLabels>
    <coverage>0.9595</coverage>
  </station>
  <station>
    <id>GHCND:CA006139533</id>
    <displayName>WINDSOR FORD PLANT, US</displayName>
    <minDate>1980-11-01</minDate>
    <maxDate>1993-11-30</maxDate>
    <latitude>42.33</latitude>
    <longitude>-83.02</longitude>
    <elevation>175</elevation>
    <locationLabels>
      <type>CNTRY</type>
      <id>FIPS:US</id>
      <displayName>United States</displayName>
    </locationLabels>
    <coverage>0.9075</coverage>
  </station>
  <station>
    <id>GHCND:US1IAPK0071</id>
    <displayName>WINDSOR HEIGHTS 0.2 W, IA US</displayName>
    <minDate>2011-08-21</minDate>
    <maxDate>2012-05-26</maxDate>
    <latitude>41.6047</latitude>
    <longitude>-93.7151</longitude>
    <elevation>264</elevation>
    <locationLabels>
      <type>CNTRY</type>
      <id>FIPS:US</id>
      <displayName>United States</displayName>
    </locationLabels>
    <coverage>0.4179</coverage>
  </station>
  <station>
    <id>GHCND:US1IAPK0001</id>
    <displayName>WINDSOR HEIGHTS 0.3 NNE, IA US</displayName>
    <minDate>2007-07-30</minDate>
    <maxDate>2013-01-16</maxDate>
    <latitude>41.6092</latitude>
    <longitude>-93.7102</longitude>
    <elevation>263</elevation>
    <locationLabels>
      <type>CNTRY</type>
      <id>FIPS:US</id>
      <displayName>United States</displayName>
    </locationLabels>
    <coverage>0.9975</coverage>
  </station>
  <station>
    <id>GHCND:US1IAPK0026</id>
    <displayName>WINDSOR HEIGHTS 0.8 NE, IA US</displayName>
    <minDate>2007-08-01</minDate>
    <maxDate>2008-10-07</maxDate>
    <latitude>41.6148</latitude>
    <longitude>-93.7029</longitude>
    <elevation>262.1</elevation>
    <locationLabels>
      <type>CNTRY</type>
      <id>FIPS:US</id>
      <displayName>United States</displayName>
    </locationLabels>
    <coverage>0.7512</coverage>
  </station>
  <station>
    <id>GHCND:US1IAPK0037</id>
    <displayName>WINDSOR HEIGHTS 0.8 SE, IA US</displayName>
    <minDate>2007-08-01</minDate>
    <maxDate>2008-02-22</maxDate>
    <latitude>41.5981</latitude>
    <longitude>-93.6995</longitude>
    <elevation>263</elevation>
    <locationLabels>
      <type>CNTRY</type>
      <id>FIPS:US</id>
      <displayName>United States</displayName>
    </locationLabels>
    <coverage>0.8883</coverage>
  </station>
  <station>
    <id>GHCND:USC00239034</id>
    <displayName>WINDSOR NUMBER 2, MO US</displayName>
    <minDate>2010-01-01</minDate>
    <maxDate>2013-01-16</maxDate>
    <latitude>38.53306</latitude>
    <longitude>-93.53139</longitude>
    <elevation>267.3</elevation>
    <locationLabels>
      <type>CNTRY</type>
      <id>FIPS:US</id>
      <displayName>United States</displayName>
    </locationLabels>
    <coverage>0.991</coverage>
  </station>
  <station>
    <id>GHCND:USC00059147</id>
    <displayName>WINDSOR, CO US</displayName>
    <minDate>1941-07-01</minDate>
    <maxDate>1990-03-31</maxDate>
    <latitude>40.46667</latitude>
    <longitude>-104.9</longitude>
    <elevation>1457.2</elevation>
    <locationLabels>
      <type>CNTRY</type>
      <id>FIPS:US</id>
      <displayName>United States</displayName>
    </locationLabels>
    <coverage>0.9635</coverage>
  </station>
  <station>
    <id>GHCND:USC00119354</id>
    <displayName>WINDSOR, IL US</displayName>
    <minDate>1904-01-01</minDate>
    <maxDate>2013-01-16</maxDate>
    <latitude>39.4459</latitude>
    <longitude>-88.5962</longitude>
    <elevation>210.3</elevation>
    <locationLabels>
      <type>CNTRY</type>
      <id>FIPS:US</id>
      <displayName>United States</displayName>
    </locationLabels>
    <coverage>0.9912</coverage>
  </station>
  <station>
    <id>GHCND:USC00239032</id>
    <displayName>WINDSOR, MO US</displayName>
    <minDate>1893-01-01</minDate>
    <maxDate>2009-12-21</maxDate>
    <latitude>38.5319</latitude>
    <longitude>-93.5241</longitude>
    <elevation>256</elevation>
    <locationLabels>
      <type>CNTRY</type>
      <id>FIPS:US</id>
      <displayName>United States</displayName>
    </locationLabels>
    <coverage>0.5886</coverage>
  </station>
  <station>
    <id>GHCND:US1TXCLY002</id>
    <displayName>WINDTHORST 7.1 SSE, TX US</displayName>
    <minDate>2009-03-27</minDate>
    <maxDate>2010-09-01</maxDate>
    <latitude>33.4744</latitude>
    <longitude>-98.4122</longitude>
    <elevation>344.1</elevation>
    <locationLabels>
      <type>CNTRY</type>
      <id>FIPS:US</id>
      <displayName>United States</displayName>
    </locationLabels>
    <coverage>0.7366</coverage>
  </station>
  <station>
    <id>GHCND:US1KYJF0027</id>
    <displayName>WINDY HILLS 0.4 SSE, KY US</displayName>
    <minDate>2010-07-28</minDate>
    <maxDate>2013-01-16</maxDate>
    <latitude>38.2686</latitude>
    <longitude>-85.6329</longitude>
    <elevation>170.1</elevation>
    <locationLabels>
      <type>CNTRY</type>
      <id>FIPS:US</id>
      <displayName>United States</displayName>
    </locationLabels>
    <coverage>0.4436</coverage>
  </station>
  <station>
    <id>GHCND:USS0005G05S</id>
    <displayName>WINDY PEAK, WY US</displayName>
    <minDate>1982-10-01</minDate>
    <maxDate>2013-01-13</maxDate>
    <latitude>42.2833</latitude>
    <longitude>-105.5833</longitude>
    <elevation>2407.9</elevation>
    <locationLabels>
      <type>CNTRY</type>
      <id>FIPS:US</id>
      <displayName>United States</displayName>
    </locationLabels>
    <coverage>0.906</coverage>
  </station>
  <station>
    <id>GHCND:USC00359470</id>
    <displayName>WINELAND LAKE, OR US</displayName>
    <minDate>1941-02-01</minDate>
    <maxDate>1943-09-30</maxDate>
    <latitude>44.983333</latitude>
    <longitude>-119.866667</longitude>
    <elevation>1280.2</elevation>
    <locationLabels>
      <type>CNTRY</type>
      <id>FIPS:US</id>
      <displayName>United States</displayName>
    </locationLabels>
    <coverage>0.7994</coverage>
  </station>
  <station>
    <id>GHCND:US1WVPT0006</id>
    <displayName>WINFIELD 0.7 W, WV US</displayName>
    <minDate>2011-04-26</minDate>
    <maxDate>2012-12-10</maxDate>
    <latitude>38.5249</latitude>
    <longitude>-81.8965</longitude>
    <elevation>181.1</elevation>
    <locationLabels>
      <type>CNTRY</type>
      <id>FIPS:US</id>
      <displayName>United States</displayName>
    </locationLabels>
    <coverage>0.4202</coverage>
  </station>
  <station>
    <id>GHCND:US1INLK0047</id>
    <displayName>WINFIELD 1.2 NE, IN US</displayName>
    <minDate>2009-11-15</minDate>
    <maxDate>2013-01-16</maxDate>
    <latitude>41.4209</latitude>
    <longitude>-87.2639</longitude>
    <elevation>216.7</elevation>
    <locationLabels>
      <type>CNTRY</type>
      <id>FIPS:US</id>
      <displayName>United States</displayName>
    </locationLabels>
    <coverage>0.7817</coverage>
  </station>
  <station>
    <id>GHCND:USC00018998</id>
    <displayName>WINFIELD 2 SW, AL US</displayName>
    <minDate>1923-04-01</minDate>
    <maxDate>2013-01-07</maxDate>
    <latitude>33.911</latitude>
    <longitude>-87.8469</longitude>
    <elevation>142.6</elevation>
    <locationLabels>
      <type>CNTRY</type>
      <id>FIPS:US</id>
      <displayName>United States</displayName>
    </locationLabels>
    <coverage>0.8691</coverage>
  </station>
  <station>
    <id>GHCND:US1KSCL0004</id>
    <displayName>WINFIELD 2.5 SSW, KS US</displayName>
    <minDate>2007-06-14</minDate>
    <maxDate>2012-08-01</maxDate>
    <latitude>37.2384</latitude>
    <longitude>-96.993</longitude>
    <elevation>348.1</elevation>
    <locationLabels>
      <type>CNTRY</type>
      <id>FIPS:US</id>
      <displayName>United States</displayName>
    </locationLabels>
    <coverage>0.7223</coverage>
  </station>
  <station>
    <id>GHCND:US1KSCL0016</id>
    <displayName>WINFIELD 3.4 WSW, KS US</displayName>
    <minDate>2011-07-13</minDate>
    <maxDate>2012-11-02</maxDate>
    <latitude>37.2435</latitude>
    <longitude>-97.0218</longitude>
    <elevation>356.9</elevation>
    <locationLabels>
      <type>CNTRY</type>
      <id>FIPS:US</id>
      <displayName>United States</displayName>
    </locationLabels>
    <coverage>0.6868</coverage>
  </station>
  <station>
    <id>GHCND:US1KSCL0012</id>
    <displayName>WINFIELD 5.9 SW, KS US</displayName>
    <minDate>2009-05-29</minDate>
    <maxDate>2013-01-16</maxDate>
    <latitude>37.2054</latitude>
    <longitude>-97.041</longitude>
    <elevation>368.8</elevation>
    <locationLabels>
      <type>CNTRY</type>
      <id>FIPS:US</id>
      <displayName>United States</displayName>
    </locationLabels>
    <coverage>0.693</coverage>
  </station>
  <station>
    <id>GHCND:US1ALFY0001</id>
    <displayName>WINFIELD 6.9 S, AL US</displayName>
    <minDate>2007-11-13</minDate>
    <maxDate>2013-01-16</maxDate>
    <latitude>33.8303</latitude>
    <longitude>-87.8117</longitude>
    <elevation>157.9</elevation>
    <locationLabels>
      <type>CNTRY</type>
      <id>FIPS:US</id>
      <displayName>United States</displayName>
    </locationLabels>
    <coverage>0.9968</coverage>
  </station>
  <station>
    <id>GHCND:US1KSCL0008</id>
    <displayName>WINFIELD 7.9 W, KS US</displayName>
    <minDate>2009-03-06</minDate>
    <maxDate>2013-01-16</maxDate>
    <latitude>37.2596</latitude>
    <longitude>-97.1112</longitude>
    <elevation>359.7</elevation>
    <locationLabels>
      <type>CNTRY</type>
      <id>FIPS:US</id>
      <displayName>United States</displayName>
    </locationLabels>
    <coverage>0.9448</coverage>
  </station>
  <station>
    <id>GHCND:US1KSCL0018</id>
    <displayName>WINFIELD 9.8 NE, KS US</displayName>
    <minDate>2011-09-06</minDate>
    <maxDate>2013-01-16</maxDate>
    <latitude>37.3689</latitude>
    <longitude>-96.8431</longitude>
    <elevation>398.7</elevation>
    <locationLabels>
      <type>CNTRY</type>
      <id>FIPS:US</id>
      <displayName>United States</displayName>
    </locationLabels>
    <coverage>0.9299</coverage>
  </station>
  <station>
    <id>GHCND:USC00469683</id>
    <displayName>WINFIELD LOCKS, WV US</displayName>
    <minDate>1938-01-01</minDate>
    <maxDate>2013-01-16</maxDate>
    <latitude>38.5277</latitude>
    <longitude>-81.9154</longitude>
    <elevation>186.2</elevation>
    <locationLabels>
      <type>CNTRY</type>
      <id>FIPS:US</id>
      <displayName>United States</displayName>
    </locationLabels>
    <coverage>0.9858</coverage>
  </station>
  <station>
    <id>GHCND:USW00013932</id>
    <displayName>WINFIELD STROTHER FIELD AIRPORT, KS US</displayName>
    <minDate>1996-07-01</minDate>
    <maxDate>2013-01-14</maxDate>
    <latitude>37.16806</latitude>
    <longitude>-97.03694</longitude>
    <elevation>350.5</elevation>
    <locationLabels>
      <type>CNTRY</type>
      <id>FIPS:US</id>
      <displayName>United States</displayName>
    </locationLabels>
    <coverage>0.9841</coverage>
  </station>
  <station>
    <id>GHCND:USC00148964</id>
    <displayName>WINFIELD, KS US</displayName>
    <minDate>1894-03-01</minDate>
    <maxDate>2013-01-11</maxDate>
    <latitude>37.2888</latitude>
    <longitude>-96.9408</longitude>
    <elevation>376.4</elevation>
    <locationLabels>
      <type>CNTRY</type>
      <id>FIPS:US</id>
      <displayName>United States</displayName>
    </locationLabels>
    <coverage>0.9782</coverage>
  </station>
  <station>
    <id>GHCND:USC00239043</id>
    <displayName>WINFIELD, MO US</displayName>
    <minDate>1931-03-27</minDate>
    <maxDate>1934-02-28</maxDate>
    <latitude>38.997272</latitude>
    <longitude>-90.738458</longitude>
    <elevation>136.9</elevation>
    <locationLabels>
      <type>CNTRY</type>
      <id>FIPS:US</id>
      <displayName>United States</displayName>
    </locationLabels>
    <coverage>0.9972</coverage>
  </station>
  <station>
    <id>GHCND:USC00419826</id>
    <displayName>WINFIELD, TX US</displayName>
    <minDate>1910-01-01</minDate>
    <maxDate>1936-10-31</maxDate>
    <latitude>33.15</latitude>
    <longitude>-95.13333</longitude>
    <elevation>146</elevation>
    <locationLabels>
      <type>CNTRY</type>
      <id>FIPS:US</id>
      <displayName>United States</displayName>
    </locationLabels>
    <coverage>0.9967</coverage>
  </station>
  <station>
    <id>GHCND:USC00399355</id>
    <displayName>WINFRED 2 S, SD US</displayName>
    <minDate>2006-03-01</minDate>
    <maxDate>2012-12-28</maxDate>
    <latitude>43.9708</latitude>
    <longitude>-97.3488</longitude>
    <elevation>519.7</elevation>
    <locationLabels>
      <type>CNTRY</type>
      <id>FIPS:US</id>
      <displayName>United States</displayName>
    </locationLabels>
    <coverage>0.9715</coverage>
  </station>
  <station>
    <id>GHCND:USC00037936</id>
    <displayName>WINFREY, AR US</displayName>
    <minDate>1948-06-01</minDate>
    <maxDate>1951-09-30</maxDate>
    <latitude>35.73333</latitude>
    <longitude>-94.1</longitude>
    <elevation>351.1</elevation>
    <locationLabels>
      <type>CNTRY</type>
      <id>FIPS:US</id>
      <displayName>United States</displayName>
    </locationLabels>
    <coverage>0.8381</coverage>
  </station>
  <station>
    <id>GHCND:USC00037950</id>
    <displayName>WING, AR US</displayName>
    <minDate>1946-01-02</minDate>
    <maxDate>1951-09-30</maxDate>
    <latitude>34.95</latitude>
    <longitude>-93.46667</longitude>
    <elevation>107</elevation>
    <locationLabels>
      <type>CNTRY</type>
      <id>FIPS:US</id>
      <displayName>United States</displayName>
    </locationLabels>
    <coverage>0.5977</coverage>
  </station>
  <station>
    <id>GHCND:US1KYGV0001</id>
    <displayName>WINGO 2.2 SE, KY US</displayName>
    <minDate>2010-04-04</minDate>
    <maxDate>2013-01-15</maxDate>
    <latitude>36.6172</latitude>
    <longitude>-88.7143</longitude>
    <elevation>159.4</elevation>
    <locationLabels>
      <type>CNTRY</type>
      <id>FIPS:US</id>
      <displayName>United States</displayName>
    </locationLabels>
    <coverage>0.9538</coverage>
  </station>
  <station>
    <id>GHCND:USC00249033</id>
    <displayName>WINIFRED, MT US</displayName>
    <minDate>1921-11-01</minDate>
    <maxDate>2012-09-30</maxDate>
    <latitude>47.5589</latitude>
    <longitude>-109.3758</longitude>
    <elevation>988.5</elevation>
    <locationLabels>
      <type>CNTRY</type>
      <id>FIPS:US</id>
      <displayName>United States</displayName>
    </locationLabels>
    <coverage>0.968</coverage>
  </station>
  <station>
    <id>GHCND:US1AZPN0028</id>
    <displayName>WINKELMAN 10.6 SSE, AZ US</displayName>
    <minDate>2009-11-14</minDate>
    <maxDate>2011-12-04</maxDate>
    <latitude>32.8367</latitude>
    <longitude>-110.7021</longitude>
    <elevation>664.8</elevation>
    <locationLabels>
      <type>CNTRY</type>
      <id>FIPS:US</id>
      <displayName>United States</displayName>
    </locationLabels>
    <coverage>0.1398</coverage>
  </station>
  <station>
    <id>GHCND:USC00029420</id>
    <displayName>WINKELMAN 6 S, AZ US</displayName>
    <minDate>1893-01-01</minDate>
    <maxDate>1980-05-31</maxDate>
    <latitude>32.91667</latitude>
    <longitude>-110.71667</longitude>
    <elevation>634</elevation>
    <locationLabels>
      <type>CNTRY</type>
      <id>FIPS:US</id>
      <displayName>United States</displayName>
    </locationLabels>
    <coverage>0.6605</coverage>
  </station>
  <station>
    <id>GHCND:USC00029425</id>
    <displayName>WINKLEMAN 12 SE, AZ US</displayName>
    <minDate>1985-03-01</minDate>
    <maxDate>1995-02-28</maxDate>
    <latitude>32.86667</latitude>
    <longitude>-110.6</longitude>
    <elevation>789.4</elevation>
    <locationLabels>
      <type>CNTRY</type>
      <id>FIPS:US</id>
      <displayName>United States</displayName>
    </locationLabels>
    <coverage>0.9989</coverage>
  </station>
  <station>
    <id>GHCND:USW00023040</id>
    <displayName>WINKLER CO AIRPORT, TX US</displayName>
    <minDate>1938-06-01</minDate>
    <maxDate>2013-01-15</maxDate>
    <latitude>31.7801</latitude>
    <longitude>-103.2018</longitude>
    <elevation>855.6</elevation>
    <locationLabels>
      <type>CNTRY</type>
      <id>FIPS:US</id>
      <displayName>United States</displayName>
    </locationLabels>
    <coverage>0.9261</coverage>
  </station>
  <station>
    <id>GHCND:US1WALW0013</id>
    <displayName>WINLOCK 0.5 W, WA US</displayName>
    <minDate>2008-12-31</minDate>
    <maxDate>2013-01-10</maxDate>
    <latitude>46.4924</latitude>
    <longitude>-122.9463</longitude>
    <elevation>130.5</elevation>
    <locationLabels>
      <type>CNTRY</type>
      <id>FIPS:US</id>
      <displayName>United States</displayName>
    </locationLabels>
    <coverage>0.5394</coverage>
  </station>
  <station>
    <id>GHCND:US1NCBR0012</id>
    <displayName>WINNABOW 3.6 SE, NC US</displayName>
    <minDate>2011-03-11</minDate>
    <maxDate>2013-01-16</maxDate>
    <latitude>34.1073</latitude>
    <longitude>-78.0559</longitude>
    <elevation>10.1</elevation>
    <locationLabels>
      <type>CNTRY</type>
      <id>FIPS:US</id>
      <displayName>United States</displayName>
    </locationLabels>
    <coverage>0.8968</coverage>
  </station>
  <station>
    <id>GHCND:USC00219046</id>
    <displayName>WINNEBAGO, MN US</displayName>
    <minDate>1898-10-01</minDate>
    <maxDate>2013-01-16</maxDate>
    <latitude>43.7639</latitude>
    <longitude>-94.1662</longitude>
    <elevation>338.3</elevation>
    <locationLabels>
      <type>CNTRY</type>
      <id>FIPS:US</id>
      <displayName>United States</displayName>
    </locationLabels>
    <coverage>0.9792</coverage>
  </station>
  <station>
    <id>GHCND:USC00259335</id>
    <displayName>WINNEBAGO, NE US</displayName>
    <minDate>1900-02-03</minDate>
    <maxDate>1972-11-30</maxDate>
    <latitude>42.25</latitude>
    <longitude>-96.46667</longitude>
    <elevation>363</elevation>
    <locationLabels>
      <type>CNTRY</type>
      <id>FIPS:US</id>
      <displayName>United States</displayName>
    </locationLabels>
    <coverage>0.4705</coverage>
  </station>
</stationCollection>
