<?xml version="1.0" encoding="UTF-8" standalone="yes"?>
<stationCollection totalCount="46020" pageCount="461" pageSize="100" page="8">
  <station>
    <id>GHCND:USC00320136</id>
    <displayName>ALMONT 7 W, ND US</displayName>
    <minDate>1943-09-01</minDate>
    <maxDate>1984-09-30</maxDate>
    <latitude>46.71667</latitude>
    <longitude>-101.65</longitude>
    <elevation>702</elevation>
    <locationLabels>
      <type>CNTRY</type>
      <id>FIPS:US</id>
      <displayName>United States</displayName>
    </locationLabels>
    <coverage>0.9915</coverage>
  </station>
  <station>
    <id>GHCND:USC00200159</id>
    <displayName>ALMONT, MI US</displayName>
    <minDate>1978-05-01</minDate>
    <maxDate>1990-08-31</maxDate>
    <latitude>42.91667</latitude>
    <longitude>-83.03333</longitude>
    <elevation>251.2</elevation>
    <locationLabels>
      <type>CNTRY</type>
      <id>FIPS:US</id>
      <displayName>United States</displayName>
    </locationLabels>
    <coverage>0.986</coverage>
  </station>
  <station>
    <id>GHCND:USC00320127</id>
    <displayName>ALMONT, ND US</displayName>
    <minDate>1984-12-01</minDate>
    <maxDate>2010-11-30</maxDate>
    <latitude>46.7252</latitude>
    <longitude>-101.505</longitude>
    <elevation>583.7</elevation>
    <locationLabels>
      <type>CNTRY</type>
      <id>FIPS:US</id>
      <displayName>United States</displayName>
    </locationLabels>
    <coverage>0.9655</coverage>
  </station>
  <station>
    <id>GHCND:USC00350138</id>
    <displayName>ALOHA RANCH, OR US</displayName>
    <minDate>1915-04-01</minDate>
    <maxDate>1917-06-29</maxDate>
    <latitude>42.366667</latitude>
    <longitude>-122.766667</longitude>
    <elevation>396.2</elevation>
    <locationLabels>
      <type>CNTRY</type>
      <id>FIPS:US</id>
      <displayName>United States</displayName>
    </locationLabels>
    <coverage>0.7576</coverage>
  </station>
  <station>
    <id>GHCND:USC00510172</id>
    <displayName>ALOHA STADIUM HALAWA, HI US</displayName>
    <minDate>1975-10-01</minDate>
    <maxDate>1981-05-31</maxDate>
    <latitude>21.38333</latitude>
    <longitude>-157.93333</longitude>
    <elevation>11.9</elevation>
    <locationLabels>
      <type>CNTRY</type>
      <id>FIPS:US</id>
      <displayName>United States</displayName>
    </locationLabels>
    <coverage>1</coverage>
  </station>
  <station>
    <id>GHCND:US1ARBN0007</id>
    <displayName>ALPENA 0.2 NE, AR US</displayName>
    <minDate>2010-01-15</minDate>
    <maxDate>2013-01-12</maxDate>
    <latitude>36.2946</latitude>
    <longitude>-93.291</longitude>
    <elevation>345.3</elevation>
    <locationLabels>
      <type>CNTRY</type>
      <id>FIPS:US</id>
      <displayName>United States</displayName>
    </locationLabels>
    <coverage>0.9324</coverage>
  </station>
  <station>
    <id>GHCND:USC00460143</id>
    <displayName>ALPENA 1 NW, WV US</displayName>
    <minDate>1929-10-01</minDate>
    <maxDate>1973-08-31</maxDate>
    <latitude>38.91667</latitude>
    <longitude>-79.66667</longitude>
    <elevation>921.1</elevation>
    <locationLabels>
      <type>CNTRY</type>
      <id>FIPS:US</id>
      <displayName>United States</displayName>
    </locationLabels>
    <coverage>0.8114</coverage>
  </station>
  <station>
    <id>GHCND:US1MIAP0001</id>
    <displayName>ALPENA 1.6 SSW, MI US</displayName>
    <minDate>2008-10-25</minDate>
    <maxDate>2013-01-16</maxDate>
    <latitude>45.0516</latitude>
    <longitude>-83.4488</longitude>
    <elevation>178.9</elevation>
    <locationLabels>
      <type>CNTRY</type>
      <id>FIPS:US</id>
      <displayName>United States</displayName>
    </locationLabels>
    <coverage>0.9307</coverage>
  </station>
  <station>
    <id>GHCND:USC00200166</id>
    <displayName>ALPENA 10 NW, MI US</displayName>
    <minDate>1998-05-01</minDate>
    <maxDate>2013-01-16</maxDate>
    <latitude>45.1627</latitude>
    <longitude>-83.5905</longitude>
    <elevation>225.6</elevation>
    <locationLabels>
      <type>CNTRY</type>
      <id>FIPS:US</id>
      <displayName>United States</displayName>
    </locationLabels>
    <coverage>0.7036</coverage>
  </station>
  <station>
    <id>GHCND:USW00094849</id>
    <displayName>ALPENA CO REGIONAL AIRPORT, MI US</displayName>
    <minDate>1916-10-21</minDate>
    <maxDate>2013-01-15</maxDate>
    <latitude>45.0716</latitude>
    <longitude>-83.5644</longitude>
    <elevation>208.5</elevation>
    <locationLabels>
      <type>CNTRY</type>
      <id>FIPS:US</id>
      <displayName>United States</displayName>
    </locationLabels>
    <coverage>0.9925</coverage>
  </station>
  <station>
    <id>GHCND:USW00014814</id>
    <displayName>ALPENA WASTEWATER PLANT, MI US</displayName>
    <minDate>1948-01-01</minDate>
    <maxDate>2012-11-30</maxDate>
    <latitude>45.0605</latitude>
    <longitude>-83.428</longitude>
    <elevation>179.8</elevation>
    <locationLabels>
      <type>CNTRY</type>
      <id>FIPS:US</id>
      <displayName>United States</displayName>
    </locationLabels>
    <coverage>0.978</coverage>
  </station>
  <station>
    <id>GHCND:USC00100199</id>
    <displayName>ALPHA 1 NE, ID US</displayName>
    <minDate>1911-02-06</minDate>
    <maxDate>1953-11-18</maxDate>
    <latitude>44.4</latitude>
    <longitude>-115.98333</longitude>
    <elevation>1457.9</elevation>
    <locationLabels>
      <type>CNTRY</type>
      <id>FIPS:US</id>
      <displayName>United States</displayName>
    </locationLabels>
    <coverage>0.7249</coverage>
  </station>
  <station>
    <id>GHCND:USC00150122</id>
    <displayName>ALPHA, KY US</displayName>
    <minDate>1893-12-01</minDate>
    <maxDate>1921-05-31</maxDate>
    <latitude>36.73333</latitude>
    <longitude>-85.01667</longitude>
    <elevation>247.2</elevation>
    <locationLabels>
      <type>CNTRY</type>
      <id>FIPS:US</id>
      <displayName>United States</displayName>
    </locationLabels>
    <coverage>0.9586</coverage>
  </station>
  <station>
    <id>GHCND:USC00350139</id>
    <displayName>ALPHA, OR US</displayName>
    <minDate>1899-08-01</minDate>
    <maxDate>1907-12-31</maxDate>
    <latitude>44.166667</latitude>
    <longitude>-123.75</longitude>
    <elevation>76.2</elevation>
    <locationLabels>
      <type>CNTRY</type>
      <id>FIPS:US</id>
      <displayName>United States</displayName>
    </locationLabels>
    <coverage>0.9135</coverage>
  </station>
  <station>
    <id>GHCND:US1GAFT0009</id>
    <displayName>ALPHARETTA 1.0 NW, GA US</displayName>
    <minDate>2008-05-27</minDate>
    <maxDate>2010-09-13</maxDate>
    <latitude>34.0796</latitude>
    <longitude>-84.2833</longitude>
    <elevation>316.1</elevation>
    <locationLabels>
      <type>CNTRY</type>
      <id>FIPS:US</id>
      <displayName>United States</displayName>
    </locationLabels>
    <coverage>0.9095</coverage>
  </station>
  <station>
    <id>GHCND:USC00093363</id>
    <displayName>ALPHARETTA 2 NNW, GA US</displayName>
    <minDate>1948-08-01</minDate>
    <maxDate>1951-09-30</maxDate>
    <latitude>34.11667</latitude>
    <longitude>-84.3</longitude>
    <elevation>335.9</elevation>
    <locationLabels>
      <type>CNTRY</type>
      <id>FIPS:US</id>
      <displayName>United States</displayName>
    </locationLabels>
    <coverage>0.9619</coverage>
  </station>
  <station>
    <id>GHCND:US1GAFT0003</id>
    <displayName>ALPHARETTA 2.5 E, GA US</displayName>
    <minDate>2008-04-29</minDate>
    <maxDate>2009-05-07</maxDate>
    <latitude>34.0632</latitude>
    <longitude>-84.2296</longitude>
    <elevation>349.6</elevation>
    <locationLabels>
      <type>CNTRY</type>
      <id>FIPS:US</id>
      <displayName>United States</displayName>
    </locationLabels>
    <coverage>0.3075</coverage>
  </station>
  <station>
    <id>GHCND:USC00090219</id>
    <displayName>ALPHARETTA 4 SSW, GA US</displayName>
    <minDate>1901-10-01</minDate>
    <maxDate>2011-07-08</maxDate>
    <latitude>34.10139</latitude>
    <longitude>-84.35056</longitude>
    <elevation>346.9</elevation>
    <locationLabels>
      <type>CNTRY</type>
      <id>FIPS:US</id>
      <displayName>United States</displayName>
    </locationLabels>
    <coverage>0.4183</coverage>
  </station>
  <station>
    <id>GHCND:US1GAFT0027</id>
    <displayName>ALPHARETTA 5.9 N, GA US</displayName>
    <minDate>2010-04-09</minDate>
    <maxDate>2011-09-03</maxDate>
    <latitude>34.1522</latitude>
    <longitude>-84.2917</longitude>
    <elevation>341.7</elevation>
    <locationLabels>
      <type>CNTRY</type>
      <id>FIPS:US</id>
      <displayName>United States</displayName>
    </locationLabels>
    <coverage>0.3353</coverage>
  </station>
  <station>
    <id>GHCND:US1GACE0022</id>
    <displayName>ALPHARETTA 8.6 N, GA US</displayName>
    <minDate>2010-12-19</minDate>
    <maxDate>2013-01-16</maxDate>
    <latitude>34.1929</latitude>
    <longitude>-84.2707</longitude>
    <elevation>356</elevation>
    <locationLabels>
      <type>CNTRY</type>
      <id>FIPS:US</id>
      <displayName>United States</displayName>
    </locationLabels>
    <coverage>0.9776</coverage>
  </station>
  <station>
    <id>GHCND:USC00480124</id>
    <displayName>ALPINE 1 SE, ID US</displayName>
    <minDate>1960-10-01</minDate>
    <maxDate>1966-11-17</maxDate>
    <latitude>43.18333</latitude>
    <longitude>-111.05</longitude>
    <elevation>1713.9</elevation>
    <locationLabels>
      <type>CNTRY</type>
      <id>FIPS:US</id>
      <displayName>United States</displayName>
    </locationLabels>
    <coverage>0.9308</coverage>
  </station>
  <station>
    <id>GHCND:US1WYLN0004</id>
    <displayName>ALPINE 1.6 SE, WY US</displayName>
    <minDate>2004-05-12</minDate>
    <maxDate>2004-09-16</maxDate>
    <latitude>43.1603</latitude>
    <longitude>-111.0087</longitude>
    <elevation>1730</elevation>
    <locationLabels>
      <type>CNTRY</type>
      <id>FIPS:US</id>
      <displayName>United States</displayName>
    </locationLabels>
    <coverage>1</coverage>
  </station>
  <station>
    <id>GHCND:USC00020170</id>
    <displayName>ALPINE 18 SW, AZ US</displayName>
    <minDate>1985-07-01</minDate>
    <maxDate>2012-12-03</maxDate>
    <latitude>33.6391</latitude>
    <longitude>-109.3277</longitude>
    <elevation>2792</elevation>
    <locationLabels>
      <type>CNTRY</type>
      <id>FIPS:US</id>
      <displayName>United States</displayName>
    </locationLabels>
    <coverage>0.2974</coverage>
  </station>
  <station>
    <id>GHCND:USC00120132</id>
    <displayName>ALPINE 2 NE, IN US</displayName>
    <minDate>1949-02-01</minDate>
    <maxDate>2013-01-16</maxDate>
    <latitude>39.5736</latitude>
    <longitude>-85.1583</longitude>
    <elevation>259.1</elevation>
    <locationLabels>
      <type>CNTRY</type>
      <id>FIPS:US</id>
      <displayName>United States</displayName>
    </locationLabels>
    <coverage>0.4437</coverage>
  </station>
  <station>
    <id>GHCND:USC00410176</id>
    <displayName>ALPINE 7 NW, TX US</displayName>
    <minDate>2009-09-01</minDate>
    <maxDate>2013-01-15</maxDate>
    <latitude>30.3703</latitude>
    <longitude>-103.7808</longitude>
    <elevation>1500.2</elevation>
    <locationLabels>
      <type>CNTRY</type>
      <id>FIPS:US</id>
      <displayName>United States</displayName>
    </locationLabels>
    <coverage>0.9903</coverage>
  </station>
  <station>
    <id>GHCND:US1TXBRS001</id>
    <displayName>ALPINE 7.9 SE, TX US</displayName>
    <minDate>2007-09-14</minDate>
    <maxDate>2013-01-15</maxDate>
    <latitude>30.2764</latitude>
    <longitude>-103.5797</longitude>
    <elevation>1567</elevation>
    <locationLabels>
      <type>CNTRY</type>
      <id>FIPS:US</id>
      <displayName>United States</displayName>
    </locationLabels>
    <coverage>0.4587</coverage>
  </station>
  <station>
    <id>GHCND:USC00020174</id>
    <displayName>ALPINE 8 SSE, AZ US</displayName>
    <minDate>1989-11-01</minDate>
    <maxDate>2009-11-30</maxDate>
    <latitude>33.7383</latitude>
    <longitude>-109.1166</longitude>
    <elevation>2051.3</elevation>
    <locationLabels>
      <type>CNTRY</type>
      <id>FIPS:US</id>
      <displayName>United States</displayName>
    </locationLabels>
    <coverage>0.977</coverage>
  </station>
  <station>
    <id>GHCND:USR0000AALP</id>
    <displayName>ALPINE ARIZONA, AZ US</displayName>
    <minDate>2000-02-17</minDate>
    <maxDate>2012-08-30</maxDate>
    <latitude>33.8417</latitude>
    <longitude>-109.1222</longitude>
    <elevation>2447.8</elevation>
    <locationLabels>
      <type>CNTRY</type>
      <id>FIPS:US</id>
      <displayName>United States</displayName>
    </locationLabels>
    <coverage>0.948</coverage>
  </station>
  <station>
    <id>GHCND:USR0000CALP</id>
    <displayName>ALPINE CALIFORNIA, CA US</displayName>
    <minDate>2001-04-09</minDate>
    <maxDate>2012-08-30</maxDate>
    <latitude>32.8336</latitude>
    <longitude>-116.7392</longitude>
    <elevation>622.1</elevation>
    <locationLabels>
      <type>CNTRY</type>
      <id>FIPS:US</id>
      <displayName>United States</displayName>
    </locationLabels>
    <coverage>0.939</coverage>
  </station>
  <station>
    <id>GHCND:USC00500237</id>
    <displayName>ALPINE CREEK LODGE, AK US</displayName>
    <minDate>2011-07-01</minDate>
    <maxDate>2012-11-30</maxDate>
    <latitude>63.0429</latitude>
    <longitude>-147.2479</longitude>
    <elevation>944.9</elevation>
    <locationLabels>
      <type>CNTRY</type>
      <id>FIPS:US</id>
      <displayName>United States</displayName>
    </locationLabels>
    <coverage>0.9287</coverage>
  </station>
  <station>
    <id>GHCND:USC00500238</id>
    <displayName>ALPINE INN, AK US</displayName>
    <minDate>1963-10-01</minDate>
    <maxDate>1971-12-31</maxDate>
    <latitude>61.71667</latitude>
    <longitude>-148.9</longitude>
    <elevation>139.9</elevation>
    <locationLabels>
      <type>CNTRY</type>
      <id>FIPS:US</id>
      <displayName>United States</displayName>
    </locationLabels>
    <coverage>0.8468</coverage>
  </station>
  <station>
    <id>GHCND:USR0000KALP</id>
    <displayName>ALPINE KENTUCKY, KY US</displayName>
    <minDate>2003-04-29</minDate>
    <maxDate>2012-08-31</maxDate>
    <latitude>36.7956</latitude>
    <longitude>-85.3803</longitude>
    <elevation>260</elevation>
    <locationLabels>
      <type>CNTRY</type>
      <id>FIPS:US</id>
      <displayName>United States</displayName>
    </locationLabels>
    <coverage>0.7803</coverage>
  </station>
  <station>
    <id>GHCND:USS0021B48S</id>
    <displayName>ALPINE MEADOWS, WA US</displayName>
    <minDate>1994-10-01</minDate>
    <maxDate>2013-01-07</maxDate>
    <latitude>47.7833</latitude>
    <longitude>-121.7</longitude>
    <elevation>1066.8</elevation>
    <locationLabels>
      <type>CNTRY</type>
      <id>FIPS:US</id>
      <displayName>United States</displayName>
    </locationLabels>
    <coverage>0.9879</coverage>
  </station>
  <station>
    <id>GHCND:USC00500235</id>
    <displayName>ALPINE, AK US</displayName>
    <minDate>2011-01-01</minDate>
    <maxDate>2012-11-30</maxDate>
    <latitude>70.3463</latitude>
    <longitude>-150.9282</longitude>
    <elevation>5.2</elevation>
    <locationLabels>
      <type>CNTRY</type>
      <id>FIPS:US</id>
      <displayName>United States</displayName>
    </locationLabels>
    <coverage>0.9986</coverage>
  </station>
  <station>
    <id>GHCND:USC00030118</id>
    <displayName>ALPINE, AR US</displayName>
    <minDate>1944-04-07</minDate>
    <maxDate>1949-12-31</maxDate>
    <latitude>34.23333</latitude>
    <longitude>-93.28333</longitude>
    <elevation>121.9</elevation>
    <locationLabels>
      <type>CNTRY</type>
      <id>FIPS:US</id>
      <displayName>United States</displayName>
    </locationLabels>
    <coverage>0.6974</coverage>
  </station>
  <station>
    <id>GHCND:USC00020159</id>
    <displayName>ALPINE, AZ US</displayName>
    <minDate>1904-10-01</minDate>
    <maxDate>2013-01-15</maxDate>
    <latitude>33.8492</latitude>
    <longitude>-109.1469</longitude>
    <elevation>2453.6</elevation>
    <locationLabels>
      <type>CNTRY</type>
      <id>FIPS:US</id>
      <displayName>United States</displayName>
    </locationLabels>
    <coverage>0.8648</coverage>
  </station>
  <station>
    <id>GHCND:USC00040136</id>
    <displayName>ALPINE, CA US</displayName>
    <minDate>1952-10-01</minDate>
    <maxDate>2013-01-15</maxDate>
    <latitude>32.8358</latitude>
    <longitude>-116.7775</longitude>
    <elevation>516.6</elevation>
    <locationLabels>
      <type>CNTRY</type>
      <id>FIPS:US</id>
      <displayName>United States</displayName>
    </locationLabels>
    <coverage>0.9443</coverage>
  </station>
  <station>
    <id>GHCND:USC00040134</id>
    <displayName>ALPINE, CA US</displayName>
    <minDate>1951-11-01</minDate>
    <maxDate>1952-11-30</maxDate>
    <latitude>32.8358</latitude>
    <longitude>-116.7775</longitude>
    <elevation>516.6</elevation>
    <locationLabels>
      <type>CNTRY</type>
      <id>FIPS:US</id>
      <displayName>United States</displayName>
    </locationLabels>
    <coverage>0.9167</coverage>
  </station>
  <station>
    <id>GHCND:USC00410174</id>
    <displayName>ALPINE, TX US</displayName>
    <minDate>1900-03-01</minDate>
    <maxDate>2013-01-16</maxDate>
    <latitude>30.3763</latitude>
    <longitude>-103.66</longitude>
    <elevation>1356.4</elevation>
    <locationLabels>
      <type>CNTRY</type>
      <id>FIPS:US</id>
      <displayName>United States</displayName>
    </locationLabels>
    <coverage>0.7473</coverage>
  </station>
  <station>
    <id>GHCND:USC00420061</id>
    <displayName>ALPINE, UT US</displayName>
    <minDate>1899-05-01</minDate>
    <maxDate>2013-01-16</maxDate>
    <latitude>40.4644</latitude>
    <longitude>-111.7708</longitude>
    <elevation>1545.3</elevation>
    <locationLabels>
      <type>CNTRY</type>
      <id>FIPS:US</id>
      <displayName>United States</displayName>
    </locationLabels>
    <coverage>0.8819</coverage>
  </station>
  <station>
    <id>GHCND:USC00450145</id>
    <displayName>ALPOWA RANCH, WA US</displayName>
    <minDate>1927-07-01</minDate>
    <maxDate>1937-03-31</maxDate>
    <latitude>46.41667</latitude>
    <longitude>-117.2</longitude>
    <elevation>232</elevation>
    <locationLabels>
      <type>CNTRY</type>
      <id>FIPS:US</id>
      <displayName>United States</displayName>
    </locationLabels>
    <coverage>0.9132</coverage>
  </station>
  <station>
    <id>GHCND:US1ORBN0008</id>
    <displayName>ALSEA 1 W, OR US</displayName>
    <minDate>2007-12-19</minDate>
    <maxDate>2010-09-03</maxDate>
    <latitude>44.3667</latitude>
    <longitude>-123.6461</longitude>
    <elevation>74.1</elevation>
    <locationLabels>
      <type>CNTRY</type>
      <id>FIPS:US</id>
      <displayName>United States</displayName>
    </locationLabels>
    <coverage>0.4283</coverage>
  </station>
  <station>
    <id>GHCND:USC00350145</id>
    <displayName>ALSEA F H FALL CREEK, OR US</displayName>
    <minDate>1954-10-14</minDate>
    <maxDate>2012-12-31</maxDate>
    <latitude>44.40444</latitude>
    <longitude>-123.75333</longitude>
    <elevation>70.1</elevation>
    <locationLabels>
      <type>CNTRY</type>
      <id>FIPS:US</id>
      <displayName>United States</displayName>
    </locationLabels>
    <coverage>0.9922</coverage>
  </station>
  <station>
    <id>GHCND:US1ILCK0153</id>
    <displayName>ALSIP 0.2 E, IL US</displayName>
    <minDate>2009-10-25</minDate>
    <maxDate>2013-01-16</maxDate>
    <latitude>41.6703</latitude>
    <longitude>-87.7312</longitude>
    <elevation>183.2</elevation>
    <locationLabels>
      <type>CNTRY</type>
      <id>FIPS:US</id>
      <displayName>United States</displayName>
    </locationLabels>
    <coverage>0.9602</coverage>
  </station>
  <station>
    <id>GHCND:USC00270090</id>
    <displayName>ALSTEAD CENTER, NH US</displayName>
    <minDate>1893-08-01</minDate>
    <maxDate>1922-11-30</maxDate>
    <latitude>43.166667</latitude>
    <longitude>-72.416667</longitude>
    <elevation>341.4</elevation>
    <locationLabels>
      <type>CNTRY</type>
      <id>FIPS:US</id>
      <displayName>United States</displayName>
    </locationLabels>
    <coverage>0.9592</coverage>
  </station>
  <station>
    <id>GHCND:US1COWE0072</id>
    <displayName>ALT 4.5 E, CO US</displayName>
    <minDate>1999-06-09</minDate>
    <maxDate>2006-02-16</maxDate>
    <latitude>40.5681</latitude>
    <longitude>-104.6488</longitude>
    <elevation>1477.1</elevation>
    <locationLabels>
      <type>CNTRY</type>
      <id>FIPS:US</id>
      <displayName>United States</displayName>
    </locationLabels>
    <coverage>0.1145</coverage>
  </station>
  <station>
    <id>GHCND:USC00480140</id>
    <displayName>ALTA 1 NNW, WY US</displayName>
    <minDate>1909-07-18</minDate>
    <maxDate>2013-01-16</maxDate>
    <latitude>43.7727</latitude>
    <longitude>-111.0338</longitude>
    <elevation>1962</elevation>
    <locationLabels>
      <type>CNTRY</type>
      <id>FIPS:US</id>
      <displayName>United States</displayName>
    </locationLabels>
    <coverage>0.9162</coverage>
  </station>
  <station>
    <id>GHCND:US1CASR0010</id>
    <displayName>ALTA LOMA 2.7 ENE, CA US</displayName>
    <minDate>2009-02-06</minDate>
    <maxDate>2011-02-26</maxDate>
    <latitude>34.1377</latitude>
    <longitude>-117.5512</longitude>
    <elevation>467.9</elevation>
    <locationLabels>
      <type>CNTRY</type>
      <id>FIPS:US</id>
      <displayName>United States</displayName>
    </locationLabels>
    <coverage>0.8695</coverage>
  </station>
  <station>
    <id>GHCND:USC00410183</id>
    <displayName>ALTA LOMA, TX US</displayName>
    <minDate>1944-04-01</minDate>
    <maxDate>1945-07-31</maxDate>
    <latitude>29.383333</latitude>
    <longitude>-95.066667</longitude>
    <elevation>4.3</elevation>
    <locationLabels>
      <type>CNTRY</type>
      <id>FIPS:US</id>
      <displayName>United States</displayName>
    </locationLabels>
    <coverage>1</coverage>
  </station>
  <station>
    <id>GHCND:US1CANV0016</id>
    <displayName>ALTA SIERRA 0.4 WSW, CA US</displayName>
    <minDate>2008-12-19</minDate>
    <maxDate>2013-01-16</maxDate>
    <latitude>39.1198</latitude>
    <longitude>-121.0599</longitude>
    <elevation>702</elevation>
    <locationLabels>
      <type>CNTRY</type>
      <id>FIPS:US</id>
      <displayName>United States</displayName>
    </locationLabels>
    <coverage>0.7685</coverage>
  </station>
  <station>
    <id>GHCND:US1CANV0010</id>
    <displayName>ALTA SIERRA 1.3 S, CA US</displayName>
    <minDate>2008-12-25</minDate>
    <maxDate>2012-12-27</maxDate>
    <latitude>39.1043</latitude>
    <longitude>-121.0565</longitude>
    <elevation>656.5</elevation>
    <locationLabels>
      <type>CNTRY</type>
      <id>FIPS:US</id>
      <displayName>United States</displayName>
    </locationLabels>
    <coverage>0.1981</coverage>
  </station>
  <station>
    <id>GHCND:US1CANV0023</id>
    <displayName>ALTA SIERRA 1.4 SSW, CA US</displayName>
    <minDate>2009-04-10</minDate>
    <maxDate>2012-12-26</maxDate>
    <latitude>39.1034</latitude>
    <longitude>-121.0579</longitude>
    <elevation>627</elevation>
    <locationLabels>
      <type>CNTRY</type>
      <id>FIPS:US</id>
      <displayName>United States</displayName>
    </locationLabels>
    <coverage>0.171</coverage>
  </station>
  <station>
    <id>GHCND:USC00140195</id>
    <displayName>ALTA VISTA, KS US</displayName>
    <minDate>1948-08-01</minDate>
    <maxDate>2012-11-30</maxDate>
    <latitude>38.862</latitude>
    <longitude>-96.4892</longitude>
    <elevation>441.7</elevation>
    <locationLabels>
      <type>CNTRY</type>
      <id>FIPS:US</id>
      <displayName>United States</displayName>
    </locationLabels>
    <coverage>0.9898</coverage>
  </station>
  <station>
    <id>GHCND:USC00130173</id>
    <displayName>ALTA, IA US</displayName>
    <minDate>1893-01-01</minDate>
    <maxDate>1959-10-31</maxDate>
    <latitude>42.66667</latitude>
    <longitude>-95.3</longitude>
    <elevation>460.9</elevation>
    <locationLabels>
      <type>CNTRY</type>
      <id>FIPS:US</id>
      <displayName>United States</displayName>
    </locationLabels>
    <coverage>0.9852</coverage>
  </station>
  <station>
    <id>GHCND:USC00420072</id>
    <displayName>ALTA, UT US</displayName>
    <minDate>1905-03-17</minDate>
    <maxDate>2013-01-15</maxDate>
    <latitude>40.5905</latitude>
    <longitude>-111.6369</longitude>
    <elevation>2660.9</elevation>
    <locationLabels>
      <type>CNTRY</type>
      <id>FIPS:US</id>
      <displayName>United States</displayName>
    </locationLabels>
    <coverage>0.4848</coverage>
  </station>
  <station>
    <id>GHCND:US1CALA0005</id>
    <displayName>ALTADENA 0.7 ESE, CA US</displayName>
    <minDate>2008-11-10</minDate>
    <maxDate>2013-01-16</maxDate>
    <latitude>34.1874</latitude>
    <longitude>-118.1245</longitude>
    <elevation>403.3</elevation>
    <locationLabels>
      <type>CNTRY</type>
      <id>FIPS:US</id>
      <displayName>United States</displayName>
    </locationLabels>
    <coverage>0.9215</coverage>
  </station>
  <station>
    <id>GHCND:USC00040144</id>
    <displayName>ALTADENA, CA US</displayName>
    <minDate>1922-01-01</minDate>
    <maxDate>2012-11-30</maxDate>
    <latitude>34.1822</latitude>
    <longitude>-118.1383</longitude>
    <elevation>343.5</elevation>
    <locationLabels>
      <type>CNTRY</type>
      <id>FIPS:US</id>
      <displayName>United States</displayName>
    </locationLabels>
    <coverage>0.8831</coverage>
  </station>
  <station>
    <id>GHCND:US1TNGY0011</id>
    <displayName>ALTAMONT 0.7 ENE, TN US</displayName>
    <minDate>2010-07-14</minDate>
    <maxDate>2012-10-06</maxDate>
    <latitude>35.4351</latitude>
    <longitude>-85.7184</longitude>
    <elevation>553.8</elevation>
    <locationLabels>
      <type>CNTRY</type>
      <id>FIPS:US</id>
      <displayName>United States</displayName>
    </locationLabels>
    <coverage>0.7684</coverage>
  </station>
  <station>
    <id>GHCND:US1TNGY0003</id>
    <displayName>ALTAMONT 0.8 SE, TN US</displayName>
    <minDate>2007-04-01</minDate>
    <maxDate>2010-09-28</maxDate>
    <latitude>35.4219</latitude>
    <longitude>-85.7179</longitude>
    <elevation>570.9</elevation>
    <locationLabels>
      <type>CNTRY</type>
      <id>FIPS:US</id>
      <displayName>United States</displayName>
    </locationLabels>
    <coverage>0.9358</coverage>
  </station>
  <station>
    <id>GHCND:US1NYAB0001</id>
    <displayName>ALTAMONT 2.7 SSW, NY US</displayName>
    <minDate>2007-11-17</minDate>
    <maxDate>2013-01-16</maxDate>
    <latitude>42.667</latitude>
    <longitude>-74.0509</longitude>
    <elevation>445</elevation>
    <locationLabels>
      <type>CNTRY</type>
      <id>FIPS:US</id>
      <displayName>United States</displayName>
    </locationLabels>
    <coverage>0.965</coverage>
  </station>
  <station>
    <id>GHCND:US1ILEF0004</id>
    <displayName>ALTAMONT 3.3 SE, IL US</displayName>
    <minDate>2008-03-24</minDate>
    <maxDate>2012-12-29</maxDate>
    <latitude>39.0205</latitude>
    <longitude>-88.7101</longitude>
    <elevation>177.1</elevation>
    <locationLabels>
      <type>CNTRY</type>
      <id>FIPS:US</id>
      <displayName>United States</displayName>
    </locationLabels>
    <coverage>0.7847</coverage>
  </station>
  <station>
    <id>GHCND:US1TNGY0008</id>
    <displayName>ALTAMONT 3.9 NW, TN US</displayName>
    <minDate>2007-12-27</minDate>
    <maxDate>2013-01-16</maxDate>
    <latitude>35.4611</latitude>
    <longitude>-85.7858</longitude>
    <elevation>612</elevation>
    <locationLabels>
      <type>CNTRY</type>
      <id>FIPS:US</id>
      <displayName>United States</displayName>
    </locationLabels>
    <coverage>0.9529</coverage>
  </station>
  <station>
    <id>GHCND:US1TNGY0004</id>
    <displayName>ALTAMONT 3.9 W, TN US</displayName>
    <minDate>2007-08-25</minDate>
    <maxDate>2010-11-06</maxDate>
    <latitude>35.4341</latitude>
    <longitude>-85.7979</longitude>
    <elevation>619</elevation>
    <locationLabels>
      <type>CNTRY</type>
      <id>FIPS:US</id>
      <displayName>United States</displayName>
    </locationLabels>
    <coverage>0.5444</coverage>
  </station>
  <station>
    <id>GHCND:USC00140190</id>
    <displayName>ALTAMONT, KS US</displayName>
    <minDate>1943-07-17</minDate>
    <maxDate>2012-12-15</maxDate>
    <latitude>37.1944</latitude>
    <longitude>-95.2875</longitude>
    <elevation>277.4</elevation>
    <locationLabels>
      <type>CNTRY</type>
      <id>FIPS:US</id>
      <displayName>United States</displayName>
    </locationLabels>
    <coverage>0.1908</coverage>
  </station>
  <station>
    <id>GHCND:USC00400116</id>
    <displayName>ALTAMONT, TN US</displayName>
    <minDate>1929-08-01</minDate>
    <maxDate>1962-03-31</maxDate>
    <latitude>35.43333</latitude>
    <longitude>-85.71667</longitude>
    <elevation>586.1</elevation>
    <locationLabels>
      <type>CNTRY</type>
      <id>FIPS:US</id>
      <displayName>United States</displayName>
    </locationLabels>
    <coverage>0.4471</coverage>
  </station>
  <station>
    <id>GHCND:USC00425921</id>
    <displayName>ALTAMONT, UT US</displayName>
    <minDate>1948-09-01</minDate>
    <maxDate>1953-05-31</maxDate>
    <latitude>40.31667</latitude>
    <longitude>-110.26667</longitude>
    <elevation>1955</elevation>
    <locationLabels>
      <type>CNTRY</type>
      <id>FIPS:US</id>
      <displayName>United States</displayName>
    </locationLabels>
    <coverage>1</coverage>
  </station>
  <station>
    <id>GHCND:USC00420074</id>
    <displayName>ALTAMONT, UT US</displayName>
    <minDate>1953-06-01</minDate>
    <maxDate>2013-01-16</maxDate>
    <latitude>40.3561</latitude>
    <longitude>-110.2877</longitude>
    <elevation>1941.6</elevation>
    <locationLabels>
      <type>CNTRY</type>
      <id>FIPS:US</id>
      <displayName>United States</displayName>
    </locationLabels>
    <coverage>0.9382</coverage>
  </station>
  <station>
    <id>GHCND:US1FLSM0001</id>
    <displayName>ALTAMONTE SPRINGS 1.3 N, FL US</displayName>
    <minDate>2007-09-29</minDate>
    <maxDate>2008-12-26</maxDate>
    <latitude>28.6815</latitude>
    <longitude>-81.394</longitude>
    <elevation>38.1</elevation>
    <locationLabels>
      <type>CNTRY</type>
      <id>FIPS:US</id>
      <displayName>United States</displayName>
    </locationLabels>
    <coverage>0.3319</coverage>
  </station>
  <station>
    <id>GHCND:USC00310160</id>
    <displayName>ALTAPASS, NC US</displayName>
    <minDate>1910-11-01</minDate>
    <maxDate>1962-03-31</maxDate>
    <latitude>35.9</latitude>
    <longitude>-82.01667</longitude>
    <elevation>841.9</elevation>
    <locationLabels>
      <type>CNTRY</type>
      <id>FIPS:US</id>
      <displayName>United States</displayName>
    </locationLabels>
    <coverage>0.8047</coverage>
  </station>
  <station>
    <id>GHCND:USC00440166</id>
    <displayName>ALTAVISTA, VA US</displayName>
    <minDate>1945-05-01</minDate>
    <maxDate>2012-11-30</maxDate>
    <latitude>37.1122</latitude>
    <longitude>-79.2751</longitude>
    <elevation>161.2</elevation>
    <locationLabels>
      <type>CNTRY</type>
      <id>FIPS:US</id>
      <displayName>United States</displayName>
    </locationLabels>
    <coverage>0.8975</coverage>
  </station>
  <station>
    <id>GHCND:USC00050214</id>
    <displayName>ALTENBERN, CO US</displayName>
    <minDate>1947-07-01</minDate>
    <maxDate>2013-01-15</maxDate>
    <latitude>39.5008</latitude>
    <longitude>-108.3794</longitude>
    <elevation>1730.3</elevation>
    <locationLabels>
      <type>CNTRY</type>
      <id>FIPS:US</id>
      <displayName>United States</displayName>
    </locationLabels>
    <coverage>0.9975</coverage>
  </station>
  <station>
    <id>GHCND:USC00090236</id>
    <displayName>ALTO 4 SE, GA US</displayName>
    <minDate>1999-11-01</minDate>
    <maxDate>2013-01-16</maxDate>
    <latitude>34.4416</latitude>
    <longitude>-83.5161</longitude>
    <elevation>279.8</elevation>
    <locationLabels>
      <type>CNTRY</type>
      <id>FIPS:US</id>
      <displayName>United States</displayName>
    </locationLabels>
    <coverage>0.9917</coverage>
  </station>
  <station>
    <id>GHCND:US1MIKN0017</id>
    <displayName>ALTO 4.5 SW, MI US</displayName>
    <minDate>2008-07-03</minDate>
    <maxDate>2012-11-23</maxDate>
    <latitude>42.8178</latitude>
    <longitude>-85.4526</longitude>
    <elevation>227.4</elevation>
    <locationLabels>
      <type>CNTRY</type>
      <id>FIPS:US</id>
      <displayName>United States</displayName>
    </locationLabels>
    <coverage>0.5016</coverage>
  </station>
  <station>
    <id>GHCND:USC00410190</id>
    <displayName>ALTO 5 SW, TX US</displayName>
    <minDate>1941-09-14</minDate>
    <maxDate>2008-07-31</maxDate>
    <latitude>31.60944</latitude>
    <longitude>-95.13417</longitude>
    <elevation>85.3</elevation>
    <locationLabels>
      <type>CNTRY</type>
      <id>FIPS:US</id>
      <displayName>United States</displayName>
    </locationLabels>
    <coverage>0.9642</coverage>
  </station>
  <station>
    <id>GHCND:US1MIKN0005</id>
    <displayName>ALTO 5.6 WNW, MI US</displayName>
    <minDate>2008-06-24</minDate>
    <maxDate>2010-12-02</maxDate>
    <latitude>42.8618</latitude>
    <longitude>-85.4799</longitude>
    <elevation>243.5</elevation>
    <locationLabels>
      <type>CNTRY</type>
      <id>FIPS:US</id>
      <displayName>United States</displayName>
    </locationLabels>
    <coverage>0.2152</coverage>
  </station>
  <station>
    <id>GHCND:USC00290285</id>
    <displayName>ALTO, NM US</displayName>
    <minDate>1905-05-01</minDate>
    <maxDate>1909-03-31</maxDate>
    <latitude>33.4</latitude>
    <longitude>-105.68333</longitude>
    <elevation>2255.5</elevation>
    <locationLabels>
      <type>CNTRY</type>
      <id>FIPS:US</id>
      <displayName>United States</displayName>
    </locationLabels>
    <coverage>0.8526</coverage>
  </station>
  <station>
    <id>GHCND:USC00410185</id>
    <displayName>ALTO, TX US</displayName>
    <minDate>1940-04-18</minDate>
    <maxDate>1942-05-31</maxDate>
    <latitude>31.65</latitude>
    <longitude>-95.083333</longitude>
    <elevation>134.1</elevation>
    <locationLabels>
      <type>CNTRY</type>
      <id>FIPS:US</id>
      <displayName>United States</displayName>
    </locationLabels>
    <coverage>0.9561</coverage>
  </station>
  <station>
    <id>GHCND:US1MOFSA149</id>
    <displayName>ALTON 1.7 NNW, MO US</displayName>
    <minDate>2006-05-01</minDate>
    <maxDate>2013-01-13</maxDate>
    <latitude>36.7176</latitude>
    <longitude>-91.409</longitude>
    <elevation>267.9</elevation>
    <locationLabels>
      <type>CNTRY</type>
      <id>FIPS:US</id>
      <displayName>United States</displayName>
    </locationLabels>
    <coverage>0.9898</coverage>
  </station>
  <station>
    <id>GHCND:USC00230122</id>
    <displayName>ALTON 10 SE, MO US</displayName>
    <minDate>1940-08-01</minDate>
    <maxDate>1947-12-31</maxDate>
    <latitude>36.63333</latitude>
    <longitude>-91.23333</longitude>
    <locationLabels>
      <type>CNTRY</type>
      <id>FIPS:US</id>
      <displayName>United States</displayName>
    </locationLabels>
    <coverage>1</coverage>
  </station>
  <station>
    <id>GHCND:US1KSOB0004</id>
    <displayName>ALTON 10.0 S, KS US</displayName>
    <minDate>2012-04-14</minDate>
    <maxDate>2013-01-16</maxDate>
    <latitude>39.3228</latitude>
    <longitude>-98.9537</longitude>
    <elevation>560.8</elevation>
    <locationLabels>
      <type>CNTRY</type>
      <id>FIPS:US</id>
      <displayName>United States</displayName>
    </locationLabels>
    <coverage>0.6691</coverage>
  </station>
  <station>
    <id>GHCND:USC00140200</id>
    <displayName>ALTON 2 SW, KS US</displayName>
    <minDate>2008-06-01</minDate>
    <maxDate>2013-01-16</maxDate>
    <latitude>39.4483</latitude>
    <longitude>-98.9702</longitude>
    <elevation>521.2</elevation>
    <locationLabels>
      <type>CNTRY</type>
      <id>FIPS:US</id>
      <displayName>United States</displayName>
    </locationLabels>
    <coverage>0.9976</coverage>
  </station>
  <station>
    <id>GHCND:US1MOOR0013</id>
    <displayName>ALTON 3.0 NNE, MO US</displayName>
    <minDate>2011-03-20</minDate>
    <maxDate>2013-01-13</maxDate>
    <latitude>36.7361</latitude>
    <longitude>-91.3879</longitude>
    <elevation>278</elevation>
    <locationLabels>
      <type>CNTRY</type>
      <id>FIPS:US</id>
      <displayName>United States</displayName>
    </locationLabels>
    <coverage>0.9354</coverage>
  </station>
  <station>
    <id>GHCND:US1MOOR0005</id>
    <displayName>ALTON 3.4 W, MO US</displayName>
    <minDate>2008-04-01</minDate>
    <maxDate>2012-09-27</maxDate>
    <latitude>36.6893</latitude>
    <longitude>-91.4594</longitude>
    <elevation>295</elevation>
    <locationLabels>
      <type>CNTRY</type>
      <id>FIPS:US</id>
      <displayName>United States</displayName>
    </locationLabels>
    <coverage>0.4552</coverage>
  </station>
  <station>
    <id>GHCND:US1ILMD0005</id>
    <displayName>ALTON 4.3 N, IL US</displayName>
    <minDate>2007-01-20</minDate>
    <maxDate>2012-01-02</maxDate>
    <latitude>38.9664</latitude>
    <longitude>-90.1503</longitude>
    <elevation>175</elevation>
    <locationLabels>
      <type>CNTRY</type>
      <id>FIPS:US</id>
      <displayName>United States</displayName>
    </locationLabels>
    <coverage>0.8425</coverage>
  </station>
  <station>
    <id>GHCND:US1MOOR0011</id>
    <displayName>ALTON 4.8 WNW, MO US</displayName>
    <minDate>2010-12-12</minDate>
    <maxDate>2013-01-15</maxDate>
    <latitude>36.7164</latitude>
    <longitude>-91.4818</longitude>
    <elevation>287.1</elevation>
    <locationLabels>
      <type>CNTRY</type>
      <id>FIPS:US</id>
      <displayName>United States</displayName>
    </locationLabels>
    <coverage>0.906</coverage>
  </station>
  <station>
    <id>GHCND:US1MOOR0008</id>
    <displayName>ALTON 5.6 ENE, MO US</displayName>
    <minDate>2009-03-27</minDate>
    <maxDate>2010-05-30</maxDate>
    <latitude>36.7332</latitude>
    <longitude>-91.31</longitude>
    <elevation>260.6</elevation>
    <locationLabels>
      <type>CNTRY</type>
      <id>FIPS:US</id>
      <displayName>United States</displayName>
    </locationLabels>
    <coverage>0.9721</coverage>
  </station>
  <station>
    <id>GHCND:USC00230127</id>
    <displayName>ALTON 6 SE, MO US</displayName>
    <minDate>1940-03-01</minDate>
    <maxDate>2012-10-31</maxDate>
    <latitude>36.63</latitude>
    <longitude>-91.3044</longitude>
    <elevation>246.9</elevation>
    <locationLabels>
      <type>CNTRY</type>
      <id>FIPS:US</id>
      <displayName>United States</displayName>
    </locationLabels>
    <coverage>0.7373</coverage>
  </station>
  <station>
    <id>GHCND:US1MOOR0015</id>
    <displayName>ALTON 6.6 NW, MO US</displayName>
    <minDate>2011-03-01</minDate>
    <maxDate>2011-09-26</maxDate>
    <latitude>36.749</latitude>
    <longitude>-91.4954</longitude>
    <elevation>253</elevation>
    <locationLabels>
      <type>CNTRY</type>
      <id>FIPS:US</id>
      <displayName>United States</displayName>
    </locationLabels>
    <coverage>0.8714</coverage>
  </station>
  <station>
    <id>GHCND:US1MOOR0014</id>
    <displayName>ALTON 6.9 N, MO US</displayName>
    <minDate>2011-03-05</minDate>
    <maxDate>2012-11-13</maxDate>
    <latitude>36.792</latitude>
    <longitude>-91.42</longitude>
    <elevation>182</elevation>
    <locationLabels>
      <type>CNTRY</type>
      <id>FIPS:US</id>
      <displayName>United States</displayName>
    </locationLabels>
    <coverage>0.5742</coverage>
  </station>
  <station>
    <id>GHCND:US1MOOR0020</id>
    <displayName>ALTON 7.2 E, MO US</displayName>
    <minDate>2011-03-18</minDate>
    <maxDate>2013-01-14</maxDate>
    <latitude>36.6789</latitude>
    <longitude>-91.27</longitude>
    <elevation>243.2</elevation>
    <locationLabels>
      <type>CNTRY</type>
      <id>FIPS:US</id>
      <displayName>United States</displayName>
    </locationLabels>
    <coverage>0.8401</coverage>
  </station>
  <station>
    <id>GHCND:USC00110137</id>
    <displayName>ALTON MELVIN PRICE, IL US</displayName>
    <minDate>1892-12-02</minDate>
    <maxDate>2013-01-16</maxDate>
    <latitude>38.8663</latitude>
    <longitude>-90.1463</longitude>
    <elevation>132.6</elevation>
    <locationLabels>
      <type>CNTRY</type>
      <id>FIPS:US</id>
      <displayName>United States</displayName>
    </locationLabels>
    <coverage>0.5628</coverage>
  </station>
  <station>
    <id>GHCND:USC00130181</id>
    <displayName>ALTON, IA US</displayName>
    <minDate>1905-05-01</minDate>
    <maxDate>2013-01-16</maxDate>
    <latitude>42.998</latitude>
    <longitude>-96.0175</longitude>
    <elevation>413</elevation>
    <locationLabels>
      <type>CNTRY</type>
      <id>FIPS:US</id>
      <displayName>United States</displayName>
    </locationLabels>
    <coverage>0.9337</coverage>
  </station>
  <station>
    <id>GHCND:USC00140201</id>
    <displayName>ALTON, KS US</displayName>
    <minDate>1902-11-10</minDate>
    <maxDate>2008-10-07</maxDate>
    <latitude>39.47667</latitude>
    <longitude>-98.97139</longitude>
    <elevation>513.6</elevation>
    <locationLabels>
      <type>CNTRY</type>
      <id>FIPS:US</id>
      <displayName>United States</displayName>
    </locationLabels>
    <coverage>0.9615</coverage>
  </station>
  <station>
    <id>GHCND:USC00270100</id>
    <displayName>ALTON, NH US</displayName>
    <minDate>1977-07-01</minDate>
    <maxDate>1986-12-31</maxDate>
    <latitude>43.43333</latitude>
    <longitude>-71.25</longitude>
    <elevation>219.5</elevation>
    <locationLabels>
      <type>CNTRY</type>
      <id>FIPS:US</id>
      <displayName>United States</displayName>
    </locationLabels>
    <coverage>0.9804</coverage>
  </station>
  <station>
    <id>GHCND:USC00420086</id>
    <displayName>ALTON, UT US</displayName>
    <minDate>1915-05-01</minDate>
    <maxDate>2012-11-30</maxDate>
    <latitude>37.4402</latitude>
    <longitude>-112.4819</longitude>
    <elevation>2145.8</elevation>
    <locationLabels>
      <type>CNTRY</type>
      <id>FIPS:US</id>
      <displayName>United States</displayName>
    </locationLabels>
    <coverage>0.9884</coverage>
  </station>
  <station>
    <id>GHCND:USC00110140</id>
    <displayName>ALTONA, IL US</displayName>
    <minDate>2005-02-01</minDate>
    <maxDate>2013-01-16</maxDate>
    <latitude>41.1204</latitude>
    <longitude>-90.1641</longitude>
    <elevation>224</elevation>
    <locationLabels>
      <type>CNTRY</type>
      <id>FIPS:US</id>
      <displayName>United States</displayName>
    </locationLabels>
    <coverage>0.8311</coverage>
  </station>
  <station>
    <id>GHCND:USC00230135</id>
    <displayName>ALTONA, MO US</displayName>
    <minDate>1937-07-01</minDate>
    <maxDate>1950-09-30</maxDate>
    <latitude>38.4</latitude>
    <longitude>-94.21667</longitude>
    <locationLabels>
      <type>CNTRY</type>
      <id>FIPS:US</id>
      <displayName>United States</displayName>
    </locationLabels>
    <coverage>0.9564</coverage>
  </station>
  <station>
    <id>GHCND:US1IAPK0013</id>
    <displayName>ALTOONA 0.6 WSW, IA US</displayName>
    <minDate>2007-08-01</minDate>
    <maxDate>2010-10-08</maxDate>
    <latitude>41.6467</latitude>
    <longitude>-93.4855</longitude>
    <elevation>288</elevation>
    <locationLabels>
      <type>CNTRY</type>
      <id>FIPS:US</id>
      <displayName>United States</displayName>
    </locationLabels>
    <coverage>0.321</coverage>
  </station>
  <station>
    <id>GHCND:USC00360140</id>
    <displayName>ALTOONA 3 W, PA US</displayName>
    <minDate>1967-10-01</minDate>
    <maxDate>2012-12-31</maxDate>
    <latitude>40.4949</latitude>
    <longitude>-78.4667</longitude>
    <elevation>402.3</elevation>
    <locationLabels>
      <type>CNTRY</type>
      <id>FIPS:US</id>
      <displayName>United States</displayName>
    </locationLabels>
    <coverage>0.9616</coverage>
  </station>
  <station>
    <id>GHCND:USW00014736</id>
    <displayName>ALTOONA BLAIR CO AIRPORT, PA US</displayName>
    <minDate>1949-01-01</minDate>
    <maxDate>2013-01-14</maxDate>
    <latitude>40.29639</latitude>
    <longitude>-78.32028</longitude>
    <elevation>451.1</elevation>
    <locationLabels>
      <type>CNTRY</type>
      <id>FIPS:US</id>
      <displayName>United States</displayName>
    </locationLabels>
    <coverage>0.8788</coverage>
  </station>
</stationCollection>
