<?xml version="1.0" encoding="UTF-8" standalone="yes"?>
<stationCollection totalCount="46020" pageCount="461" pageSize="100" page="32">
  <station>
    <id>GHCND:US1ORDS0014</id>
    <displayName>BEND 2 NW, OR US</displayName>
    <minDate>2007-12-18</minDate>
    <maxDate>2010-11-30</maxDate>
    <latitude>44.0866</latitude>
    <longitude>-121.3385</longitude>
    <elevation>1178.7</elevation>
    <locationLabels>
      <type>CNTRY</type>
      <id>FIPS:US</id>
      <displayName>United States</displayName>
    </locationLabels>
    <coverage>0.8323</coverage>
  </station>
  <station>
    <id>GHCND:US1ORDS0017</id>
    <displayName>BEND 2.3 WNW, OR US</displayName>
    <minDate>2007-12-31</minDate>
    <maxDate>2013-01-16</maxDate>
    <latitude>44.0704</latitude>
    <longitude>-121.3568</longitude>
    <elevation>1154</elevation>
    <locationLabels>
      <type>CNTRY</type>
      <id>FIPS:US</id>
      <displayName>United States</displayName>
    </locationLabels>
    <coverage>0.9159</coverage>
  </station>
  <station>
    <id>GHCND:US1ORDS0012</id>
    <displayName>BEND 2.5 SE, OR US</displayName>
    <minDate>2007-12-28</minDate>
    <maxDate>2012-03-24</maxDate>
    <latitude>44.0397</latitude>
    <longitude>-121.2769</longitude>
    <elevation>1128.4</elevation>
    <locationLabels>
      <type>CNTRY</type>
      <id>FIPS:US</id>
      <displayName>United States</displayName>
    </locationLabels>
    <coverage>0.8373</coverage>
  </station>
  <station>
    <id>GHCND:US1ORDS0016</id>
    <displayName>BEND 2.7 E, OR US</displayName>
    <minDate>2008-01-09</minDate>
    <maxDate>2013-01-16</maxDate>
    <latitude>44.0622</latitude>
    <longitude>-121.2569</longitude>
    <elevation>1094.8</elevation>
    <locationLabels>
      <type>CNTRY</type>
      <id>FIPS:US</id>
      <displayName>United States</displayName>
    </locationLabels>
    <coverage>0.3608</coverage>
  </station>
  <station>
    <id>GHCND:US1ORDS0002</id>
    <displayName>BEND 3 SE, OR US</displayName>
    <minDate>2007-12-24</minDate>
    <maxDate>2011-08-07</maxDate>
    <latitude>44.0442</latitude>
    <longitude>-121.286</longitude>
    <elevation>1133.6</elevation>
    <locationLabels>
      <type>CNTRY</type>
      <id>FIPS:US</id>
      <displayName>United States</displayName>
    </locationLabels>
    <coverage>0.1111</coverage>
  </station>
  <station>
    <id>GHCND:US1ORDS0018</id>
    <displayName>BEND 3.0 NNE, OR US</displayName>
    <minDate>2007-12-30</minDate>
    <maxDate>2013-01-11</maxDate>
    <latitude>44.1051</latitude>
    <longitude>-121.286</longitude>
    <elevation>1060.4</elevation>
    <locationLabels>
      <type>CNTRY</type>
      <id>FIPS:US</id>
      <displayName>United States</displayName>
    </locationLabels>
    <coverage>0.3772</coverage>
  </station>
  <station>
    <id>GHCND:US1ORDS0005</id>
    <displayName>BEND 3.7 SSW, OR US</displayName>
    <minDate>2008-04-04</minDate>
    <maxDate>2012-04-02</maxDate>
    <latitude>44.0103</latitude>
    <longitude>-121.3277</longitude>
    <elevation>1171.3</elevation>
    <locationLabels>
      <type>CNTRY</type>
      <id>FIPS:US</id>
      <displayName>United States</displayName>
    </locationLabels>
    <coverage>0.8199</coverage>
  </station>
  <station>
    <id>GHCND:US1ORDS0025</id>
    <displayName>BEND 6.2 SSW, OR US</displayName>
    <minDate>2008-02-02</minDate>
    <maxDate>2011-01-16</maxDate>
    <latitude>43.9827</latitude>
    <longitude>-121.3556</longitude>
    <elevation>1198.5</elevation>
    <locationLabels>
      <type>CNTRY</type>
      <id>FIPS:US</id>
      <displayName>United States</displayName>
    </locationLabels>
    <coverage>0.4676</coverage>
  </station>
  <station>
    <id>GHCND:USC00350699</id>
    <displayName>BEND 7 NE, OR US</displayName>
    <minDate>1991-05-01</minDate>
    <maxDate>2013-01-16</maxDate>
    <latitude>44.1184</latitude>
    <longitude>-121.2102</longitude>
    <elevation>1023.5</elevation>
    <locationLabels>
      <type>CNTRY</type>
      <id>FIPS:US</id>
      <displayName>United States</displayName>
    </locationLabels>
    <coverage>0.9602</coverage>
  </station>
  <station>
    <id>GHCND:US1ORDS0027</id>
    <displayName>BEND 7.3 ESE, OR US</displayName>
    <minDate>2008-06-02</minDate>
    <maxDate>2010-10-11</maxDate>
    <latitude>44.0104</latitude>
    <longitude>-121.1852</longitude>
    <elevation>1135.4</elevation>
    <locationLabels>
      <type>CNTRY</type>
      <id>FIPS:US</id>
      <displayName>United States</displayName>
    </locationLabels>
    <coverage>0.8399</coverage>
  </station>
  <station>
    <id>GHCND:USR0000OBEN</id>
    <displayName>BEND WATERSHED OREGON, OR US</displayName>
    <minDate>2001-04-03</minDate>
    <maxDate>2012-08-31</maxDate>
    <latitude>44.03</latitude>
    <longitude>-121.5683</longitude>
    <elevation>1624.6</elevation>
    <locationLabels>
      <type>CNTRY</type>
      <id>FIPS:US</id>
      <displayName>United States</displayName>
    </locationLabels>
    <coverage>0.7736</coverage>
  </station>
  <station>
    <id>GHCND:USC00350694</id>
    <displayName>BEND, OR US</displayName>
    <minDate>1901-04-01</minDate>
    <maxDate>2013-01-16</maxDate>
    <latitude>44.05667</latitude>
    <longitude>-121.285</longitude>
    <elevation>1115.6</elevation>
    <locationLabels>
      <type>CNTRY</type>
      <id>FIPS:US</id>
      <displayName>United States</displayName>
    </locationLabels>
    <coverage>0.9669</coverage>
  </station>
  <station>
    <id>GHCND:US1KSDP0002</id>
    <displayName>BENDENA 0.2 NNW, KS US</displayName>
    <minDate>2008-09-15</minDate>
    <maxDate>2013-01-11</maxDate>
    <latitude>39.7431</latitude>
    <longitude>-95.1809</longitude>
    <elevation>336.8</elevation>
    <locationLabels>
      <type>CNTRY</type>
      <id>FIPS:US</id>
      <displayName>United States</displayName>
    </locationLabels>
    <coverage>0.288</coverage>
  </station>
  <station>
    <id>GHCND:US1KSDP0003</id>
    <displayName>BENDENA 4.4 S, KS US</displayName>
    <minDate>2008-11-16</minDate>
    <maxDate>2013-01-16</maxDate>
    <latitude>39.6766</latitude>
    <longitude>-95.1806</longitude>
    <elevation>306.9</elevation>
    <locationLabels>
      <type>CNTRY</type>
      <id>FIPS:US</id>
      <displayName>United States</displayName>
    </locationLabels>
    <coverage>0.9068</coverage>
  </station>
  <station>
    <id>GHCND:USC00140731</id>
    <displayName>BENDENA, KS US</displayName>
    <minDate>1940-06-01</minDate>
    <maxDate>1948-03-31</maxDate>
    <latitude>39.733333</latitude>
    <longitude>-95.183333</longitude>
    <elevation>338.3</elevation>
    <locationLabels>
      <type>CNTRY</type>
      <id>FIPS:US</id>
      <displayName>United States</displayName>
    </locationLabels>
    <coverage>0.7896</coverage>
  </station>
  <station>
    <id>GHCND:US10york039</id>
    <displayName>BENEDICT 0.2 NE, NE US</displayName>
    <minDate>2011-02-04</minDate>
    <maxDate>2013-01-11</maxDate>
    <latitude>41.0079</latitude>
    <longitude>-97.605</longitude>
    <elevation>0</elevation>
    <locationLabels>
      <type>CNTRY</type>
      <id>FIPS:US</id>
      <displayName>United States</displayName>
    </locationLabels>
    <coverage>0.9025</coverage>
  </station>
  <station>
    <id>GHCND:US10york008</id>
    <displayName>BENEDICT 3.5 W, NE US</displayName>
    <minDate>2007-01-01</minDate>
    <maxDate>2013-01-13</maxDate>
    <latitude>41.0186</latitude>
    <longitude>-97.672</longitude>
    <elevation>527.9</elevation>
    <locationLabels>
      <type>CNTRY</type>
      <id>FIPS:US</id>
      <displayName>United States</displayName>
    </locationLabels>
    <coverage>0.9556</coverage>
  </station>
  <station>
    <id>GHCND:USC00250755</id>
    <displayName>BENEDICT, NE US</displayName>
    <minDate>1897-05-01</minDate>
    <maxDate>1903-11-30</maxDate>
    <latitude>41.005847</latitude>
    <longitude>-97.606441</longitude>
    <elevation>512.1</elevation>
    <locationLabels>
      <type>CNTRY</type>
      <id>FIPS:US</id>
      <displayName>United States</displayName>
    </locationLabels>
    <coverage>0.9347</coverage>
  </station>
  <station>
    <id>GHCND:USC00340670</id>
    <displayName>BENGAL, OK US</displayName>
    <minDate>1900-06-01</minDate>
    <maxDate>2013-01-15</maxDate>
    <latitude>34.8822</latitude>
    <longitude>-95.0905</longitude>
    <elevation>203.3</elevation>
    <locationLabels>
      <type>CNTRY</type>
      <id>FIPS:US</id>
      <displayName>United States</displayName>
    </locationLabels>
    <coverage>0.1441</coverage>
  </station>
  <station>
    <id>GHCND:US1WAAD0009</id>
    <displayName>BENGE 4.3 WSW, WA US</displayName>
    <minDate>2010-03-29</minDate>
    <maxDate>2011-04-08</maxDate>
    <latitude>46.89</latitude>
    <longitude>-118.1883</longitude>
    <elevation>439.2</elevation>
    <locationLabels>
      <type>CNTRY</type>
      <id>FIPS:US</id>
      <displayName>United States</displayName>
    </locationLabels>
    <coverage>0.5053</coverage>
  </station>
  <station>
    <id>GHCND:USC00150595</id>
    <displayName>BENHAM, KY US</displayName>
    <minDate>1945-10-01</minDate>
    <maxDate>1986-11-30</maxDate>
    <latitude>36.95</latitude>
    <longitude>-82.96667</longitude>
    <elevation>491</elevation>
    <locationLabels>
      <type>CNTRY</type>
      <id>FIPS:US</id>
      <displayName>United States</displayName>
    </locationLabels>
    <coverage>0.4449</coverage>
  </station>
  <station>
    <id>GHCND:US1CASO0001</id>
    <displayName>BENICIA 0.2 SSW, CA US</displayName>
    <minDate>2010-02-05</minDate>
    <maxDate>2013-01-10</maxDate>
    <latitude>38.0695</latitude>
    <longitude>-122.1555</longitude>
    <elevation>122.8</elevation>
    <locationLabels>
      <type>CNTRY</type>
      <id>FIPS:US</id>
      <displayName>United States</displayName>
    </locationLabels>
    <coverage>0.1895</coverage>
  </station>
  <station>
    <id>GHCND:US1CASO0002</id>
    <displayName>BENICIA 1.2 SW, CA US</displayName>
    <minDate>2010-12-15</minDate>
    <maxDate>2012-10-11</maxDate>
    <latitude>38.0576</latitude>
    <longitude>-122.168</longitude>
    <elevation>12.2</elevation>
    <locationLabels>
      <type>CNTRY</type>
      <id>FIPS:US</id>
      <displayName>United States</displayName>
    </locationLabels>
    <coverage>0.1619</coverage>
  </station>
  <station>
    <id>GHCND:US1TXKX0002</id>
    <displayName>BENJAMIN 0.2 SSE, TX US</displayName>
    <minDate>2012-06-09</minDate>
    <maxDate>2013-01-16</maxDate>
    <latitude>33.5803</latitude>
    <longitude>-99.7922</longitude>
    <elevation>449</elevation>
    <locationLabels>
      <type>CNTRY</type>
      <id>FIPS:US</id>
      <displayName>United States</displayName>
    </locationLabels>
    <coverage>0.7297</coverage>
  </station>
  <station>
    <id>GHCND:USC00410708</id>
    <displayName>BENJAMIN 15 W, TX US</displayName>
    <minDate>1980-05-01</minDate>
    <maxDate>2009-03-31</maxDate>
    <latitude>33.53917</latitude>
    <longitude>-100.02083</longitude>
    <elevation>502.9</elevation>
    <locationLabels>
      <type>CNTRY</type>
      <id>FIPS:US</id>
      <displayName>United States</displayName>
    </locationLabels>
    <coverage>0.8385</coverage>
  </station>
  <station>
    <id>GHCND:USC00410704</id>
    <displayName>BENJAMIN 4 SSE, TX US</displayName>
    <minDate>1940-06-01</minDate>
    <maxDate>1975-05-31</maxDate>
    <latitude>33.53333</latitude>
    <longitude>-99.76667</longitude>
    <elevation>427</elevation>
    <locationLabels>
      <type>CNTRY</type>
      <id>FIPS:US</id>
      <displayName>United States</displayName>
    </locationLabels>
    <coverage>0.968</coverage>
  </station>
  <station>
    <id>GHCND:US10dund001</id>
    <displayName>BENKELMAN 0.3 NNW, NE US</displayName>
    <minDate>2007-01-01</minDate>
    <maxDate>2011-11-08</maxDate>
    <latitude>40.0535</latitude>
    <longitude>-101.5336</longitude>
    <elevation>919</elevation>
    <locationLabels>
      <type>CNTRY</type>
      <id>FIPS:US</id>
      <displayName>United States</displayName>
    </locationLabels>
    <coverage>0.9865</coverage>
  </station>
  <station>
    <id>GHCND:USC00250762</id>
    <displayName>BENKELMAN 1 SW, NE US</displayName>
    <minDate>2011-10-31</minDate>
    <maxDate>2011-10-31</maxDate>
    <latitude>40.0347</latitude>
    <longitude>-101.5428</longitude>
    <elevation>906.8</elevation>
    <locationLabels>
      <type>CNTRY</type>
      <id>FIPS:US</id>
      <displayName>United States</displayName>
    </locationLabels>
    <coverage>1</coverage>
  </station>
  <station>
    <id>GHCND:US10dund003</id>
    <displayName>BENKELMAN 10.4 E, NE US</displayName>
    <minDate>2007-01-01</minDate>
    <maxDate>2012-08-31</maxDate>
    <latitude>40.0194</latitude>
    <longitude>-101.3384</longitude>
    <elevation>922</elevation>
    <locationLabels>
      <type>CNTRY</type>
      <id>FIPS:US</id>
      <displayName>United States</displayName>
    </locationLabels>
    <coverage>0.9744</coverage>
  </station>
  <station>
    <id>GHCND:US10dund014</id>
    <displayName>BENKELMAN 3.7 WNW, NE US</displayName>
    <minDate>2007-01-01</minDate>
    <maxDate>2011-05-25</maxDate>
    <latitude>40.0757</latitude>
    <longitude>-101.5947</longitude>
    <elevation>979.9</elevation>
    <locationLabels>
      <type>CNTRY</type>
      <id>FIPS:US</id>
      <displayName>United States</displayName>
    </locationLabels>
    <coverage>0.1899</coverage>
  </station>
  <station>
    <id>GHCND:US10dund019</id>
    <displayName>BENKELMAN 4.9 NW, NE US</displayName>
    <minDate>2007-01-15</minDate>
    <maxDate>2013-01-02</maxDate>
    <latitude>40.1078</latitude>
    <longitude>-101.5849</longitude>
    <elevation>986</elevation>
    <locationLabels>
      <type>CNTRY</type>
      <id>FIPS:US</id>
      <displayName>United States</displayName>
    </locationLabels>
    <coverage>0.1674</coverage>
  </station>
  <station>
    <id>GHCND:USC00250760</id>
    <displayName>BENKELMAN, NE US</displayName>
    <minDate>1894-11-01</minDate>
    <maxDate>2013-01-16</maxDate>
    <latitude>40.0526</latitude>
    <longitude>-101.5386</longitude>
    <elevation>922</elevation>
    <locationLabels>
      <type>CNTRY</type>
      <id>FIPS:US</id>
      <displayName>United States</displayName>
    </locationLabels>
    <coverage>0.9031</coverage>
  </station>
  <station>
    <id>GHCND:USC00420617</id>
    <displayName>BENMORE, UT US</displayName>
    <minDate>1911-08-01</minDate>
    <maxDate>1953-08-31</maxDate>
    <latitude>40.03333</latitude>
    <longitude>-112.41667</longitude>
    <elevation>1815.1</elevation>
    <locationLabels>
      <type>CNTRY</type>
      <id>FIPS:US</id>
      <displayName>United States</displayName>
    </locationLabels>
    <coverage>0.9593</coverage>
  </station>
  <station>
    <id>GHCND:US10lanc017</id>
    <displayName>BENNET 0.9 S, NE US</displayName>
    <minDate>2007-03-21</minDate>
    <maxDate>2012-11-05</maxDate>
    <latitude>40.6667</latitude>
    <longitude>-96.5067</longitude>
    <elevation>399</elevation>
    <locationLabels>
      <type>CNTRY</type>
      <id>FIPS:US</id>
      <displayName>United States</displayName>
    </locationLabels>
    <coverage>0.5965</coverage>
  </station>
  <station>
    <id>GHCND:USC00250770</id>
    <displayName>BENNET, NE US</displayName>
    <minDate>1942-02-01</minDate>
    <maxDate>2000-09-30</maxDate>
    <latitude>40.67944</latitude>
    <longitude>-96.50639</longitude>
    <elevation>390.1</elevation>
    <locationLabels>
      <type>CNTRY</type>
      <id>FIPS:US</id>
      <displayName>United States</displayName>
    </locationLabels>
    <coverage>0.7455</coverage>
  </station>
  <station>
    <id>GHCND:US1COAR0071</id>
    <displayName>BENNETT 11.3 SSW, CO US</displayName>
    <minDate>2002-08-11</minDate>
    <maxDate>2012-11-08</maxDate>
    <latitude>39.5973</latitude>
    <longitude>-104.468</longitude>
    <elevation>1787</elevation>
    <locationLabels>
      <type>CNTRY</type>
      <id>FIPS:US</id>
      <displayName>United States</displayName>
    </locationLabels>
    <coverage>0.8897</coverage>
  </station>
  <station>
    <id>GHCND:USC00250771</id>
    <displayName>BENNETT 3 SW, NE US</displayName>
    <minDate>1956-08-01</minDate>
    <maxDate>1965-04-27</maxDate>
    <latitude>40.66667</latitude>
    <longitude>-96.56667</longitude>
    <elevation>415.1</elevation>
    <locationLabels>
      <type>CNTRY</type>
      <id>FIPS:US</id>
      <displayName>United States</displayName>
    </locationLabels>
    <coverage>0.4834</coverage>
  </station>
  <station>
    <id>GHCND:US1COAD0145</id>
    <displayName>BENNETT 4.3 WNW, CO US</displayName>
    <minDate>2012-04-03</minDate>
    <maxDate>2013-01-16</maxDate>
    <latitude>39.782</latitude>
    <longitude>-104.4972</longitude>
    <elevation>1683.1</elevation>
    <locationLabels>
      <type>CNTRY</type>
      <id>FIPS:US</id>
      <displayName>United States</displayName>
    </locationLabels>
    <coverage>0.5467</coverage>
  </station>
  <station>
    <id>GHCND:US1COAR0219</id>
    <displayName>BENNETT 5.3 S, CO US</displayName>
    <minDate>2010-02-18</minDate>
    <maxDate>2012-10-23</maxDate>
    <latitude>39.6797</latitude>
    <longitude>-104.4054</longitude>
    <elevation>1713.6</elevation>
    <locationLabels>
      <type>CNTRY</type>
      <id>FIPS:US</id>
      <displayName>United States</displayName>
    </locationLabels>
    <coverage>0.1461</coverage>
  </station>
  <station>
    <id>GHCND:US1COAR0072</id>
    <displayName>BENNETT 5.6 S, CO US</displayName>
    <minDate>2002-08-20</minDate>
    <maxDate>2012-12-16</maxDate>
    <latitude>39.6763</latitude>
    <longitude>-104.4056</longitude>
    <elevation>1713</elevation>
    <locationLabels>
      <type>CNTRY</type>
      <id>FIPS:US</id>
      <displayName>United States</displayName>
    </locationLabels>
    <coverage>0.9761</coverage>
  </station>
  <station>
    <id>GHCND:US1COAR0120</id>
    <displayName>BENNETT 6.5 SSW, CO US</displayName>
    <minDate>2004-06-15</minDate>
    <maxDate>2005-11-05</maxDate>
    <latitude>39.6758</latitude>
    <longitude>-104.4887</longitude>
    <elevation>1776.1</elevation>
    <locationLabels>
      <type>CNTRY</type>
      <id>FIPS:US</id>
      <displayName>United States</displayName>
    </locationLabels>
    <coverage>0.222</coverage>
  </station>
  <station>
    <id>GHCND:US1COAD0135</id>
    <displayName>BENNETT 9.8 N, CO US</displayName>
    <minDate>2011-04-29</minDate>
    <maxDate>2012-12-09</maxDate>
    <latitude>39.8975</latitude>
    <longitude>-104.4211</longitude>
    <elevation>1579.2</elevation>
    <locationLabels>
      <type>CNTRY</type>
      <id>FIPS:US</id>
      <displayName>United States</displayName>
    </locationLabels>
    <coverage>0.9526</coverage>
  </station>
  <station>
    <id>GHCND:USC00040678</id>
    <displayName>BENNETT RANCH, CA US</displayName>
    <minDate>1918-01-01</minDate>
    <maxDate>1953-04-21</maxDate>
    <latitude>34.16667</latitude>
    <longitude>-117.45</longitude>
    <elevation>563.9</elevation>
    <locationLabels>
      <type>CNTRY</type>
      <id>FIPS:US</id>
      <displayName>United States</displayName>
    </locationLabels>
    <coverage>0.8794</coverage>
  </station>
  <station>
    <id>GHCND:USC00050620</id>
    <displayName>BENNETT, CO US</displayName>
    <minDate>1989-01-01</minDate>
    <maxDate>1995-01-31</maxDate>
    <latitude>39.75</latitude>
    <longitude>-104.41667</longitude>
    <elevation>1671.2</elevation>
    <locationLabels>
      <type>CNTRY</type>
      <id>FIPS:US</id>
      <displayName>United States</displayName>
    </locationLabels>
    <coverage>0.6467</coverage>
  </station>
  <station>
    <id>GHCND:USC00480625</id>
    <displayName>BENNETT, WY US</displayName>
    <minDate>1908-06-01</minDate>
    <maxDate>1912-05-31</maxDate>
    <latitude>41.333333</latitude>
    <longitude>-106.583333</longitude>
    <elevation>2194.6</elevation>
    <locationLabels>
      <type>CNTRY</type>
      <id>FIPS:US</id>
      <displayName>United States</displayName>
    </locationLabels>
    <coverage>0.7707</coverage>
  </station>
  <station>
    <id>GHCND:USC00300608</id>
    <displayName>BENNETTS BRIDGE, NY US</displayName>
    <minDate>1941-05-01</minDate>
    <maxDate>2013-01-16</maxDate>
    <latitude>43.5318</latitude>
    <longitude>-75.9526</longitude>
    <elevation>201.2</elevation>
    <locationLabels>
      <type>CNTRY</type>
      <id>FIPS:US</id>
      <displayName>United States</displayName>
    </locationLabels>
    <coverage>0.9407</coverage>
  </station>
  <station>
    <id>GHCND:US1SCMB0002</id>
    <displayName>BENNETTSVILLE 1.2 SE, SC US</displayName>
    <minDate>2010-08-23</minDate>
    <maxDate>2013-01-15</maxDate>
    <latitude>34.6185</latitude>
    <longitude>-79.672</longitude>
    <elevation>54.9</elevation>
    <locationLabels>
      <type>CNTRY</type>
      <id>FIPS:US</id>
      <displayName>United States</displayName>
    </locationLabels>
    <coverage>0.8301</coverage>
  </station>
  <station>
    <id>GHCND:US1SCMB0003</id>
    <displayName>BENNETTSVILLE 3.8 SE, SC US</displayName>
    <minDate>2010-12-28</minDate>
    <maxDate>2013-01-16</maxDate>
    <latitude>34.5965</latitude>
    <longitude>-79.6345</longitude>
    <elevation>42.7</elevation>
    <locationLabels>
      <type>CNTRY</type>
      <id>FIPS:US</id>
      <displayName>United States</displayName>
    </locationLabels>
    <coverage>0.988</coverage>
  </station>
  <station>
    <id>GHCND:USC00380635</id>
    <displayName>BENNETTSVILLE, SC US</displayName>
    <minDate>1902-08-01</minDate>
    <maxDate>2012-03-31</maxDate>
    <latitude>34.6488</latitude>
    <longitude>-79.6822</longitude>
    <elevation>33.5</elevation>
    <locationLabels>
      <type>CNTRY</type>
      <id>FIPS:US</id>
      <displayName>United States</displayName>
    </locationLabels>
    <coverage>0.112</coverage>
  </station>
  <station>
    <id>GHCND:US10doug025</id>
    <displayName>BENNINGTON 0.1 ESE, NE US</displayName>
    <minDate>2010-06-22</minDate>
    <maxDate>2013-01-16</maxDate>
    <latitude>41.3639</latitude>
    <longitude>-96.1558</longitude>
    <elevation>0</elevation>
    <locationLabels>
      <type>CNTRY</type>
      <id>FIPS:US</id>
      <displayName>United States</displayName>
    </locationLabels>
    <coverage>0.9809</coverage>
  </station>
  <station>
    <id>GHCND:USC00430563</id>
    <displayName>BENNINGTON 2 NNW, VT US</displayName>
    <minDate>1896-11-01</minDate>
    <maxDate>1969-07-31</maxDate>
    <latitude>42.91667</latitude>
    <longitude>-73.21667</longitude>
    <elevation>203.9</elevation>
    <locationLabels>
      <type>CNTRY</type>
      <id>FIPS:US</id>
      <displayName>United States</displayName>
    </locationLabels>
    <coverage>0.6978</coverage>
  </station>
  <station>
    <id>GHCND:USC00250777</id>
    <displayName>BENNINGTON 3 E, NE US</displayName>
    <minDate>1950-11-01</minDate>
    <maxDate>1959-10-27</maxDate>
    <latitude>41.36861</latitude>
    <longitude>-96.095</longitude>
    <elevation>370.3</elevation>
    <locationLabels>
      <type>CNTRY</type>
      <id>FIPS:US</id>
      <displayName>United States</displayName>
    </locationLabels>
    <coverage>0.1033</coverage>
  </station>
  <station>
    <id>GHCND:USC00250781</id>
    <displayName>BENNINGTON 3 WSW, NE US</displayName>
    <minDate>1978-06-01</minDate>
    <maxDate>2013-01-16</maxDate>
    <latitude>41.3536</latitude>
    <longitude>-96.2094</longitude>
    <elevation>379.5</elevation>
    <locationLabels>
      <type>CNTRY</type>
      <id>FIPS:US</id>
      <displayName>United States</displayName>
    </locationLabels>
    <coverage>0.9495</coverage>
  </station>
  <station>
    <id>GHCND:USC00140745</id>
    <displayName>BENNINGTON 6 NNE, KS US</displayName>
    <minDate>1931-08-08</minDate>
    <maxDate>1959-03-31</maxDate>
    <latitude>39.11667</latitude>
    <longitude>-97.56667</longitude>
    <elevation>409</elevation>
    <locationLabels>
      <type>CNTRY</type>
      <id>FIPS:US</id>
      <displayName>United States</displayName>
    </locationLabels>
    <coverage>0.9844</coverage>
  </station>
  <station>
    <id>GHCND:USW00054781</id>
    <displayName>BENNINGTON MORSE STATE AIRPORT, VT US</displayName>
    <minDate>1998-12-05</minDate>
    <maxDate>2013-01-14</maxDate>
    <latitude>42.89139</latitude>
    <longitude>-73.24694</longitude>
    <elevation>251.8</elevation>
    <locationLabels>
      <type>CNTRY</type>
      <id>FIPS:US</id>
      <displayName>United States</displayName>
    </locationLabels>
    <coverage>0.9926</coverage>
  </station>
  <station>
    <id>GHCND:USC00300613</id>
    <displayName>BENNINGTON, NY US</displayName>
    <minDate>1977-10-01</minDate>
    <maxDate>2009-02-28</maxDate>
    <latitude>42.85611</latitude>
    <longitude>-78.39583</longitude>
    <elevation>379.5</elevation>
    <locationLabels>
      <type>CNTRY</type>
      <id>FIPS:US</id>
      <displayName>United States</displayName>
    </locationLabels>
    <coverage>0.9218</coverage>
  </station>
  <station>
    <id>GHCND:USC00430558</id>
    <displayName>BENNINGTON, VT US</displayName>
    <minDate>1948-06-01</minDate>
    <maxDate>1950-09-30</maxDate>
    <latitude>42.85</latitude>
    <longitude>-73.16667</longitude>
    <elevation>267.9</elevation>
    <locationLabels>
      <type>CNTRY</type>
      <id>FIPS:US</id>
      <displayName>United States</displayName>
    </locationLabels>
    <coverage>0.9953</coverage>
  </station>
  <station>
    <id>GHCND:USC00500707</id>
    <displayName>BENS FARM, AK US</displayName>
    <minDate>1969-05-01</minDate>
    <maxDate>2012-12-31</maxDate>
    <latitude>61.5632</latitude>
    <longitude>-149.1542</longitude>
    <elevation>38.7</elevation>
    <locationLabels>
      <type>CNTRY</type>
      <id>FIPS:US</id>
      <displayName>United States</displayName>
    </locationLabels>
    <coverage>0.882</coverage>
  </station>
  <station>
    <id>GHCND:USC00460687</id>
    <displayName>BENS RUN 1 SSE, WV US</displayName>
    <minDate>1900-09-18</minDate>
    <maxDate>1985-09-30</maxDate>
    <latitude>39.46667</latitude>
    <longitude>-81.1</longitude>
    <elevation>195.1</elevation>
    <locationLabels>
      <type>CNTRY</type>
      <id>FIPS:US</id>
      <displayName>United States</displayName>
    </locationLabels>
    <coverage>0.9589</coverage>
  </station>
  <station>
    <id>GHCND:US1PABK0024</id>
    <displayName>BENSALEM 1.3 S, PA US</displayName>
    <minDate>2009-03-03</minDate>
    <maxDate>2010-05-23</maxDate>
    <latitude>40.0855</latitude>
    <longitude>-74.9494</longitude>
    <elevation>17.7</elevation>
    <locationLabels>
      <type>CNTRY</type>
      <id>FIPS:US</id>
      <displayName>United States</displayName>
    </locationLabels>
    <coverage>0.4519</coverage>
  </station>
  <station>
    <id>GHCND:US1ILDP0099</id>
    <displayName>BENSENVILLE 0.3 WSW, IL US</displayName>
    <minDate>2011-04-05</minDate>
    <maxDate>2012-04-01</maxDate>
    <latitude>41.9556</latitude>
    <longitude>-87.9492</longitude>
    <elevation>206.3</elevation>
    <locationLabels>
      <type>CNTRY</type>
      <id>FIPS:US</id>
      <displayName>United States</displayName>
    </locationLabels>
    <coverage>0.5427</coverage>
  </station>
  <station>
    <id>GHCND:US1UTCH0015</id>
    <displayName>BENSON 1.0 SSW, UT US</displayName>
    <minDate>2009-06-12</minDate>
    <maxDate>2012-12-05</maxDate>
    <latitude>41.7874</latitude>
    <longitude>-111.9276</longitude>
    <elevation>1349.7</elevation>
    <locationLabels>
      <type>CNTRY</type>
      <id>FIPS:US</id>
      <displayName>United States</displayName>
    </locationLabels>
    <coverage>0.2962</coverage>
  </station>
  <station>
    <id>GHCND:US1AZPM0009</id>
    <displayName>BENSON 10.3 W, AZ US</displayName>
    <minDate>2009-09-04</minDate>
    <maxDate>2012-09-14</maxDate>
    <latitude>31.959</latitude>
    <longitude>-110.4784</longitude>
    <elevation>1246.3</elevation>
    <locationLabels>
      <type>CNTRY</type>
      <id>FIPS:US</id>
      <displayName>United States</displayName>
    </locationLabels>
    <coverage>0.1012</coverage>
  </station>
  <station>
    <id>GHCND:US1AZCH0006</id>
    <displayName>BENSON 2.5 WSW, AZ US</displayName>
    <minDate>2009-09-01</minDate>
    <maxDate>2013-01-16</maxDate>
    <latitude>31.9521</latitude>
    <longitude>-110.3438</longitude>
    <elevation>1256.4</elevation>
    <locationLabels>
      <type>CNTRY</type>
      <id>FIPS:US</id>
      <displayName>United States</displayName>
    </locationLabels>
    <coverage>0.9935</coverage>
  </station>
  <station>
    <id>GHCND:US1AZCH0037</id>
    <displayName>BENSON 2.7 NNE, AZ US</displayName>
    <minDate>2010-07-20</minDate>
    <maxDate>2012-09-22</maxDate>
    <latitude>31.9988</latitude>
    <longitude>-110.2797</longitude>
    <elevation>1085.4</elevation>
    <locationLabels>
      <type>CNTRY</type>
      <id>FIPS:US</id>
      <displayName>United States</displayName>
    </locationLabels>
    <coverage>0.2864</coverage>
  </station>
  <station>
    <id>GHCND:USC00020683</id>
    <displayName>BENSON 6 SE, AZ US</displayName>
    <minDate>1990-05-01</minDate>
    <maxDate>2013-01-16</maxDate>
    <latitude>31.8805</latitude>
    <longitude>-110.2403</longitude>
    <elevation>1124.7</elevation>
    <locationLabels>
      <type>CNTRY</type>
      <id>FIPS:US</id>
      <displayName>United States</displayName>
    </locationLabels>
    <coverage>0.9272</coverage>
  </station>
  <station>
    <id>GHCND:USC00180732</id>
    <displayName>BENSON POLICE BARRAC, MD US</displayName>
    <minDate>1948-08-01</minDate>
    <maxDate>1995-02-28</maxDate>
    <latitude>39.5</latitude>
    <longitude>-76.38333</longitude>
    <elevation>111.3</elevation>
    <locationLabels>
      <type>CNTRY</type>
      <id>FIPS:US</id>
      <displayName>United States</displayName>
    </locationLabels>
    <coverage>0.989</coverage>
  </station>
  <station>
    <id>GHCND:USC00020680</id>
    <displayName>BENSON, AZ US</displayName>
    <minDate>1894-06-01</minDate>
    <maxDate>1975-05-31</maxDate>
    <latitude>31.96667</latitude>
    <longitude>-110.3</longitude>
    <elevation>1118.9</elevation>
    <locationLabels>
      <type>CNTRY</type>
      <id>FIPS:US</id>
      <displayName>United States</displayName>
    </locationLabels>
    <coverage>0.8993</coverage>
  </station>
  <station>
    <id>GHCND:USC00210667</id>
    <displayName>BENSON, MN US</displayName>
    <minDate>1952-09-01</minDate>
    <maxDate>2013-01-15</maxDate>
    <latitude>45.3167</latitude>
    <longitude>-95.6166</longitude>
    <elevation>317</elevation>
    <locationLabels>
      <type>CNTRY</type>
      <id>FIPS:US</id>
      <displayName>United States</displayName>
    </locationLabels>
    <coverage>0.9916</coverage>
  </station>
  <station>
    <id>GHCND:USC00460679</id>
    <displayName>BENSON, WV US</displayName>
    <minDate>1923-08-01</minDate>
    <maxDate>1964-09-30</maxDate>
    <latitude>39.15</latitude>
    <longitude>-80.55</longitude>
    <elevation>328.9</elevation>
    <locationLabels>
      <type>CNTRY</type>
      <id>FIPS:US</id>
      <displayName>United States</displayName>
    </locationLabels>
    <coverage>0.9564</coverage>
  </station>
  <station>
    <id>GHCND:USC00040682</id>
    <displayName>BENSONS FERRY, CA US</displayName>
    <minDate>1911-12-04</minDate>
    <maxDate>1958-07-31</maxDate>
    <latitude>38.25</latitude>
    <longitude>-121.43333</longitude>
    <elevation>6.1</elevation>
    <locationLabels>
      <type>CNTRY</type>
      <id>FIPS:US</id>
      <displayName>United States</displayName>
    </locationLabels>
    <coverage>0.9464</coverage>
  </station>
  <station>
    <id>GHCND:US1NCBC0012</id>
    <displayName>BENT CREEK 0.3 E, NC US</displayName>
    <minDate>2008-01-17</minDate>
    <maxDate>2008-10-27</maxDate>
    <latitude>35.5112</latitude>
    <longitude>-82.6083</longitude>
    <elevation>665.4</elevation>
    <locationLabels>
      <type>CNTRY</type>
      <id>FIPS:US</id>
      <displayName>United States</displayName>
    </locationLabels>
    <coverage>0.3719</coverage>
  </station>
  <station>
    <id>GHCND:USC00310724</id>
    <displayName>BENT CREEK, NC US</displayName>
    <minDate>1949-01-01</minDate>
    <maxDate>2013-01-16</maxDate>
    <latitude>35.5044</latitude>
    <longitude>-82.5966</longitude>
    <elevation>643.1</elevation>
    <locationLabels>
      <type>CNTRY</type>
      <id>FIPS:US</id>
      <displayName>United States</displayName>
    </locationLabels>
    <coverage>0.9914</coverage>
  </station>
  <station>
    <id>GHCND:USR0000ABNT</id>
    <displayName>BENTALIT ALASKA, AK US</displayName>
    <minDate>1999-07-13</minDate>
    <maxDate>2012-08-30</maxDate>
    <latitude>61.9358</latitude>
    <longitude>-150.9858</longitude>
    <elevation>45.7</elevation>
    <locationLabels>
      <type>CNTRY</type>
      <id>FIPS:US</id>
      <displayName>United States</displayName>
    </locationLabels>
    <coverage>0.8693</coverage>
  </station>
  <station>
    <id>GHCND:US1KSSG0011</id>
    <displayName>BENTLEY 0.0 W, KS US</displayName>
    <minDate>2007-04-11</minDate>
    <maxDate>2009-11-06</maxDate>
    <latitude>37.8864</latitude>
    <longitude>-97.5164</longitude>
    <elevation>430.1</elevation>
    <locationLabels>
      <type>CNTRY</type>
      <id>FIPS:US</id>
      <displayName>United States</displayName>
    </locationLabels>
    <coverage>0.6217</coverage>
  </station>
  <station>
    <id>GHCND:USC00140750</id>
    <displayName>BENTLEY 2 E, KS US</displayName>
    <minDate>2012-03-01</minDate>
    <maxDate>2012-11-30</maxDate>
    <latitude>37.8925</latitude>
    <longitude>-97.4827</longitude>
    <elevation>420.6</elevation>
    <locationLabels>
      <type>CNTRY</type>
      <id>FIPS:US</id>
      <displayName>United States</displayName>
    </locationLabels>
    <coverage>0.9855</coverage>
  </station>
  <station>
    <id>GHCND:USC00180737</id>
    <displayName>BENTLEY SPRINGS 1 WN, MD US</displayName>
    <minDate>1949-04-23</minDate>
    <maxDate>1960-12-31</maxDate>
    <latitude>39.68333</latitude>
    <longitude>-76.7</longitude>
    <elevation>223.1</elevation>
    <locationLabels>
      <type>CNTRY</type>
      <id>FIPS:US</id>
      <displayName>United States</displayName>
    </locationLabels>
    <coverage>0.9852</coverage>
  </station>
  <station>
    <id>GHCND:USC00110598</id>
    <displayName>BENTLEY, IL US</displayName>
    <minDate>1948-06-01</minDate>
    <maxDate>2013-01-16</maxDate>
    <latitude>40.3444</latitude>
    <longitude>-91.1124</longitude>
    <elevation>198.1</elevation>
    <locationLabels>
      <type>CNTRY</type>
      <id>FIPS:US</id>
      <displayName>United States</displayName>
    </locationLabels>
    <coverage>0.9881</coverage>
  </station>
  <station>
    <id>GHCND:USC00150615</id>
    <displayName>BENTON 1 N, KY US</displayName>
    <minDate>1956-02-01</minDate>
    <maxDate>1967-04-30</maxDate>
    <latitude>36.86667</latitude>
    <longitude>-88.33333</longitude>
    <elevation>113.1</elevation>
    <locationLabels>
      <type>CNTRY</type>
      <id>FIPS:US</id>
      <displayName>United States</displayName>
    </locationLabels>
    <coverage>0.9314</coverage>
  </station>
  <station>
    <id>GHCND:US1LABS0007</id>
    <displayName>BENTON 1.4 NW, LA US</displayName>
    <minDate>2011-03-28</minDate>
    <maxDate>2013-01-16</maxDate>
    <latitude>32.7044</latitude>
    <longitude>-93.7594</longitude>
    <elevation>73.5</elevation>
    <locationLabels>
      <type>CNTRY</type>
      <id>FIPS:US</id>
      <displayName>United States</displayName>
    </locationLabels>
    <coverage>0.9198</coverage>
  </station>
  <station>
    <id>GHCND:US1ARSL0006</id>
    <displayName>BENTON 11.4 NW, AR US</displayName>
    <minDate>2009-07-17</minDate>
    <maxDate>2012-12-15</maxDate>
    <latitude>34.7021</latitude>
    <longitude>-92.6972</longitude>
    <elevation>129.5</elevation>
    <locationLabels>
      <type>CNTRY</type>
      <id>FIPS:US</id>
      <displayName>United States</displayName>
    </locationLabels>
    <coverage>0.6394</coverage>
  </station>
  <station>
    <id>GHCND:US1TNPK0001</id>
    <displayName>BENTON 2.3 ESE, TN US</displayName>
    <minDate>2012-03-06</minDate>
    <maxDate>2013-01-16</maxDate>
    <latitude>35.1688</latitude>
    <longitude>-84.6135</longitude>
    <elevation>287.7</elevation>
    <locationLabels>
      <type>CNTRY</type>
      <id>FIPS:US</id>
      <displayName>United States</displayName>
    </locationLabels>
    <coverage>0.8959</coverage>
  </station>
  <station>
    <id>GHCND:USC00360582</id>
    <displayName>BENTON 3 NE, PA US</displayName>
    <minDate>2001-03-01</minDate>
    <maxDate>2013-01-16</maxDate>
    <latitude>41.2322</latitude>
    <longitude>-76.3423</longitude>
    <elevation>333.8</elevation>
    <locationLabels>
      <type>CNTRY</type>
      <id>FIPS:US</id>
      <displayName>United States</displayName>
    </locationLabels>
    <coverage>0.9991</coverage>
  </station>
  <station>
    <id>GHCND:USC00160718</id>
    <displayName>BENTON 5 E, LA US</displayName>
    <minDate>1998-03-01</minDate>
    <maxDate>2013-01-16</maxDate>
    <latitude>32.4507</latitude>
    <longitude>-93.8371</longitude>
    <elevation>61</elevation>
    <locationLabels>
      <type>CNTRY</type>
      <id>FIPS:US</id>
      <displayName>United States</displayName>
    </locationLabels>
    <coverage>0.7662</coverage>
  </station>
  <station>
    <id>GHCND:USC00270681</id>
    <displayName>BENTON 5 SW, NH US</displayName>
    <minDate>1965-01-01</minDate>
    <maxDate>2012-11-15</maxDate>
    <latitude>44.0341</latitude>
    <longitude>-71.9486</longitude>
    <elevation>365.8</elevation>
    <locationLabels>
      <type>CNTRY</type>
      <id>FIPS:US</id>
      <displayName>United States</displayName>
    </locationLabels>
    <coverage>0.9956</coverage>
  </station>
  <station>
    <id>GHCND:US1ILFK0002</id>
    <displayName>BENTON 5.3 NNE, IL US</displayName>
    <minDate>2007-12-05</minDate>
    <maxDate>2008-05-23</maxDate>
    <latitude>38.0735</latitude>
    <longitude>-88.8706</longitude>
    <elevation>146.9</elevation>
    <locationLabels>
      <type>CNTRY</type>
      <id>FIPS:US</id>
      <displayName>United States</displayName>
    </locationLabels>
    <coverage>0.883</coverage>
  </station>
  <station>
    <id>GHCND:USR0000CBEN</id>
    <displayName>BENTON CALIFORNIA, CA US</displayName>
    <minDate>1994-05-09</minDate>
    <maxDate>2012-08-30</maxDate>
    <latitude>37.8431</latitude>
    <longitude>-118.4778</longitude>
    <elevation>1661.2</elevation>
    <locationLabels>
      <type>CNTRY</type>
      <id>FIPS:US</id>
      <displayName>United States</displayName>
    </locationLabels>
    <coverage>0.9593</coverage>
  </station>
  <station>
    <id>GHCND:USC00450628</id>
    <displayName>BENTON CITY 2 NW, WA US</displayName>
    <minDate>1905-02-01</minDate>
    <maxDate>1964-01-31</maxDate>
    <latitude>46.28333</latitude>
    <longitude>-119.5</longitude>
    <elevation>207</elevation>
    <locationLabels>
      <type>CNTRY</type>
      <id>FIPS:US</id>
      <displayName>United States</displayName>
    </locationLabels>
    <coverage>0.8796</coverage>
  </station>
  <station>
    <id>GHCND:US1WABT0012</id>
    <displayName>BENTON CITY 2.0 E, WA US</displayName>
    <minDate>2011-06-22</minDate>
    <maxDate>2012-02-25</maxDate>
    <latitude>46.2656</latitude>
    <longitude>-119.4458</longitude>
    <elevation>214</elevation>
    <locationLabels>
      <type>CNTRY</type>
      <id>FIPS:US</id>
      <displayName>United States</displayName>
    </locationLabels>
    <coverage>0.4458</coverage>
  </station>
  <station>
    <id>GHCND:USC00100789</id>
    <displayName>BENTON DAM, ID US</displayName>
    <minDate>1950-02-01</minDate>
    <maxDate>1951-09-30</maxDate>
    <latitude>48.35</latitude>
    <longitude>-116.8</longitude>
    <elevation>805</elevation>
    <locationLabels>
      <type>CNTRY</type>
      <id>FIPS:US</id>
      <displayName>United States</displayName>
    </locationLabels>
    <coverage>0.9934</coverage>
  </station>
  <station>
    <id>GHCND:USW00094871</id>
    <displayName>BENTON HARBOR AIRPORT, MI US</displayName>
    <minDate>1893-01-01</minDate>
    <maxDate>2013-01-15</maxDate>
    <latitude>42.1245</latitude>
    <longitude>-86.4266</longitude>
    <elevation>196</elevation>
    <locationLabels>
      <type>CNTRY</type>
      <id>FIPS:US</id>
      <displayName>United States</displayName>
    </locationLabels>
    <coverage>0.6257</coverage>
  </station>
  <station>
    <id>GHCND:USC00040684</id>
    <displayName>BENTON INSPECTION STATION, CA US</displayName>
    <minDate>1964-10-01</minDate>
    <maxDate>2003-03-31</maxDate>
    <latitude>37.84278</latitude>
    <longitude>-118.47833</longitude>
    <elevation>1664.2</elevation>
    <locationLabels>
      <type>CNTRY</type>
      <id>FIPS:US</id>
      <displayName>United States</displayName>
    </locationLabels>
    <coverage>0.9928</coverage>
  </station>
  <station>
    <id>GHCND:USC00330622</id>
    <displayName>BENTON RIDGE, OH US</displayName>
    <minDate>1893-02-01</minDate>
    <maxDate>1926-12-20</maxDate>
    <latitude>41.016667</latitude>
    <longitude>-83.816667</longitude>
    <elevation>243.8</elevation>
    <locationLabels>
      <type>CNTRY</type>
      <id>FIPS:US</id>
      <displayName>United States</displayName>
    </locationLabels>
    <coverage>0.9695</coverage>
  </station>
  <station>
    <id>GHCND:USC00030582</id>
    <displayName>BENTON, AR US</displayName>
    <minDate>1907-03-01</minDate>
    <maxDate>2013-01-13</maxDate>
    <latitude>34.5675</latitude>
    <longitude>-92.6006</longitude>
    <elevation>94.5</elevation>
    <locationLabels>
      <type>CNTRY</type>
      <id>FIPS:US</id>
      <displayName>United States</displayName>
    </locationLabels>
    <coverage>0.7547</coverage>
  </station>
  <station>
    <id>GHCND:USC00110608</id>
    <displayName>BENTON, IL US</displayName>
    <minDate>1948-06-01</minDate>
    <maxDate>2009-02-28</maxDate>
    <latitude>38.0336</latitude>
    <longitude>-88.9202</longitude>
    <elevation>135.6</elevation>
    <locationLabels>
      <type>CNTRY</type>
      <id>FIPS:US</id>
      <displayName>United States</displayName>
    </locationLabels>
    <coverage>0.9643</coverage>
  </station>
  <station>
    <id>GHCND:USC00150611</id>
    <displayName>BENTON, KY US</displayName>
    <minDate>1948-08-01</minDate>
    <maxDate>2012-11-30</maxDate>
    <latitude>36.858</latitude>
    <longitude>-88.3363</longitude>
    <elevation>111.3</elevation>
    <locationLabels>
      <type>CNTRY</type>
      <id>FIPS:US</id>
      <displayName>United States</displayName>
    </locationLabels>
    <coverage>0.0489</coverage>
  </station>
  <station>
    <id>GHCND:USC00230551</id>
    <displayName>BENTON, MO US</displayName>
    <minDate>1926-02-01</minDate>
    <maxDate>1927-09-30</maxDate>
    <latitude>37.1</latitude>
    <longitude>-89.55</longitude>
    <locationLabels>
      <type>CNTRY</type>
      <id>FIPS:US</id>
      <displayName>United States</displayName>
    </locationLabels>
    <coverage>1</coverage>
  </station>
  <station>
    <id>GHCND:USC00270675</id>
    <displayName>BENTON, NH US</displayName>
    <minDate>1940-10-01</minDate>
    <maxDate>1964-11-12</maxDate>
    <latitude>44.1</latitude>
    <longitude>-71.88333</longitude>
    <elevation>399.9</elevation>
    <locationLabels>
      <type>CNTRY</type>
      <id>FIPS:US</id>
      <displayName>United States</displayName>
    </locationLabels>
    <coverage>0.8479</coverage>
  </station>
  <station>
    <id>GHCND:US1ARBT0015</id>
    <displayName>BENTONVILLE 0.6 W, AR US</displayName>
    <minDate>2010-05-27</minDate>
    <maxDate>2012-03-21</maxDate>
    <latitude>36.3686</latitude>
    <longitude>-94.2151</longitude>
    <elevation>396.5</elevation>
    <locationLabels>
      <type>CNTRY</type>
      <id>FIPS:US</id>
      <displayName>United States</displayName>
    </locationLabels>
    <coverage>0.2226</coverage>
  </station>
  <station>
    <id>GHCND:US1ARBT0002</id>
    <displayName>BENTONVILLE 1.2 E, AR US</displayName>
    <minDate>2009-04-07</minDate>
    <maxDate>2009-11-21</maxDate>
    <latitude>36.3697</latitude>
    <longitude>-94.1831</longitude>
    <elevation>392.6</elevation>
    <locationLabels>
      <type>CNTRY</type>
      <id>FIPS:US</id>
      <displayName>United States</displayName>
    </locationLabels>
    <coverage>0.5764</coverage>
  </station>
</stationCollection>
