<?xml version="1.0" encoding="UTF-8" standalone="yes"?>
<stationCollection totalCount="46020" pageCount="461" pageSize="100" page="402">
  <station>
    <id>GHCND:USC00247964</id>
    <displayName>SULA 3 ENE, MT US</displayName>
    <minDate>1955-12-01</minDate>
    <maxDate>2012-01-25</maxDate>
    <latitude>45.8479</latitude>
    <longitude>-113.9269</longitude>
    <elevation>1364</elevation>
    <locationLabels>
      <type>CNTRY</type>
      <id>FIPS:US</id>
      <displayName>United States</displayName>
    </locationLabels>
    <coverage>0.9893</coverage>
  </station>
  <station>
    <id>GHCND:USC00017947</id>
    <displayName>SULLIGENT, AL US</displayName>
    <minDate>1984-02-01</minDate>
    <maxDate>2012-09-30</maxDate>
    <latitude>33.8998</latitude>
    <longitude>-88.1326</longitude>
    <elevation>106.7</elevation>
    <locationLabels>
      <type>CNTRY</type>
      <id>FIPS:US</id>
      <displayName>United States</displayName>
    </locationLabels>
    <coverage>0.9717</coverage>
  </station>
  <station>
    <id>GHCND:US1INSL0002</id>
    <displayName>SULLIVAN 0.3 WSW, IN US</displayName>
    <minDate>2006-05-25</minDate>
    <maxDate>2013-01-16</maxDate>
    <latitude>39.0954</latitude>
    <longitude>-87.4122</longitude>
    <elevation>159.1</elevation>
    <locationLabels>
      <type>CNTRY</type>
      <id>FIPS:US</id>
      <displayName>United States</displayName>
    </locationLabels>
    <coverage>0.9638</coverage>
  </station>
  <station>
    <id>GHCND:US1INSL0001</id>
    <displayName>SULLIVAN 0.5 W, IN US</displayName>
    <minDate>2006-05-16</minDate>
    <maxDate>2012-04-05</maxDate>
    <latitude>39.0956</latitude>
    <longitude>-87.4174</longitude>
    <elevation>153</elevation>
    <locationLabels>
      <type>CNTRY</type>
      <id>FIPS:US</id>
      <displayName>United States</displayName>
    </locationLabels>
    <coverage>0.1933</coverage>
  </station>
  <station>
    <id>GHCND:US1ILMU0002</id>
    <displayName>SULLIVAN 0.9 WSW, IL US</displayName>
    <minDate>2009-02-24</minDate>
    <maxDate>2011-04-02</maxDate>
    <latitude>39.5932</latitude>
    <longitude>-88.6239</longitude>
    <elevation>207</elevation>
    <locationLabels>
      <type>CNTRY</type>
      <id>FIPS:US</id>
      <displayName>United States</displayName>
    </locationLabels>
    <coverage>0.763</coverage>
  </station>
  <station>
    <id>GHCND:USC00238171</id>
    <displayName>SULLIVAN 3 SE, MO US</displayName>
    <minDate>1922-03-01</minDate>
    <maxDate>2013-01-16</maxDate>
    <latitude>38.2386</latitude>
    <longitude>-91.1488</longitude>
    <elevation>279.2</elevation>
    <locationLabels>
      <type>CNTRY</type>
      <id>FIPS:US</id>
      <displayName>United States</displayName>
    </locationLabels>
    <coverage>0.7491</coverage>
  </station>
  <station>
    <id>GHCND:USR0000MSUL</id>
    <displayName>SULLIVAN MISSOURI, MO US</displayName>
    <minDate>2003-02-20</minDate>
    <maxDate>2011-05-11</maxDate>
    <latitude>38.2339</latitude>
    <longitude>-91.15</longitude>
    <elevation>281</elevation>
    <locationLabels>
      <type>CNTRY</type>
      <id>FIPS:US</id>
      <displayName>United States</displayName>
    </locationLabels>
    <coverage>1</coverage>
  </station>
  <station>
    <id>GHCND:USC00118389</id>
    <displayName>SULLIVAN, IL US</displayName>
    <minDate>1941-10-01</minDate>
    <maxDate>2013-01-16</maxDate>
    <latitude>39.5608</latitude>
    <longitude>-88.6066</longitude>
    <elevation>200.9</elevation>
    <locationLabels>
      <type>CNTRY</type>
      <id>FIPS:US</id>
      <displayName>United States</displayName>
    </locationLabels>
    <coverage>0.427</coverage>
  </station>
  <station>
    <id>GHCND:USC00118386</id>
    <displayName>SULLIVAN, IL US</displayName>
    <minDate>1898-12-01</minDate>
    <maxDate>1915-05-31</maxDate>
    <latitude>39.616667</latitude>
    <longitude>-88.633333</longitude>
    <elevation>209.1</elevation>
    <locationLabels>
      <type>CNTRY</type>
      <id>FIPS:US</id>
      <displayName>United States</displayName>
    </locationLabels>
    <coverage>0.9471</coverage>
  </station>
  <station>
    <id>GHCND:USC00128528</id>
    <displayName>SULLIVAN, IN US</displayName>
    <minDate>1963-08-01</minDate>
    <maxDate>1976-11-30</maxDate>
    <latitude>39.1</latitude>
    <longitude>-87.41667</longitude>
    <elevation>156.1</elevation>
    <locationLabels>
      <type>CNTRY</type>
      <id>FIPS:US</id>
      <displayName>United States</displayName>
    </locationLabels>
    <coverage>0.7403</coverage>
  </station>
  <station>
    <id>GHCND:USC00388405</id>
    <displayName>SULLIVANS ISLAND, SC US</displayName>
    <minDate>1951-07-01</minDate>
    <maxDate>2013-01-15</maxDate>
    <latitude>32.76</latitude>
    <longitude>-79.84889</longitude>
    <elevation>1.5</elevation>
    <locationLabels>
      <type>CNTRY</type>
      <id>FIPS:US</id>
      <displayName>United States</displayName>
    </locationLabels>
    <coverage>0.9268</coverage>
  </station>
  <station>
    <id>GHCND:USC00398107</id>
    <displayName>SULPHUR 2 W, SD US</displayName>
    <minDate>1949-08-01</minDate>
    <maxDate>1957-09-30</maxDate>
    <latitude>44.88333</latitude>
    <longitude>-102.95</longitude>
    <elevation>865.9</elevation>
    <locationLabels>
      <type>CNTRY</type>
      <id>FIPS:US</id>
      <displayName>United States</displayName>
    </locationLabels>
    <coverage>0.9557</coverage>
  </station>
  <station>
    <id>GHCND:US1LACC0006</id>
    <displayName>SULPHUR 2.2 E, LA US</displayName>
    <minDate>2008-01-30</minDate>
    <maxDate>2010-06-24</maxDate>
    <latitude>30.2339</latitude>
    <longitude>-93.3205</longitude>
    <elevation>4.6</elevation>
    <locationLabels>
      <type>CNTRY</type>
      <id>FIPS:US</id>
      <displayName>United States</displayName>
    </locationLabels>
    <coverage>0.5439</coverage>
  </station>
  <station>
    <id>GHCND:US1OKMR0001</id>
    <displayName>SULPHUR 2.5 WSW, OK US</displayName>
    <minDate>2006-11-01</minDate>
    <maxDate>2013-01-16</maxDate>
    <latitude>34.4913</latitude>
    <longitude>-97.0176</longitude>
    <elevation>310.9</elevation>
    <locationLabels>
      <type>CNTRY</type>
      <id>FIPS:US</id>
      <displayName>United States</displayName>
    </locationLabels>
    <coverage>0.8687</coverage>
  </station>
  <station>
    <id>GHCND:US1LACC0011</id>
    <displayName>SULPHUR 3.6 SW, LA US</displayName>
    <minDate>2009-09-10</minDate>
    <maxDate>2011-05-03</maxDate>
    <latitude>30.1992</latitude>
    <longitude>-93.4048</longitude>
    <elevation>3.7</elevation>
    <locationLabels>
      <type>CNTRY</type>
      <id>FIPS:US</id>
      <displayName>United States</displayName>
    </locationLabels>
    <coverage>0.4626</coverage>
  </station>
  <station>
    <id>GHCND:USC00348570</id>
    <displayName>SULPHUR 4 NNE MESONET, OK US</displayName>
    <minDate>2009-02-01</minDate>
    <maxDate>2013-01-15</maxDate>
    <latitude>34.56583</latitude>
    <longitude>-96.95028</longitude>
    <elevation>319.7</elevation>
    <locationLabels>
      <type>CNTRY</type>
      <id>FIPS:US</id>
      <displayName>United States</displayName>
    </locationLabels>
    <coverage>0.9308</coverage>
  </station>
  <station>
    <id>GHCND:USC00348587</id>
    <displayName>SULPHUR PLATT NL PK, OK US</displayName>
    <minDate>1917-02-01</minDate>
    <maxDate>1978-10-31</maxDate>
    <latitude>34.5</latitude>
    <longitude>-96.96667</longitude>
    <elevation>302.1</elevation>
    <locationLabels>
      <type>CNTRY</type>
      <id>FIPS:US</id>
      <displayName>United States</displayName>
    </locationLabels>
    <coverage>0.9838</coverage>
  </station>
  <station>
    <id>GHCND:USC00418743</id>
    <displayName>SULPHUR SPRINGS, TX US</displayName>
    <minDate>1893-01-01</minDate>
    <maxDate>2013-01-16</maxDate>
    <latitude>33.148</latitude>
    <longitude>-95.6269</longitude>
    <elevation>150.9</elevation>
    <locationLabels>
      <type>CNTRY</type>
      <id>FIPS:US</id>
      <displayName>United States</displayName>
    </locationLabels>
    <coverage>0.843</coverage>
  </station>
  <station>
    <id>GHCND:USC00168831</id>
    <displayName>SULPHUR, LA US</displayName>
    <minDate>1972-04-01</minDate>
    <maxDate>2012-12-31</maxDate>
    <latitude>30.2383</latitude>
    <longitude>-93.3447</longitude>
    <elevation>3</elevation>
    <locationLabels>
      <type>CNTRY</type>
      <id>FIPS:US</id>
      <displayName>United States</displayName>
    </locationLabels>
    <coverage>0.9653</coverage>
  </station>
  <station>
    <id>GHCND:USC00267873</id>
    <displayName>SULPHUR, NV US</displayName>
    <minDate>1914-09-01</minDate>
    <maxDate>1953-01-31</maxDate>
    <latitude>40.9</latitude>
    <longitude>-118.66667</longitude>
    <elevation>1232</elevation>
    <locationLabels>
      <type>CNTRY</type>
      <id>FIPS:US</id>
      <displayName>United States</displayName>
    </locationLabels>
    <coverage>0.8728</coverage>
  </station>
  <station>
    <id>GHCND:USC00458170</id>
    <displayName>SULTAN 1, WA US</displayName>
    <minDate>1923-04-17</minDate>
    <maxDate>1927-10-29</maxDate>
    <latitude>47.833333</latitude>
    <longitude>-121.833333</longitude>
    <elevation>54.3</elevation>
    <locationLabels>
      <type>CNTRY</type>
      <id>FIPS:US</id>
      <displayName>United States</displayName>
    </locationLabels>
    <coverage>0.962</coverage>
  </station>
  <station>
    <id>GHCND:US1WASN0047</id>
    <displayName>SULTAN 1.7 NNE, WA US</displayName>
    <minDate>2008-12-09</minDate>
    <maxDate>2010-01-06</maxDate>
    <latitude>47.8866</latitude>
    <longitude>-121.7883</longitude>
    <elevation>147.8</elevation>
    <locationLabels>
      <type>CNTRY</type>
      <id>FIPS:US</id>
      <displayName>United States</displayName>
    </locationLabels>
    <coverage>0.6675</coverage>
  </station>
  <station>
    <id>GHCND:US1WASN0064</id>
    <displayName>SULTAN 2.3 ESE, WA US</displayName>
    <minDate>2009-12-18</minDate>
    <maxDate>2013-01-15</maxDate>
    <latitude>47.8485</latitude>
    <longitude>-121.7619</longitude>
    <elevation>48.5</elevation>
    <locationLabels>
      <type>CNTRY</type>
      <id>FIPS:US</id>
      <displayName>United States</displayName>
    </locationLabels>
    <coverage>0.5369</coverage>
  </station>
  <station>
    <id>GHCND:USC00508807</id>
    <displayName>SULZER, AK US</displayName>
    <minDate>1915-07-01</minDate>
    <maxDate>1919-05-31</maxDate>
    <latitude>55.2667</latitude>
    <longitude>-132.7</longitude>
    <elevation>1.5</elevation>
    <locationLabels>
      <type>CNTRY</type>
      <id>FIPS:US</id>
      <displayName>United States</displayName>
    </locationLabels>
    <coverage>0.9692</coverage>
  </station>
  <station>
    <id>GHCND:USR0000FSUM</id>
    <displayName>SUMATRA FLORIDA, FL US</displayName>
    <minDate>2003-03-08</minDate>
    <maxDate>2012-08-31</maxDate>
    <latitude>30.0175</latitude>
    <longitude>-84.9842</longitude>
    <elevation>18.3</elevation>
    <locationLabels>
      <type>CNTRY</type>
      <id>FIPS:US</id>
      <displayName>United States</displayName>
    </locationLabels>
    <coverage>0.8271</coverage>
  </station>
  <station>
    <id>GHCND:USC00017955</id>
    <displayName>SUMITON, AL US</displayName>
    <minDate>1992-04-01</minDate>
    <maxDate>2004-04-30</maxDate>
    <latitude>33.7525</latitude>
    <longitude>-87.04833</longitude>
    <elevation>94.5</elevation>
    <locationLabels>
      <type>CNTRY</type>
      <id>FIPS:US</id>
      <displayName>United States</displayName>
    </locationLabels>
    <coverage>0.8604</coverage>
  </station>
  <station>
    <id>GHCND:USC00017282</id>
    <displayName>SUMITON, AL US</displayName>
    <minDate>1938-03-01</minDate>
    <maxDate>1992-03-31</maxDate>
    <latitude>33.7525</latitude>
    <longitude>-87.04833</longitude>
    <elevation>94.5</elevation>
    <locationLabels>
      <type>CNTRY</type>
      <id>FIPS:US</id>
      <displayName>United States</displayName>
    </locationLabels>
    <coverage>0.8968</coverage>
  </station>
  <station>
    <id>GHCND:USC00358173</id>
    <displayName>SUMMER LAKE 1 S, OR US</displayName>
    <minDate>1957-03-05</minDate>
    <maxDate>2013-01-15</maxDate>
    <latitude>42.9592</latitude>
    <longitude>-120.7897</longitude>
    <elevation>1277.7</elevation>
    <locationLabels>
      <type>CNTRY</type>
      <id>FIPS:US</id>
      <displayName>United States</displayName>
    </locationLabels>
    <coverage>0.9951</coverage>
  </station>
  <station>
    <id>GHCND:USS0020G02S</id>
    <displayName>SUMMER RIM, OR US</displayName>
    <minDate>1978-10-01</minDate>
    <maxDate>2013-01-07</maxDate>
    <latitude>42.7</latitude>
    <longitude>-120.8167</longitude>
    <elevation>2164.1</elevation>
    <locationLabels>
      <type>CNTRY</type>
      <id>FIPS:US</id>
      <displayName>United States</displayName>
    </locationLabels>
    <coverage>0.9425</coverage>
  </station>
  <station>
    <id>GHCND:USC00157805</id>
    <displayName>SUMMER SHADE SUB STATION, KY US</displayName>
    <minDate>1949-01-01</minDate>
    <maxDate>1962-03-31</maxDate>
    <latitude>36.88333</latitude>
    <longitude>-85.66667</longitude>
    <locationLabels>
      <type>CNTRY</type>
      <id>FIPS:US</id>
      <displayName>United States</displayName>
    </locationLabels>
    <coverage>0.9979</coverage>
  </station>
  <station>
    <id>GHCND:USC00157800</id>
    <displayName>SUMMER SHADE, KY US</displayName>
    <minDate>1950-11-01</minDate>
    <maxDate>2009-02-28</maxDate>
    <latitude>36.8861</latitude>
    <longitude>-85.7066</longitude>
    <elevation>263.3</elevation>
    <locationLabels>
      <type>CNTRY</type>
      <id>FIPS:US</id>
      <displayName>United States</displayName>
    </locationLabels>
    <coverage>0.9932</coverage>
  </station>
  <station>
    <id>GHCND:US1ALBW0017</id>
    <displayName>SUMMERDALE 2.5 ESE, AL US</displayName>
    <minDate>2007-12-29</minDate>
    <maxDate>2011-02-01</maxDate>
    <latitude>30.4702</latitude>
    <longitude>-87.6607</longitude>
    <elevation>34.1</elevation>
    <locationLabels>
      <type>CNTRY</type>
      <id>FIPS:US</id>
      <displayName>United States</displayName>
    </locationLabels>
    <coverage>0.7719</coverage>
  </station>
  <station>
    <id>GHCND:US1ALBW0020</id>
    <displayName>SUMMERDALE 4.3 WSW, AL US</displayName>
    <minDate>2008-01-01</minDate>
    <maxDate>2012-10-17</maxDate>
    <latitude>30.4624</latitude>
    <longitude>-87.7678</longitude>
    <elevation>30.2</elevation>
    <locationLabels>
      <type>CNTRY</type>
      <id>FIPS:US</id>
      <displayName>United States</displayName>
    </locationLabels>
    <coverage>0.4053</coverage>
  </station>
  <station>
    <id>GHCND:USC00368636</id>
    <displayName>SUMMERDALE NEAR, PA US</displayName>
    <minDate>1935-03-01</minDate>
    <maxDate>1941-03-31</maxDate>
    <latitude>40.316667</latitude>
    <longitude>-76.916667</longitude>
    <elevation>152.4</elevation>
    <locationLabels>
      <type>CNTRY</type>
      <id>FIPS:US</id>
      <displayName>United States</displayName>
    </locationLabels>
    <coverage>0.9146</coverage>
  </station>
  <station>
    <id>GHCND:USC00338148</id>
    <displayName>SUMMERFIELD 2 NE, OH US</displayName>
    <minDate>1906-02-01</minDate>
    <maxDate>1987-10-31</maxDate>
    <latitude>39.81667</latitude>
    <longitude>-81.3</longitude>
    <elevation>298.7</elevation>
    <locationLabels>
      <type>CNTRY</type>
      <id>FIPS:US</id>
      <displayName>United States</displayName>
    </locationLabels>
    <coverage>0.8249</coverage>
  </station>
  <station>
    <id>GHCND:US1FLMR0023</id>
    <displayName>SUMMERFIELD 2.8 SW, FL US</displayName>
    <minDate>2009-03-02</minDate>
    <maxDate>2011-11-18</maxDate>
    <latitude>28.9782</latitude>
    <longitude>-82.0723</longitude>
    <elevation>18.3</elevation>
    <locationLabels>
      <type>CNTRY</type>
      <id>FIPS:US</id>
      <displayName>United States</displayName>
    </locationLabels>
    <coverage>0.6169</coverage>
  </station>
  <station>
    <id>GHCND:US1FLMR0032</id>
    <displayName>SUMMERFIELD 3.0 NE, FL US</displayName>
    <minDate>2012-04-06</minDate>
    <maxDate>2013-01-16</maxDate>
    <latitude>29.042</latitude>
    <longitude>-81.9983</longitude>
    <elevation>28.3</elevation>
    <locationLabels>
      <type>CNTRY</type>
      <id>FIPS:US</id>
      <displayName>United States</displayName>
    </locationLabels>
    <coverage>0.9685</coverage>
  </station>
  <station>
    <id>GHCND:US1FLMR0026</id>
    <displayName>SUMMERFIELD 3.1 NE, FL US</displayName>
    <minDate>2009-06-17</minDate>
    <maxDate>2011-05-07</maxDate>
    <latitude>29.0362</latitude>
    <longitude>-82.0003</longitude>
    <elevation>27.4</elevation>
    <locationLabels>
      <type>CNTRY</type>
      <id>FIPS:US</id>
      <displayName>United States</displayName>
    </locationLabels>
    <coverage>0.6957</coverage>
  </station>
  <station>
    <id>GHCND:US10pawn009</id>
    <displayName>SUMMERFIELD 4.1 ENE, NE US</displayName>
    <minDate>2007-03-27</minDate>
    <maxDate>2013-01-16</maxDate>
    <latitude>40.0136</latitude>
    <longitude>-96.2747</longitude>
    <elevation>410</elevation>
    <locationLabels>
      <type>CNTRY</type>
      <id>FIPS:US</id>
      <displayName>United States</displayName>
    </locationLabels>
    <coverage>0.6971</coverage>
  </station>
  <station>
    <id>GHCND:US1FLMR0001</id>
    <displayName>SUMMERFIELD 4.9 SE, FL US</displayName>
    <minDate>2007-09-24</minDate>
    <maxDate>2009-12-26</maxDate>
    <latitude>28.9669</latitude>
    <longitude>-81.9695</longitude>
    <elevation>29.9</elevation>
    <locationLabels>
      <type>CNTRY</type>
      <id>FIPS:US</id>
      <displayName>United States</displayName>
    </locationLabels>
    <coverage>0.7479</coverage>
  </station>
  <station>
    <id>GHCND:USC00338158</id>
    <displayName>SUMMERFORD, OH US</displayName>
    <minDate>1975-09-01</minDate>
    <maxDate>1988-09-30</maxDate>
    <latitude>39.93333</latitude>
    <longitude>-83.5</longitude>
    <elevation>338.9</elevation>
    <locationLabels>
      <type>CNTRY</type>
      <id>FIPS:US</id>
      <displayName>United States</displayName>
    </locationLabels>
    <coverage>0.9512</coverage>
  </station>
  <station>
    <id>GHCND:US1MOTX0006</id>
    <displayName>SUMMERSVILLE 6.1 NNW, MO US</displayName>
    <minDate>2006-08-11</minDate>
    <maxDate>2010-01-02</maxDate>
    <latitude>37.2567</latitude>
    <longitude>-91.7099</longitude>
    <elevation>395</elevation>
    <locationLabels>
      <type>CNTRY</type>
      <id>FIPS:US</id>
      <displayName>United States</displayName>
    </locationLabels>
    <coverage>0.9484</coverage>
  </station>
  <station>
    <id>GHCND:US1MOTX0013</id>
    <displayName>SUMMERSVILLE 7.8 NW, MO US</displayName>
    <minDate>2006-09-12</minDate>
    <maxDate>2007-06-27</maxDate>
    <latitude>37.2449</latitude>
    <longitude>-91.7734</longitude>
    <elevation>402.9</elevation>
    <locationLabels>
      <type>CNTRY</type>
      <id>FIPS:US</id>
      <displayName>United States</displayName>
    </locationLabels>
    <coverage>0.8962</coverage>
  </station>
  <station>
    <id>GHCND:US1WVNC0001</id>
    <displayName>SUMMERSVILLE 7.8 SW, WV US</displayName>
    <minDate>2009-05-02</minDate>
    <maxDate>2012-10-09</maxDate>
    <latitude>38.2028</latitude>
    <longitude>-80.943</longitude>
    <elevation>522.7</elevation>
    <locationLabels>
      <type>CNTRY</type>
      <id>FIPS:US</id>
      <displayName>United States</displayName>
    </locationLabels>
    <coverage>0.5306</coverage>
  </station>
  <station>
    <id>GHCND:USC00468614</id>
    <displayName>SUMMERSVILLE LAKE, WV US</displayName>
    <minDate>1967-02-01</minDate>
    <maxDate>2013-01-14</maxDate>
    <latitude>38.2201</latitude>
    <longitude>-80.8939</longitude>
    <elevation>536.4</elevation>
    <locationLabels>
      <type>CNTRY</type>
      <id>FIPS:US</id>
      <displayName>United States</displayName>
    </locationLabels>
    <coverage>0.9806</coverage>
  </station>
  <station>
    <id>GHCND:USC00238184</id>
    <displayName>SUMMERSVILLE, MO US</displayName>
    <minDate>1940-04-03</minDate>
    <maxDate>2012-08-18</maxDate>
    <latitude>37.1398</latitude>
    <longitude>-91.6273</longitude>
    <elevation>374</elevation>
    <locationLabels>
      <type>CNTRY</type>
      <id>FIPS:US</id>
      <displayName>United States</displayName>
    </locationLabels>
    <coverage>0.9562</coverage>
  </station>
  <station>
    <id>GHCND:USC00468608</id>
    <displayName>SUMMERSVILLE, WV US</displayName>
    <minDate>1901-01-17</minDate>
    <maxDate>1966-12-31</maxDate>
    <latitude>38.28333</latitude>
    <longitude>-80.83333</longitude>
    <elevation>588.9</elevation>
    <locationLabels>
      <type>CNTRY</type>
      <id>FIPS:US</id>
      <displayName>United States</displayName>
    </locationLabels>
    <coverage>0.4528</coverage>
  </station>
  <station>
    <id>GHCND:US1SCCD0004</id>
    <displayName>SUMMERTON 5.2 SSE, SC US</displayName>
    <minDate>2009-03-01</minDate>
    <maxDate>2013-01-16</maxDate>
    <latitude>33.5332</latitude>
    <longitude>-80.3149</longitude>
    <elevation>24.1</elevation>
    <locationLabels>
      <type>CNTRY</type>
      <id>FIPS:US</id>
      <displayName>United States</displayName>
    </locationLabels>
    <coverage>0.8449</coverage>
  </station>
  <station>
    <id>GHCND:US1SCCD0001</id>
    <displayName>SUMMERTON 8.4 SE, SC US</displayName>
    <minDate>2008-04-21</minDate>
    <maxDate>2013-01-16</maxDate>
    <latitude>33.5275</latitude>
    <longitude>-80.2372</longitude>
    <elevation>23.5</elevation>
    <locationLabels>
      <type>CNTRY</type>
      <id>FIPS:US</id>
      <displayName>United States</displayName>
    </locationLabels>
    <coverage>0.9821</coverage>
  </station>
  <station>
    <id>GHCND:US1SCDC0011</id>
    <displayName>SUMMERVILLE 1.9 S, SC US</displayName>
    <minDate>2008-03-11</minDate>
    <maxDate>2010-08-15</maxDate>
    <latitude>32.9778</latitude>
    <longitude>-80.1847</longitude>
    <elevation>11</elevation>
    <locationLabels>
      <type>CNTRY</type>
      <id>FIPS:US</id>
      <displayName>United States</displayName>
    </locationLabels>
    <coverage>0.1453</coverage>
  </station>
  <station>
    <id>GHCND:US1GACG0002</id>
    <displayName>SUMMERVILLE 2.6 NW, GA US</displayName>
    <minDate>2008-05-15</minDate>
    <maxDate>2013-01-16</maxDate>
    <latitude>34.5091</latitude>
    <longitude>-85.3758</longitude>
    <elevation>213.1</elevation>
    <locationLabels>
      <type>CNTRY</type>
      <id>FIPS:US</id>
      <displayName>United States</displayName>
    </locationLabels>
    <coverage>0.9754</coverage>
  </station>
  <station>
    <id>GHCND:US1GACG0008</id>
    <displayName>SUMMERVILLE 2.8 NE, GA US</displayName>
    <minDate>2012-01-06</minDate>
    <maxDate>2013-01-16</maxDate>
    <latitude>34.5123</latitude>
    <longitude>-85.3213</longitude>
    <elevation>210.9</elevation>
    <locationLabels>
      <type>CNTRY</type>
      <id>FIPS:US</id>
      <displayName>United States</displayName>
    </locationLabels>
    <coverage>0.9072</coverage>
  </station>
  <station>
    <id>GHCND:US1SCBK0016</id>
    <displayName>SUMMERVILLE 3.3 NE, SC US</displayName>
    <minDate>2008-05-17</minDate>
    <maxDate>2013-01-16</maxDate>
    <latitude>33.0347</latitude>
    <longitude>-80.135</longitude>
    <elevation>24.1</elevation>
    <locationLabels>
      <type>CNTRY</type>
      <id>FIPS:US</id>
      <displayName>United States</displayName>
    </locationLabels>
    <coverage>0.939</coverage>
  </station>
  <station>
    <id>GHCND:US1SCDC0029</id>
    <displayName>SUMMERVILLE 3.3 WNW, SC US</displayName>
    <minDate>2011-09-30</minDate>
    <maxDate>2013-01-14</maxDate>
    <latitude>33.0268</latitude>
    <longitude>-80.2289</longitude>
    <elevation>18.6</elevation>
    <locationLabels>
      <type>CNTRY</type>
      <id>FIPS:US</id>
      <displayName>United States</displayName>
    </locationLabels>
    <coverage>0.6025</coverage>
  </station>
  <station>
    <id>GHCND:US1SCDC0005</id>
    <displayName>SUMMERVILLE 3.7 NW, SC US</displayName>
    <minDate>2008-03-01</minDate>
    <maxDate>2013-01-16</maxDate>
    <latitude>33.0417</latitude>
    <longitude>-80.2245</longitude>
    <elevation>22.9</elevation>
    <locationLabels>
      <type>CNTRY</type>
      <id>FIPS:US</id>
      <displayName>United States</displayName>
    </locationLabels>
    <coverage>0.9882</coverage>
  </station>
  <station>
    <id>GHCND:US1SCBK0019</id>
    <displayName>SUMMERVILLE 3.8 NE, SC US</displayName>
    <minDate>2009-06-18</minDate>
    <maxDate>2013-01-11</maxDate>
    <latitude>33.0377</latitude>
    <longitude>-80.1259</longitude>
    <elevation>24.4</elevation>
    <locationLabels>
      <type>CNTRY</type>
      <id>FIPS:US</id>
      <displayName>United States</displayName>
    </locationLabels>
    <coverage>0.2699</coverage>
  </station>
  <station>
    <id>GHCND:USC00388426</id>
    <displayName>SUMMERVILLE 4 W, SC US</displayName>
    <minDate>1898-07-01</minDate>
    <maxDate>2013-01-16</maxDate>
    <latitude>33.0366</latitude>
    <longitude>-80.2325</longitude>
    <elevation>19.8</elevation>
    <locationLabels>
      <type>CNTRY</type>
      <id>FIPS:US</id>
      <displayName>United States</displayName>
    </locationLabels>
    <coverage>0.9425</coverage>
  </station>
  <station>
    <id>GHCND:US1SCDC0023</id>
    <displayName>SUMMERVILLE 4.1 WNW, SC US</displayName>
    <minDate>2009-01-18</minDate>
    <maxDate>2011-11-04</maxDate>
    <latitude>33.036</latitude>
    <longitude>-80.238</longitude>
    <elevation>20.1</elevation>
    <locationLabels>
      <type>CNTRY</type>
      <id>FIPS:US</id>
      <displayName>United States</displayName>
    </locationLabels>
    <coverage>0.4682</coverage>
  </station>
  <station>
    <id>GHCND:USC00098436</id>
    <displayName>SUMMERVILLE, GA US</displayName>
    <minDate>1937-06-01</minDate>
    <maxDate>2012-12-31</maxDate>
    <latitude>34.4546</latitude>
    <longitude>-85.39</longitude>
    <elevation>194.8</elevation>
    <locationLabels>
      <type>CNTRY</type>
      <id>FIPS:US</id>
      <displayName>United States</displayName>
    </locationLabels>
    <coverage>0.9734</coverage>
  </station>
  <station>
    <id>GHCND:USC00398116</id>
    <displayName>SUMMIT 1 W, SD US</displayName>
    <minDate>1956-09-01</minDate>
    <maxDate>2013-01-09</maxDate>
    <latitude>45.3036</latitude>
    <longitude>-97.0626</longitude>
    <elevation>595.9</elevation>
    <locationLabels>
      <type>CNTRY</type>
      <id>FIPS:US</id>
      <displayName>United States</displayName>
    </locationLabels>
    <coverage>0.9761</coverage>
  </station>
  <station>
    <id>GHCND:US1WAPR0006</id>
    <displayName>SUMMIT 1.1 WSW, WA US</displayName>
    <minDate>2008-05-29</minDate>
    <maxDate>2013-01-08</maxDate>
    <latitude>47.1653</latitude>
    <longitude>-122.3783</longitude>
    <elevation>140.2</elevation>
    <locationLabels>
      <type>CNTRY</type>
      <id>FIPS:US</id>
      <displayName>United States</displayName>
    </locationLabels>
    <coverage>0.6922</coverage>
  </station>
  <station>
    <id>GHCND:USW00026414</id>
    <displayName>SUMMIT AIRPORT, AK US</displayName>
    <minDate>1905-08-01</minDate>
    <maxDate>1976-10-15</maxDate>
    <latitude>63.33139</latitude>
    <longitude>-149.12722</longitude>
    <elevation>734.3</elevation>
    <locationLabels>
      <type>CNTRY</type>
      <id>FIPS:US</id>
      <displayName>United States</displayName>
    </locationLabels>
    <coverage>0.5227</coverage>
  </station>
  <station>
    <id>GHCND:USC00518775</id>
    <displayName>SUMMIT CAMP, HI US</displayName>
    <minDate>1919-01-01</minDate>
    <maxDate>1928-08-31</maxDate>
    <latitude>22.1</latitude>
    <longitude>-159.45</longitude>
    <elevation>580</elevation>
    <locationLabels>
      <type>CNTRY</type>
      <id>FIPS:US</id>
      <displayName>United States</displayName>
    </locationLabels>
    <coverage>0.8881</coverage>
  </station>
  <station>
    <id>GHCND:USC00358190</id>
    <displayName>SUMMIT GUARD STATION, OR US</displayName>
    <minDate>1895-05-01</minDate>
    <maxDate>1951-05-16</maxDate>
    <latitude>45.3</latitude>
    <longitude>-121.75</longitude>
    <elevation>1189.9</elevation>
    <locationLabels>
      <type>CNTRY</type>
      <id>FIPS:US</id>
      <displayName>United States</displayName>
    </locationLabels>
    <coverage>0.7109</coverage>
  </station>
  <station>
    <id>GHCND:USC00508813</id>
    <displayName>SUMMIT LAKE, AK US</displayName>
    <minDate>1967-12-01</minDate>
    <maxDate>1998-01-31</maxDate>
    <latitude>63.14833</latitude>
    <longitude>-145.54083</longitude>
    <elevation>990.6</elevation>
    <locationLabels>
      <type>CNTRY</type>
      <id>FIPS:US</id>
      <displayName>United States</displayName>
    </locationLabels>
    <coverage>0.1973</coverage>
  </station>
  <station>
    <id>GHCND:USS0022F14S</id>
    <displayName>SUMMIT LAKE, OR US</displayName>
    <minDate>1978-10-01</minDate>
    <maxDate>2013-01-07</maxDate>
    <latitude>43.45</latitude>
    <longitude>-122.1333</longitude>
    <elevation>1706.9</elevation>
    <locationLabels>
      <type>CNTRY</type>
      <id>FIPS:US</id>
      <displayName>United States</displayName>
    </locationLabels>
    <coverage>0.9036</coverage>
  </station>
  <station>
    <id>GHCND:USC00478324</id>
    <displayName>SUMMIT LAKE, WI US</displayName>
    <minDate>1948-08-01</minDate>
    <maxDate>2013-01-15</maxDate>
    <latitude>45.3788</latitude>
    <longitude>-89.1941</longitude>
    <elevation>527.9</elevation>
    <locationLabels>
      <type>CNTRY</type>
      <id>FIPS:US</id>
      <displayName>United States</displayName>
    </locationLabels>
    <coverage>0.9251</coverage>
  </station>
  <station>
    <id>GHCND:USS0019L42S</id>
    <displayName>SUMMIT MEADOW, CA US</displayName>
    <minDate>2003-09-04</minDate>
    <maxDate>2005-01-21</maxDate>
    <latitude>38.4</latitude>
    <longitude>-119.5167</longitude>
    <elevation>2780.4</elevation>
    <locationLabels>
      <type>CNTRY</type>
      <id>FIPS:US</id>
      <displayName>United States</displayName>
    </locationLabels>
    <coverage>0.998</coverage>
  </station>
  <station>
    <id>GHCND:USC00508815</id>
    <displayName>SUMMIT NIKE SITE, AK US</displayName>
    <minDate>1961-09-19</minDate>
    <maxDate>1971-12-31</maxDate>
    <latitude>61.25</latitude>
    <longitude>-149.55</longitude>
    <elevation>1214</elevation>
    <locationLabels>
      <type>CNTRY</type>
      <id>FIPS:US</id>
      <displayName>United States</displayName>
    </locationLabels>
    <coverage>0.5399</coverage>
  </station>
  <station>
    <id>GHCND:USR0000OSUM</id>
    <displayName>SUMMIT OREGON, OR US</displayName>
    <minDate>1985-01-23</minDate>
    <maxDate>2012-08-31</maxDate>
    <latitude>42.2322</latitude>
    <longitude>-120.2456</longitude>
    <elevation>1873.6</elevation>
    <locationLabels>
      <type>CNTRY</type>
      <id>FIPS:US</id>
      <displayName>United States</displayName>
    </locationLabels>
    <coverage>0.8877</coverage>
  </station>
  <station>
    <id>GHCND:USC00358198</id>
    <displayName>SUMMIT PRAIRIE, OR US</displayName>
    <minDate>1908-12-01</minDate>
    <maxDate>1912-04-30</maxDate>
    <latitude>44.366667</latitude>
    <longitude>-120.183333</longitude>
    <elevation>1392.9</elevation>
    <locationLabels>
      <type>CNTRY</type>
      <id>FIPS:US</id>
      <displayName>United States</displayName>
    </locationLabels>
    <coverage>0.8132</coverage>
  </station>
  <station>
    <id>GHCND:USS0006K14S</id>
    <displayName>SUMMIT RANCH, CO US</displayName>
    <minDate>1980-06-14</minDate>
    <maxDate>2013-01-13</maxDate>
    <latitude>39.7167</latitude>
    <longitude>-106.1667</longitude>
    <elevation>2865.1</elevation>
    <locationLabels>
      <type>CNTRY</type>
      <id>FIPS:US</id>
      <displayName>United States</displayName>
    </locationLabels>
    <coverage>0.9008</coverage>
  </station>
  <station>
    <id>GHCND:USC00247978</id>
    <displayName>SUMMIT, MT US</displayName>
    <minDate>1903-01-01</minDate>
    <maxDate>2013-01-16</maxDate>
    <latitude>48.3164</latitude>
    <longitude>-113.3542</longitude>
    <elevation>1595</elevation>
    <locationLabels>
      <type>CNTRY</type>
      <id>FIPS:US</id>
      <displayName>United States</displayName>
    </locationLabels>
    <coverage>0.4716</coverage>
  </station>
  <station>
    <id>GHCND:USC00308338</id>
    <displayName>SUMMIT, NY US</displayName>
    <minDate>1945-06-01</minDate>
    <maxDate>1949-10-31</maxDate>
    <latitude>42.58333</latitude>
    <longitude>-74.58333</longitude>
    <elevation>625.1</elevation>
    <locationLabels>
      <type>CNTRY</type>
      <id>FIPS:US</id>
      <displayName>United States</displayName>
    </locationLabels>
    <coverage>0.9083</coverage>
  </station>
  <station>
    <id>GHCND:USC00358182</id>
    <displayName>SUMMIT, OR US</displayName>
    <minDate>1909-05-01</minDate>
    <maxDate>1995-03-31</maxDate>
    <latitude>44.6369</latitude>
    <longitude>-123.5786</longitude>
    <elevation>227.4</elevation>
    <locationLabels>
      <type>CNTRY</type>
      <id>FIPS:US</id>
      <displayName>United States</displayName>
    </locationLabels>
    <coverage>0.9167</coverage>
  </station>
  <station>
    <id>GHCND:USC00368657</id>
    <displayName>SUMMIT, PA US</displayName>
    <minDate>1920-02-01</minDate>
    <maxDate>1923-08-31</maxDate>
    <latitude>41.716667</latitude>
    <longitude>-80.416667</longitude>
    <elevation>350.5</elevation>
    <locationLabels>
      <type>CNTRY</type>
      <id>FIPS:US</id>
      <displayName>United States</displayName>
    </locationLabels>
    <coverage>0.9702</coverage>
  </station>
  <station>
    <id>GHCND:USC00428456</id>
    <displayName>SUMMIT, UT US</displayName>
    <minDate>1951-11-21</minDate>
    <maxDate>2012-11-30</maxDate>
    <latitude>37.8005</latitude>
    <longitude>-112.9327</longitude>
    <elevation>1828.8</elevation>
    <locationLabels>
      <type>CNTRY</type>
      <id>FIPS:US</id>
      <displayName>United States</displayName>
    </locationLabels>
    <coverage>0.9325</coverage>
  </station>
  <station>
    <id>GHCND:USC00058092</id>
    <displayName>SUMMITVILLE, CO US</displayName>
    <minDate>1939-02-16</minDate>
    <maxDate>1947-10-31</maxDate>
    <latitude>37.43333</latitude>
    <longitude>-106.6</longitude>
    <elevation>3461.9</elevation>
    <locationLabels>
      <type>CNTRY</type>
      <id>FIPS:US</id>
      <displayName>United States</displayName>
    </locationLabels>
    <coverage>0.9421</coverage>
  </station>
  <station>
    <id>GHCND:USC00408758</id>
    <displayName>SUMMITVILLE, TN US</displayName>
    <minDate>1948-09-01</minDate>
    <maxDate>1962-03-31</maxDate>
    <latitude>35.55</latitude>
    <longitude>-85.98333</longitude>
    <elevation>342</elevation>
    <locationLabels>
      <type>CNTRY</type>
      <id>FIPS:US</id>
      <displayName>United States</displayName>
    </locationLabels>
    <coverage>0.9702</coverage>
  </station>
  <station>
    <id>GHCND:US1MEOX0001</id>
    <displayName>SUMNER 1.0 E, ME US</displayName>
    <minDate>2009-07-28</minDate>
    <maxDate>2011-10-14</maxDate>
    <latitude>44.3921</latitude>
    <longitude>-70.4176</longitude>
    <elevation>152.4</elevation>
    <locationLabels>
      <type>CNTRY</type>
      <id>FIPS:US</id>
      <displayName>United States</displayName>
    </locationLabels>
    <coverage>0.2905</coverage>
  </station>
  <station>
    <id>GHCND:US10daws010</id>
    <displayName>SUMNER 2.7 W, NE US</displayName>
    <minDate>2007-01-01</minDate>
    <maxDate>2013-01-15</maxDate>
    <latitude>40.9455</latitude>
    <longitude>-99.5599</longitude>
    <elevation>738.8</elevation>
    <locationLabels>
      <type>CNTRY</type>
      <id>FIPS:US</id>
      <displayName>United States</displayName>
    </locationLabels>
    <coverage>0.9493</coverage>
  </station>
  <station>
    <id>GHCND:USC00238188</id>
    <displayName>SUMNER 3 SW, MO US</displayName>
    <minDate>1948-12-01</minDate>
    <maxDate>2010-12-31</maxDate>
    <latitude>39.6366</latitude>
    <longitude>-93.2899</longitude>
    <elevation>210.3</elevation>
    <locationLabels>
      <type>CNTRY</type>
      <id>FIPS:US</id>
      <displayName>United States</displayName>
    </locationLabels>
    <coverage>0.7963</coverage>
  </station>
  <station>
    <id>GHCND:US10daws011</id>
    <displayName>SUMNER 3.7 ESE, NE US</displayName>
    <minDate>2007-01-01</minDate>
    <maxDate>2013-01-15</maxDate>
    <latitude>40.9238</latitude>
    <longitude>-99.4457</longitude>
    <elevation>748.9</elevation>
    <locationLabels>
      <type>CNTRY</type>
      <id>FIPS:US</id>
      <displayName>United States</displayName>
    </locationLabels>
    <coverage>0.9601</coverage>
  </station>
  <station>
    <id>GHCND:USC00290205</id>
    <displayName>SUMNER LAKE, NM US</displayName>
    <minDate>1948-01-01</minDate>
    <maxDate>1975-02-28</maxDate>
    <latitude>34.6033</latitude>
    <longitude>-104.3811</longitude>
    <elevation>1312.5</elevation>
    <locationLabels>
      <type>CNTRY</type>
      <id>FIPS:US</id>
      <displayName>United States</displayName>
    </locationLabels>
    <coverage>0.9954</coverage>
  </station>
  <station>
    <id>GHCND:USC00298596</id>
    <displayName>SUMNER LAKE, NM US</displayName>
    <minDate>1975-03-01</minDate>
    <maxDate>2012-09-30</maxDate>
    <latitude>34.6033</latitude>
    <longitude>-104.3811</longitude>
    <elevation>1312.5</elevation>
    <locationLabels>
      <type>CNTRY</type>
      <id>FIPS:US</id>
      <displayName>United States</displayName>
    </locationLabels>
    <coverage>0.997</coverage>
  </station>
  <station>
    <id>GHCND:USC00118419</id>
    <displayName>SUMNER, IL US</displayName>
    <minDate>1908-10-14</minDate>
    <maxDate>1912-01-31</maxDate>
    <latitude>38.716667</latitude>
    <longitude>-87.866667</longitude>
    <elevation>139.9</elevation>
    <locationLabels>
      <type>CNTRY</type>
      <id>FIPS:US</id>
      <displayName>United States</displayName>
    </locationLabels>
    <coverage>0.9992</coverage>
  </station>
  <station>
    <id>GHCND:USC00458190</id>
    <displayName>SUMNER, WA US</displayName>
    <minDate>1907-11-10</minDate>
    <maxDate>1920-01-31</maxDate>
    <latitude>47.2</latitude>
    <longitude>-122.25</longitude>
    <elevation>23.5</elevation>
    <locationLabels>
      <type>CNTRY</type>
      <id>FIPS:US</id>
      <displayName>United States</displayName>
    </locationLabels>
    <coverage>0.9984</coverage>
  </station>
  <station>
    <id>GHCND:USC00228556</id>
    <displayName>SUMRALL, MS US</displayName>
    <minDate>1940-05-23</minDate>
    <maxDate>2013-01-16</maxDate>
    <latitude>31.4222</latitude>
    <longitude>-89.5386</longitude>
    <elevation>88.4</elevation>
    <locationLabels>
      <type>CNTRY</type>
      <id>FIPS:US</id>
      <displayName>United States</displayName>
    </locationLabels>
    <coverage>0.9865</coverage>
  </station>
  <station>
    <id>GHCND:US1SCSM0001</id>
    <displayName>SUMTER 1.3 SE, SC US</displayName>
    <minDate>2008-02-27</minDate>
    <maxDate>2013-01-16</maxDate>
    <latitude>33.9323</latitude>
    <longitude>-80.3741</longitude>
    <elevation>56.1</elevation>
    <locationLabels>
      <type>CNTRY</type>
      <id>FIPS:US</id>
      <displayName>United States</displayName>
    </locationLabels>
    <coverage>0.9406</coverage>
  </station>
  <station>
    <id>GHCND:USW00013849</id>
    <displayName>SUMTER SHAW AFB, SC US</displayName>
    <minDate>1949-01-01</minDate>
    <maxDate>1970-12-31</maxDate>
    <latitude>33.96667</latitude>
    <longitude>-80.46667</longitude>
    <elevation>73.5</elevation>
    <locationLabels>
      <type>CNTRY</type>
      <id>FIPS:US</id>
      <displayName>United States</displayName>
    </locationLabels>
    <coverage>0.9951</coverage>
  </station>
  <station>
    <id>GHCND:USC00388440</id>
    <displayName>SUMTER, SC US</displayName>
    <minDate>1901-12-01</minDate>
    <maxDate>2013-01-14</maxDate>
    <latitude>33.93639</latitude>
    <longitude>-80.35694</longitude>
    <elevation>53.9</elevation>
    <locationLabels>
      <type>CNTRY</type>
      <id>FIPS:US</id>
      <displayName>United States</displayName>
    </locationLabels>
    <coverage>0.7704</coverage>
  </station>
  <station>
    <id>GHCND:US1AZMR0103</id>
    <displayName>SUN CITY 1.2 NNW, AZ US</displayName>
    <minDate>2009-09-21</minDate>
    <maxDate>2013-01-16</maxDate>
    <latitude>33.6321</latitude>
    <longitude>-112.2903</longitude>
    <elevation>365.2</elevation>
    <locationLabels>
      <type>CNTRY</type>
      <id>FIPS:US</id>
      <displayName>United States</displayName>
    </locationLabels>
    <coverage>0.9951</coverage>
  </station>
  <station>
    <id>GHCND:US1AZMR0340</id>
    <displayName>SUN CITY 1.8 NW, AZ US</displayName>
    <minDate>2012-03-31</minDate>
    <maxDate>2012-12-19</maxDate>
    <latitude>33.6122</latitude>
    <longitude>-112.2975</longitude>
    <elevation>353.6</elevation>
    <locationLabels>
      <type>CNTRY</type>
      <id>FIPS:US</id>
      <displayName>United States</displayName>
    </locationLabels>
    <coverage>0.7235</coverage>
  </station>
  <station>
    <id>GHCND:US1AZMR0333</id>
    <displayName>SUN CITY 2.7 NNW, AZ US</displayName>
    <minDate>2011-08-09</minDate>
    <maxDate>2012-08-26</maxDate>
    <latitude>33.6356</latitude>
    <longitude>-112.2811</longitude>
    <elevation>366.4</elevation>
    <locationLabels>
      <type>CNTRY</type>
      <id>FIPS:US</id>
      <displayName>United States</displayName>
    </locationLabels>
    <coverage>0.7839</coverage>
  </station>
  <station>
    <id>GHCND:USC00147968</id>
    <displayName>SUN CITY 6 S, KS US</displayName>
    <minDate>1997-12-01</minDate>
    <maxDate>2013-01-13</maxDate>
    <latitude>37.2817</latitude>
    <longitude>-98.9251</longitude>
    <elevation>588.3</elevation>
    <locationLabels>
      <type>CNTRY</type>
      <id>FIPS:US</id>
      <displayName>United States</displayName>
    </locationLabels>
    <coverage>0.9111</coverage>
  </station>
  <station>
    <id>GHCND:US1FLHB0032</id>
    <displayName>SUN CITY CENTER 0.9 W, FL US</displayName>
    <minDate>2007-10-16</minDate>
    <maxDate>2011-06-12</maxDate>
    <latitude>27.7219</latitude>
    <longitude>-82.3667</longitude>
    <elevation>13.1</elevation>
    <locationLabels>
      <type>CNTRY</type>
      <id>FIPS:US</id>
      <displayName>United States</displayName>
    </locationLabels>
    <coverage>0.9701</coverage>
  </station>
  <station>
    <id>GHCND:US1FLHB0017</id>
    <displayName>SUN CITY CENTER 1.0 NE, FL US</displayName>
    <minDate>2007-10-03</minDate>
    <maxDate>2013-01-16</maxDate>
    <latitude>27.7305</latitude>
    <longitude>-82.3384</longitude>
    <elevation>21</elevation>
    <locationLabels>
      <type>CNTRY</type>
      <id>FIPS:US</id>
      <displayName>United States</displayName>
    </locationLabels>
    <coverage>0.9803</coverage>
  </station>
  <station>
    <id>GHCND:US1FLHB0050</id>
    <displayName>SUN CITY CENTER 2.2 SW, FL US</displayName>
    <minDate>2007-11-01</minDate>
    <maxDate>2011-06-21</maxDate>
    <latitude>27.6972</latitude>
    <longitude>-82.3744</longitude>
    <elevation>11.6</elevation>
    <locationLabels>
      <type>CNTRY</type>
      <id>FIPS:US</id>
      <displayName>United States</displayName>
    </locationLabels>
    <coverage>0.9187</coverage>
  </station>
  <station>
    <id>GHCND:US1AZMR0281</id>
    <displayName>SUN CITY WEST 1.0 NE, AZ US</displayName>
    <minDate>2010-01-27</minDate>
    <maxDate>2013-01-09</maxDate>
    <latitude>33.675</latitude>
    <longitude>-112.3328</longitude>
    <elevation>379.5</elevation>
    <locationLabels>
      <type>CNTRY</type>
      <id>FIPS:US</id>
      <displayName>United States</displayName>
    </locationLabels>
    <coverage>0.8174</coverage>
  </station>
  <station>
    <id>GHCND:US1AZMR0026</id>
    <displayName>SUN CITY WEST 1.0 W, AZ US</displayName>
    <minDate>2009-09-06</minDate>
    <maxDate>2013-01-15</maxDate>
    <latitude>33.6648</latitude>
    <longitude>-112.371</longitude>
    <elevation>384</elevation>
    <locationLabels>
      <type>CNTRY</type>
      <id>FIPS:US</id>
      <displayName>United States</displayName>
    </locationLabels>
    <coverage>0.9682</coverage>
  </station>
</stationCollection>
