<?xml version="1.0" encoding="UTF-8" standalone="yes"?>
<stationCollection totalCount="46020" pageCount="461" pageSize="100" page="128">
  <station>
    <id>GHCND:US1WAPO0002</id>
    <displayName>ELK 5.2 NW, WA US</displayName>
    <minDate>2008-10-04</minDate>
    <maxDate>2012-12-05</maxDate>
    <latitude>48.0575</latitude>
    <longitude>-117.3712</longitude>
    <elevation>692.5</elevation>
    <locationLabels>
      <type>CNTRY</type>
      <id>FIPS:US</id>
      <displayName>United States</displayName>
    </locationLabels>
    <coverage>0.2572</coverage>
  </station>
  <station>
    <id>GHCND:US1WAPO0001</id>
    <displayName>ELK 5.6 NE, WA US</displayName>
    <minDate>2008-06-02</minDate>
    <maxDate>2013-01-16</maxDate>
    <latitude>48.0757</latitude>
    <longitude>-117.1926</longitude>
    <elevation>790.7</elevation>
    <locationLabels>
      <type>CNTRY</type>
      <id>FIPS:US</id>
      <displayName>United States</displayName>
    </locationLabels>
    <coverage>0.9675</coverage>
  </station>
  <station>
    <id>GHCND:USS0016C20S</id>
    <displayName>ELK BUTTE, ID US</displayName>
    <minDate>1982-10-23</minDate>
    <maxDate>2013-01-13</maxDate>
    <latitude>46.85</latitude>
    <longitude>-116.1167</longitude>
    <elevation>1734.3</elevation>
    <locationLabels>
      <type>CNTRY</type>
      <id>FIPS:US</id>
      <displayName>United States</displayName>
    </locationLabels>
    <coverage>0.9544</coverage>
  </station>
  <station>
    <id>GHCND:USS0005P04S</id>
    <displayName>ELK CABIN, NM US</displayName>
    <minDate>2000-01-01</minDate>
    <maxDate>2013-01-13</maxDate>
    <latitude>35.8</latitude>
    <longitude>-105.7</longitude>
    <elevation>2502.4</elevation>
    <locationLabels>
      <type>CNTRY</type>
      <id>FIPS:US</id>
      <displayName>United States</displayName>
    </locationLabels>
    <coverage>0.9565</coverage>
  </station>
  <station>
    <id>GHCND:USC00102875</id>
    <displayName>ELK CITY 1 NE, ID US</displayName>
    <minDate>1914-01-01</minDate>
    <maxDate>2013-01-16</maxDate>
    <latitude>45.8356</latitude>
    <longitude>-115.461</longitude>
    <elevation>1236.9</elevation>
    <locationLabels>
      <type>CNTRY</type>
      <id>FIPS:US</id>
      <displayName>United States</displayName>
    </locationLabels>
    <coverage>0.6718</coverage>
  </station>
  <station>
    <id>GHCND:US1OKBC0013</id>
    <displayName>ELK CITY 1.2 NNE, OK US</displayName>
    <minDate>2010-04-01</minDate>
    <maxDate>2011-09-16</maxDate>
    <latitude>35.4182</latitude>
    <longitude>-99.402</longitude>
    <elevation>588.3</elevation>
    <locationLabels>
      <type>CNTRY</type>
      <id>FIPS:US</id>
      <displayName>United States</displayName>
    </locationLabels>
    <coverage>0.2622</coverage>
  </station>
  <station>
    <id>GHCND:US1OKBC0009</id>
    <displayName>ELK CITY 1.9 WSW, OK US</displayName>
    <minDate>2010-03-16</minDate>
    <maxDate>2012-05-20</maxDate>
    <latitude>35.3941</latitude>
    <longitude>-99.443</longitude>
    <elevation>606.6</elevation>
    <locationLabels>
      <type>CNTRY</type>
      <id>FIPS:US</id>
      <displayName>United States</displayName>
    </locationLabels>
    <coverage>0.207</coverage>
  </station>
  <station>
    <id>GHCND:USC00142428</id>
    <displayName>ELK CITY 10 SSW, KS US</displayName>
    <minDate>1956-08-01</minDate>
    <maxDate>1958-07-31</maxDate>
    <latitude>37.15</latitude>
    <longitude>-95.98333</longitude>
    <elevation>246.9</elevation>
    <locationLabels>
      <type>CNTRY</type>
      <id>FIPS:US</id>
      <displayName>United States</displayName>
    </locationLabels>
    <coverage>0.9849</coverage>
  </station>
  <station>
    <id>GHCND:USC00142427</id>
    <displayName>ELK CITY 10 SW, KS US</displayName>
    <minDate>1956-08-01</minDate>
    <maxDate>1958-07-31</maxDate>
    <latitude>37.18333</latitude>
    <longitude>-96.03333</longitude>
    <elevation>264.9</elevation>
    <locationLabels>
      <type>CNTRY</type>
      <id>FIPS:US</id>
      <displayName>United States</displayName>
    </locationLabels>
    <coverage>0.9986</coverage>
  </station>
  <station>
    <id>GHCND:US1KSMG0007</id>
    <displayName>ELK CITY 2.1 ENE, KS US</displayName>
    <minDate>2009-03-01</minDate>
    <maxDate>2010-10-26</maxDate>
    <latitude>37.3</latitude>
    <longitude>-95.8738</longitude>
    <elevation>268.2</elevation>
    <locationLabels>
      <type>CNTRY</type>
      <id>FIPS:US</id>
      <displayName>United States</displayName>
    </locationLabels>
    <coverage>0.3107</coverage>
  </station>
  <station>
    <id>GHCND:USC00342849</id>
    <displayName>ELK CITY 4 W, OK US</displayName>
    <minDate>1904-05-01</minDate>
    <maxDate>2008-04-30</maxDate>
    <latitude>35.3925</latitude>
    <longitude>-99.50639</longitude>
    <elevation>646.2</elevation>
    <locationLabels>
      <type>CNTRY</type>
      <id>FIPS:US</id>
      <displayName>United States</displayName>
    </locationLabels>
    <coverage>0.7803</coverage>
  </station>
  <station>
    <id>GHCND:USC00142422</id>
    <displayName>ELK CITY 5 SW SOIL CONSERVATION SERVICE 1, KS US</displayName>
    <minDate>1955-07-01</minDate>
    <maxDate>1958-07-31</maxDate>
    <latitude>37.23333</latitude>
    <longitude>-95.96667</longitude>
    <elevation>284.1</elevation>
    <locationLabels>
      <type>CNTRY</type>
      <id>FIPS:US</id>
      <displayName>United States</displayName>
    </locationLabels>
    <coverage>0.953</coverage>
  </station>
  <station>
    <id>GHCND:USC00142423</id>
    <displayName>ELK CITY 6 SW, KS US</displayName>
    <minDate>1955-07-01</minDate>
    <maxDate>1958-07-31</maxDate>
    <latitude>37.23333</latitude>
    <longitude>-95.98333</longitude>
    <elevation>281</elevation>
    <locationLabels>
      <type>CNTRY</type>
      <id>FIPS:US</id>
      <displayName>United States</displayName>
    </locationLabels>
    <coverage>0.9343</coverage>
  </station>
  <station>
    <id>GHCND:USC00142425</id>
    <displayName>ELK CITY 7 SSW SOIL CONSERVATION SERVICE 4, KS US</displayName>
    <minDate>1955-07-01</minDate>
    <maxDate>1958-07-31</maxDate>
    <latitude>37.21667</latitude>
    <longitude>-95.98333</longitude>
    <elevation>264.9</elevation>
    <locationLabels>
      <type>CNTRY</type>
      <id>FIPS:US</id>
      <displayName>United States</displayName>
    </locationLabels>
    <coverage>0.9397</coverage>
  </station>
  <station>
    <id>GHCND:USC00142429</id>
    <displayName>ELK CITY 8 SSW, KS US</displayName>
    <minDate>1956-08-01</minDate>
    <maxDate>1958-07-31</maxDate>
    <latitude>37.18333</latitude>
    <longitude>-95.96667</longitude>
    <elevation>267.9</elevation>
    <locationLabels>
      <type>CNTRY</type>
      <id>FIPS:US</id>
      <displayName>United States</displayName>
    </locationLabels>
    <coverage>0.9822</coverage>
  </station>
  <station>
    <id>GHCND:USC00142426</id>
    <displayName>ELK CITY 8 SW SOIL CONSERVATION SERVICE 5, KS US</displayName>
    <minDate>1955-07-01</minDate>
    <maxDate>1958-07-31</maxDate>
    <latitude>37.2</latitude>
    <longitude>-96</longitude>
    <elevation>262.1</elevation>
    <locationLabels>
      <type>CNTRY</type>
      <id>FIPS:US</id>
      <displayName>United States</displayName>
    </locationLabels>
    <coverage>0.9592</coverage>
  </station>
  <station>
    <id>GHCND:USC00142430</id>
    <displayName>ELK CITY LAKE, KS US</displayName>
    <minDate>1964-04-03</minDate>
    <maxDate>2013-01-14</maxDate>
    <latitude>37.2775</latitude>
    <longitude>-95.77694</longitude>
    <elevation>258.8</elevation>
    <locationLabels>
      <type>CNTRY</type>
      <id>FIPS:US</id>
      <displayName>United States</displayName>
    </locationLabels>
    <coverage>0.7594</coverage>
  </station>
  <station>
    <id>GHCND:USC00052635</id>
    <displayName>ELK CREEK 1, CO US</displayName>
    <minDate>1919-07-01</minDate>
    <maxDate>1932-10-31</maxDate>
    <latitude>39.5</latitude>
    <longitude>-105.416667</longitude>
    <elevation>2133.6</elevation>
    <locationLabels>
      <type>CNTRY</type>
      <id>FIPS:US</id>
      <displayName>United States</displayName>
    </locationLabels>
    <coverage>1</coverage>
  </station>
  <station>
    <id>GHCND:US1MOTX0026</id>
    <displayName>ELK CREEK 2.2 NE, MO US</displayName>
    <minDate>2009-03-23</minDate>
    <maxDate>2013-01-13</maxDate>
    <latitude>37.2008</latitude>
    <longitude>-91.9603</longitude>
    <elevation>435.3</elevation>
    <locationLabels>
      <type>CNTRY</type>
      <id>FIPS:US</id>
      <displayName>United States</displayName>
    </locationLabels>
    <coverage>0.8571</coverage>
  </station>
  <station>
    <id>GHCND:US10john003</id>
    <displayName>ELK CREEK 3.6 W, NE US</displayName>
    <minDate>2007-03-22</minDate>
    <maxDate>2012-11-11</maxDate>
    <latitude>40.2912</latitude>
    <longitude>-96.1986</longitude>
    <elevation>360.9</elevation>
    <locationLabels>
      <type>CNTRY</type>
      <id>FIPS:US</id>
      <displayName>United States</displayName>
    </locationLabels>
    <coverage>0.677</coverage>
  </station>
  <station>
    <id>GHCND:US10john004</id>
    <displayName>ELK CREEK 4.1 NNE, NE US</displayName>
    <minDate>2007-01-01</minDate>
    <maxDate>2012-12-15</maxDate>
    <latitude>40.3428</latitude>
    <longitude>-96.1039</longitude>
    <elevation>374</elevation>
    <locationLabels>
      <type>CNTRY</type>
      <id>FIPS:US</id>
      <displayName>United States</displayName>
    </locationLabels>
    <coverage>0.6958</coverage>
  </station>
  <station>
    <id>GHCND:USR0000OECK</id>
    <displayName>ELK CREEK OREGON, OR US</displayName>
    <minDate>2000-07-07</minDate>
    <maxDate>2012-08-31</maxDate>
    <latitude>44.7578</latitude>
    <longitude>-117.9711</longitude>
    <elevation>2004.4</elevation>
    <locationLabels>
      <type>CNTRY</type>
      <id>FIPS:US</id>
      <displayName>United States</displayName>
    </locationLabels>
    <coverage>0.9029</coverage>
  </station>
  <station>
    <id>GHCND:USC00052633</id>
    <displayName>ELK CREEK, CO US</displayName>
    <minDate>1948-08-01</minDate>
    <maxDate>1951-09-30</maxDate>
    <latitude>39.48333</latitude>
    <longitude>-105.36667</longitude>
    <elevation>2571</elevation>
    <locationLabels>
      <type>CNTRY</type>
      <id>FIPS:US</id>
      <displayName>United States</displayName>
    </locationLabels>
    <coverage>0.9611</coverage>
  </station>
  <station>
    <id>GHCND:US1ILCK0063</id>
    <displayName>ELK GROVE VILLAGE 0.6 ESE, IL US</displayName>
    <minDate>2007-03-26</minDate>
    <maxDate>2013-01-14</maxDate>
    <latitude>42.0039</latitude>
    <longitude>-87.9813</longitude>
    <elevation>213.1</elevation>
    <locationLabels>
      <type>CNTRY</type>
      <id>FIPS:US</id>
      <displayName>United States</displayName>
    </locationLabels>
    <coverage>0.9566</coverage>
  </station>
  <station>
    <id>GHCND:US1ILCK0172</id>
    <displayName>ELK GROVE VILLAGE 0.6 NNE, IL US</displayName>
    <minDate>2010-11-13</minDate>
    <maxDate>2012-12-21</maxDate>
    <latitude>42.0145</latitude>
    <longitude>-87.988</longitude>
    <elevation>214.9</elevation>
    <locationLabels>
      <type>CNTRY</type>
      <id>FIPS:US</id>
      <displayName>United States</displayName>
    </locationLabels>
    <coverage>0.3571</coverage>
  </station>
  <station>
    <id>GHCND:US1ILCK0075</id>
    <displayName>ELK GROVE VILLAGE 2.2 WSW, IL US</displayName>
    <minDate>2007-05-07</minDate>
    <maxDate>2013-01-16</maxDate>
    <latitude>41.9953</latitude>
    <longitude>-88.0527</longitude>
    <elevation>221.9</elevation>
    <locationLabels>
      <type>CNTRY</type>
      <id>FIPS:US</id>
      <displayName>United States</displayName>
    </locationLabels>
    <coverage>0.9851</coverage>
  </station>
  <station>
    <id>GHCND:USC00112763</id>
    <displayName>ELK GROVE VILLAGE, IL US</displayName>
    <minDate>1991-08-01</minDate>
    <maxDate>2003-10-31</maxDate>
    <latitude>42.00333</latitude>
    <longitude>-88.00694</longitude>
    <elevation>213.4</elevation>
    <locationLabels>
      <type>CNTRY</type>
      <id>FIPS:US</id>
      <displayName>United States</displayName>
    </locationLabels>
    <coverage>0.9823</coverage>
  </station>
  <station>
    <id>GHCND:US1WYCR0004</id>
    <displayName>ELK MOUNTAIN 2.1 S, WY US</displayName>
    <minDate>2004-10-01</minDate>
    <maxDate>2013-01-16</maxDate>
    <latitude>41.6524</latitude>
    <longitude>-106.4101</longitude>
    <elevation>2283.9</elevation>
    <locationLabels>
      <type>CNTRY</type>
      <id>FIPS:US</id>
      <displayName>United States</displayName>
    </locationLabels>
    <coverage>0.9875</coverage>
  </station>
  <station>
    <id>GHCND:USC00392610</id>
    <displayName>ELK MOUNTAIN, SD US</displayName>
    <minDate>1909-08-01</minDate>
    <maxDate>1925-09-22</maxDate>
    <latitude>43.75</latitude>
    <longitude>-103.983333</longitude>
    <elevation>1432.6</elevation>
    <locationLabels>
      <type>CNTRY</type>
      <id>FIPS:US</id>
      <displayName>United States</displayName>
    </locationLabels>
    <coverage>0.9647</coverage>
  </station>
  <station>
    <id>GHCND:USC00482995</id>
    <displayName>ELK MOUNTAIN, WY US</displayName>
    <minDate>1948-08-01</minDate>
    <maxDate>2012-11-30</maxDate>
    <latitude>41.6877</latitude>
    <longitude>-106.4136</longitude>
    <elevation>2214.4</elevation>
    <locationLabels>
      <type>CNTRY</type>
      <id>FIPS:US</id>
      <displayName>United States</displayName>
    </locationLabels>
    <coverage>0.9683</coverage>
  </station>
  <station>
    <id>GHCND:USC00242723</id>
    <displayName>ELK PARK, MT US</displayName>
    <minDate>1978-06-01</minDate>
    <maxDate>1979-04-30</maxDate>
    <latitude>46.08333</latitude>
    <longitude>-112.41667</longitude>
    <elevation>1922.1</elevation>
    <locationLabels>
      <type>CNTRY</type>
      <id>FIPS:US</id>
      <displayName>United States</displayName>
    </locationLabels>
    <coverage>0.8952</coverage>
  </station>
  <station>
    <id>GHCND:US1WAPR0024</id>
    <displayName>ELK PLAIN 1.2 SE, WA US</displayName>
    <minDate>2008-07-01</minDate>
    <maxDate>2010-08-07</maxDate>
    <latitude>47.0407</latitude>
    <longitude>-122.3606</longitude>
    <elevation>150.3</elevation>
    <locationLabels>
      <type>CNTRY</type>
      <id>FIPS:US</id>
      <displayName>United States</displayName>
    </locationLabels>
    <coverage>0.7943</coverage>
  </station>
  <station>
    <id>GHCND:USC00392622</id>
    <displayName>ELK POINT 13 NE, SD US</displayName>
    <minDate>1986-02-01</minDate>
    <maxDate>2000-12-31</maxDate>
    <latitude>42.85917</latitude>
    <longitude>-96.58194</longitude>
    <elevation>365.8</elevation>
    <locationLabels>
      <type>CNTRY</type>
      <id>FIPS:US</id>
      <displayName>United States</displayName>
    </locationLabels>
    <coverage>0.976</coverage>
  </station>
  <station>
    <id>GHCND:US1SDUN0010</id>
    <displayName>ELK POINT 5.6 N, SD US</displayName>
    <minDate>2011-08-20</minDate>
    <maxDate>2012-12-20</maxDate>
    <latitude>42.7624</latitude>
    <longitude>-96.6975</longitude>
    <elevation>347.5</elevation>
    <locationLabels>
      <type>CNTRY</type>
      <id>FIPS:US</id>
      <displayName>United States</displayName>
    </locationLabels>
    <coverage>0.7648</coverage>
  </station>
  <station>
    <id>GHCND:US1SDUN0002</id>
    <displayName>ELK POINT 5.6 NNE, SD US</displayName>
    <minDate>2007-07-18</minDate>
    <maxDate>2013-01-16</maxDate>
    <latitude>42.7613</latitude>
    <longitude>-96.6532</longitude>
    <elevation>343.5</elevation>
    <locationLabels>
      <type>CNTRY</type>
      <id>FIPS:US</id>
      <displayName>United States</displayName>
    </locationLabels>
    <coverage>0.8139</coverage>
  </station>
  <station>
    <id>GHCND:USC00392618</id>
    <displayName>ELK POINT, SD US</displayName>
    <minDate>1898-10-01</minDate>
    <maxDate>1911-07-31</maxDate>
    <latitude>42.68333</latitude>
    <longitude>-96.66667</longitude>
    <elevation>343.5</elevation>
    <locationLabels>
      <type>CNTRY</type>
      <id>FIPS:US</id>
      <displayName>United States</displayName>
    </locationLabels>
    <coverage>0.9159</coverage>
  </station>
  <station>
    <id>GHCND:US1MIAT0001</id>
    <displayName>ELK RAPIDS 0.5 ESE, MI US</displayName>
    <minDate>2009-03-28</minDate>
    <maxDate>2012-10-12</maxDate>
    <latitude>44.8925</latitude>
    <longitude>-85.3946</longitude>
    <elevation>186.2</elevation>
    <locationLabels>
      <type>CNTRY</type>
      <id>FIPS:US</id>
      <displayName>United States</displayName>
    </locationLabels>
    <coverage>0.3954</coverage>
  </station>
  <station>
    <id>GHCND:USC00102892</id>
    <displayName>ELK RIVER 1 S, ID US</displayName>
    <minDate>1952-01-01</minDate>
    <maxDate>2012-11-07</maxDate>
    <latitude>46.7744</latitude>
    <longitude>-116.1762</longitude>
    <elevation>889.4</elevation>
    <locationLabels>
      <type>CNTRY</type>
      <id>FIPS:US</id>
      <displayName>United States</displayName>
    </locationLabels>
    <coverage>0.9506</coverage>
  </station>
  <station>
    <id>GHCND:USS0006J15S</id>
    <displayName>ELK RIVER, CO US</displayName>
    <minDate>1978-11-01</minDate>
    <maxDate>2013-01-13</maxDate>
    <latitude>40.85</latitude>
    <longitude>-106.9667</longitude>
    <elevation>2651.8</elevation>
    <locationLabels>
      <type>CNTRY</type>
      <id>FIPS:US</id>
      <displayName>United States</displayName>
    </locationLabels>
    <coverage>0.9248</coverage>
  </station>
  <station>
    <id>GHCND:USC00212500</id>
    <displayName>ELK RIVER, MN US</displayName>
    <minDate>1940-05-05</minDate>
    <maxDate>2013-01-16</maxDate>
    <latitude>45.3049</latitude>
    <longitude>-93.5842</longitude>
    <elevation>277.4</elevation>
    <locationLabels>
      <type>CNTRY</type>
      <id>FIPS:US</id>
      <displayName>United States</displayName>
    </locationLabels>
    <coverage>0.9362</coverage>
  </station>
  <station>
    <id>GHCND:USR0000WELR</id>
    <displayName>ELK ROCK WASHINGTON, WA US</displayName>
    <minDate>1985-06-26</minDate>
    <maxDate>2010-10-20</maxDate>
    <latitude>46.3522</latitude>
    <longitude>-122.6058</longitude>
    <elevation>762</elevation>
    <locationLabels>
      <type>CNTRY</type>
      <id>FIPS:US</id>
      <displayName>United States</displayName>
    </locationLabels>
    <coverage>0.3276</coverage>
  </station>
  <station>
    <id>GHCND:US1NJGL0024</id>
    <displayName>ELK TWP 2.2 NW, NJ US</displayName>
    <minDate>2011-12-13</minDate>
    <maxDate>2013-01-16</maxDate>
    <latitude>39.686</latitude>
    <longitude>-75.1855</longitude>
    <elevation>24.7</elevation>
    <locationLabels>
      <type>CNTRY</type>
      <id>FIPS:US</id>
      <displayName>United States</displayName>
    </locationLabels>
    <coverage>0.8603</coverage>
  </station>
  <station>
    <id>GHCND:US1NJGL0008</id>
    <displayName>ELK TWP 2.5 ESE, NJ US</displayName>
    <minDate>2009-07-16</minDate>
    <maxDate>2012-09-11</maxDate>
    <latitude>39.6465</latitude>
    <longitude>-75.1141</longitude>
    <elevation>38.7</elevation>
    <locationLabels>
      <type>CNTRY</type>
      <id>FIPS:US</id>
      <displayName>United States</displayName>
    </locationLabels>
    <coverage>0.182</coverage>
  </station>
  <station>
    <id>GHCND:USC00402836</id>
    <displayName>ELK VALLEY 2 SW, TN US</displayName>
    <minDate>1896-05-01</minDate>
    <maxDate>1957-08-31</maxDate>
    <latitude>36.46667</latitude>
    <longitude>-84.26667</longitude>
    <elevation>366.1</elevation>
    <locationLabels>
      <type>CNTRY</type>
      <id>FIPS:US</id>
      <displayName>United States</displayName>
    </locationLabels>
    <coverage>0.36</coverage>
  </station>
  <station>
    <id>GHCND:USC00042749</id>
    <displayName>ELK VALLEY, CA US</displayName>
    <minDate>1938-02-18</minDate>
    <maxDate>2013-01-16</maxDate>
    <latitude>41.988</latitude>
    <longitude>-123.7183</longitude>
    <elevation>520.6</elevation>
    <locationLabels>
      <type>CNTRY</type>
      <id>FIPS:US</id>
      <displayName>United States</displayName>
    </locationLabels>
    <coverage>0.5823</coverage>
  </station>
  <station>
    <id>GHCND:USC00142417</id>
    <displayName>ELK, KS US</displayName>
    <minDate>1959-07-01</minDate>
    <maxDate>1974-03-31</maxDate>
    <latitude>38.41667</latitude>
    <longitude>-96.81667</longitude>
    <elevation>387.1</elevation>
    <locationLabels>
      <type>CNTRY</type>
      <id>FIPS:US</id>
      <displayName>United States</displayName>
    </locationLabels>
    <coverage>0.9731</coverage>
  </station>
  <station>
    <id>GHCND:USC00292865</id>
    <displayName>ELK, NM US</displayName>
    <minDate>1895-06-01</minDate>
    <maxDate>2013-01-15</maxDate>
    <latitude>32.916</latitude>
    <longitude>-105.3381</longitude>
    <elevation>1808.7</elevation>
    <locationLabels>
      <type>CNTRY</type>
      <id>FIPS:US</id>
      <displayName>United States</displayName>
    </locationLabels>
    <coverage>0.5664</coverage>
  </station>
  <station>
    <id>GHCND:USC00462701</id>
    <displayName>ELK, WV US</displayName>
    <minDate>1937-06-01</minDate>
    <maxDate>1954-06-30</maxDate>
    <latitude>39.18333</latitude>
    <longitude>-80.23333</longitude>
    <elevation>305.1</elevation>
    <locationLabels>
      <type>CNTRY</type>
      <id>FIPS:US</id>
      <displayName>United States</displayName>
    </locationLabels>
    <coverage>0.9652</coverage>
  </station>
  <station>
    <id>GHCND:USC00302562</id>
    <displayName>ELKA PARK, NY US</displayName>
    <minDate>1948-05-01</minDate>
    <maxDate>1959-06-30</maxDate>
    <latitude>42.16667</latitude>
    <longitude>-74.16667</longitude>
    <elevation>686.1</elevation>
    <locationLabels>
      <type>CNTRY</type>
      <id>FIPS:US</id>
      <displayName>United States</displayName>
    </locationLabels>
    <coverage>0.9988</coverage>
  </station>
  <station>
    <id>GHCND:USC00132603</id>
    <displayName>ELKADER, IA US</displayName>
    <minDate>1893-02-01</minDate>
    <maxDate>2013-01-16</maxDate>
    <latitude>42.7754</latitude>
    <longitude>-91.4537</longitude>
    <elevation>240.2</elevation>
    <locationLabels>
      <type>CNTRY</type>
      <id>FIPS:US</id>
      <displayName>United States</displayName>
    </locationLabels>
    <coverage>0.8649</coverage>
  </station>
  <station>
    <id>GHCND:USC00142421</id>
    <displayName>ELKADER, KS US</displayName>
    <minDate>1949-08-01</minDate>
    <maxDate>1989-01-31</maxDate>
    <latitude>38.78333</latitude>
    <longitude>-100.86667</longitude>
    <elevation>830.6</elevation>
    <locationLabels>
      <type>CNTRY</type>
      <id>FIPS:US</id>
      <displayName>United States</displayName>
    </locationLabels>
    <coverage>0.9075</coverage>
  </station>
  <station>
    <id>GHCND:US1INEL0045</id>
    <displayName>ELKHART 1.9 ENE, IN US</displayName>
    <minDate>2011-05-22</minDate>
    <maxDate>2012-10-10</maxDate>
    <latitude>41.7001</latitude>
    <longitude>-85.9362</longitude>
    <elevation>229.8</elevation>
    <locationLabels>
      <type>CNTRY</type>
      <id>FIPS:US</id>
      <displayName>United States</displayName>
    </locationLabels>
    <coverage>0.2441</coverage>
  </station>
  <station>
    <id>GHCND:US1INEL0027</id>
    <displayName>ELKHART 2.0 NNW, IN US</displayName>
    <minDate>2007-12-05</minDate>
    <maxDate>2011-12-18</maxDate>
    <latitude>41.714</latitude>
    <longitude>-85.9832</longitude>
    <elevation>235</elevation>
    <locationLabels>
      <type>CNTRY</type>
      <id>FIPS:US</id>
      <displayName>United States</displayName>
    </locationLabels>
    <coverage>0.2258</coverage>
  </station>
  <station>
    <id>GHCND:US1INEL0049</id>
    <displayName>ELKHART 2.9 ESE, IN US</displayName>
    <minDate>2011-11-01</minDate>
    <maxDate>2012-11-22</maxDate>
    <latitude>41.6675</latitude>
    <longitude>-85.9188</longitude>
    <elevation>233.8</elevation>
    <locationLabels>
      <type>CNTRY</type>
      <id>FIPS:US</id>
      <displayName>United States</displayName>
    </locationLabels>
    <coverage>0.5103</coverage>
  </station>
  <station>
    <id>GHCND:USC00142437</id>
    <displayName>ELKHART 3 N, KS US</displayName>
    <minDate>1948-08-01</minDate>
    <maxDate>1951-09-30</maxDate>
    <latitude>37.05</latitude>
    <longitude>-101.9</longitude>
    <elevation>1079.9</elevation>
    <locationLabels>
      <type>CNTRY</type>
      <id>FIPS:US</id>
      <displayName>United States</displayName>
    </locationLabels>
    <coverage>0.9792</coverage>
  </station>
  <station>
    <id>GHCND:US1INEL0034</id>
    <displayName>ELKHART 3.1 S, IN US</displayName>
    <minDate>2008-08-12</minDate>
    <maxDate>2009-12-29</maxDate>
    <latitude>41.6425</latitude>
    <longitude>-85.9675</longitude>
    <elevation>238.4</elevation>
    <locationLabels>
      <type>CNTRY</type>
      <id>FIPS:US</id>
      <displayName>United States</displayName>
    </locationLabels>
    <coverage>0.9228</coverage>
  </station>
  <station>
    <id>GHCND:US1INEL0009</id>
    <displayName>ELKHART 3.1 SSE, IN US</displayName>
    <minDate>2006-10-06</minDate>
    <maxDate>2013-01-16</maxDate>
    <latitude>41.623</latitude>
    <longitude>-86.0165</longitude>
    <elevation>238</elevation>
    <locationLabels>
      <type>CNTRY</type>
      <id>FIPS:US</id>
      <displayName>United States</displayName>
    </locationLabels>
    <coverage>0.9542</coverage>
  </station>
  <station>
    <id>GHCND:US1INEL0036</id>
    <displayName>ELKHART 4.8 SW, IN US</displayName>
    <minDate>2008-10-25</minDate>
    <maxDate>2013-01-16</maxDate>
    <latitude>41.6425</latitude>
    <longitude>-86.0415</longitude>
    <elevation>226.2</elevation>
    <locationLabels>
      <type>CNTRY</type>
      <id>FIPS:US</id>
      <displayName>United States</displayName>
    </locationLabels>
    <coverage>0.9929</coverage>
  </station>
  <station>
    <id>GHCND:USS0009F23S</id>
    <displayName>ELKHART PARK G.S., WY US</displayName>
    <minDate>1998-11-29</minDate>
    <maxDate>2013-01-13</maxDate>
    <latitude>43</latitude>
    <longitude>-109.75</longitude>
    <elevation>2865.1</elevation>
    <locationLabels>
      <type>CNTRY</type>
      <id>FIPS:US</id>
      <displayName>United States</displayName>
    </locationLabels>
    <coverage>0.8351</coverage>
  </station>
  <station>
    <id>GHCND:USC00122589</id>
    <displayName>ELKHART, IN US</displayName>
    <minDate>1950-11-19</minDate>
    <maxDate>1978-02-28</maxDate>
    <latitude>41.68333</latitude>
    <longitude>-85.96667</longitude>
    <elevation>225.9</elevation>
    <locationLabels>
      <type>CNTRY</type>
      <id>FIPS:US</id>
      <displayName>United States</displayName>
    </locationLabels>
    <coverage>0.9684</coverage>
  </station>
  <station>
    <id>GHCND:USC00122594</id>
    <displayName>ELKHART, IN US</displayName>
    <minDate>1996-08-01</minDate>
    <maxDate>2013-01-15</maxDate>
    <latitude>41.6778</latitude>
    <longitude>-86.0022</longitude>
    <elevation>228.6</elevation>
    <locationLabels>
      <type>CNTRY</type>
      <id>FIPS:US</id>
      <displayName>United States</displayName>
    </locationLabels>
    <coverage>0.9513</coverage>
  </station>
  <station>
    <id>GHCND:USC00122586</id>
    <displayName>ELKHART, IN US</displayName>
    <minDate>1902-10-01</minDate>
    <maxDate>1912-06-30</maxDate>
    <latitude>41.7</latitude>
    <longitude>-85.93333</longitude>
    <elevation>244.1</elevation>
    <locationLabels>
      <type>CNTRY</type>
      <id>FIPS:US</id>
      <displayName>United States</displayName>
    </locationLabels>
    <coverage>0.909</coverage>
  </station>
  <station>
    <id>GHCND:USC00142432</id>
    <displayName>ELKHART, KS US</displayName>
    <minDate>1900-01-01</minDate>
    <maxDate>2013-01-16</maxDate>
    <latitude>37.0058</latitude>
    <longitude>-101.8866</longitude>
    <elevation>1097</elevation>
    <locationLabels>
      <type>CNTRY</type>
      <id>FIPS:US</id>
      <displayName>United States</displayName>
    </locationLabels>
    <coverage>0.9295</coverage>
  </station>
  <station>
    <id>GHCND:USC00402816</id>
    <displayName>ELKHEAD, TN US</displayName>
    <minDate>1961-06-01</minDate>
    <maxDate>1962-03-31</maxDate>
    <latitude>35.35</latitude>
    <longitude>-85.83333</longitude>
    <elevation>313.9</elevation>
    <locationLabels>
      <type>CNTRY</type>
      <id>FIPS:US</id>
      <displayName>United States</displayName>
    </locationLabels>
    <coverage>1</coverage>
  </station>
  <station>
    <id>GHCND:US10doug031</id>
    <displayName>ELKHORN 0.9 E, NE US</displayName>
    <minDate>2008-12-16</minDate>
    <maxDate>2012-11-11</maxDate>
    <latitude>41.2585</latitude>
    <longitude>-96.2296</longitude>
    <elevation>366.1</elevation>
    <locationLabels>
      <type>CNTRY</type>
      <id>FIPS:US</id>
      <displayName>United States</displayName>
    </locationLabels>
    <coverage>0.2691</coverage>
  </station>
  <station>
    <id>GHCND:USC00252620</id>
    <displayName>ELKHORN 1 NW, NE US</displayName>
    <minDate>1944-08-01</minDate>
    <maxDate>1958-05-31</maxDate>
    <latitude>41.28333</latitude>
    <longitude>-96.25</longitude>
    <elevation>366.1</elevation>
    <locationLabels>
      <type>CNTRY</type>
      <id>FIPS:US</id>
      <displayName>United States</displayName>
    </locationLabels>
    <coverage>0.9994</coverage>
  </station>
  <station>
    <id>GHCND:US10doug021</id>
    <displayName>ELKHORN 2.8 N, NE US</displayName>
    <minDate>2007-06-08</minDate>
    <maxDate>2010-05-22</maxDate>
    <latitude>41.2964</latitude>
    <longitude>-96.2471</longitude>
    <elevation>369.1</elevation>
    <locationLabels>
      <type>CNTRY</type>
      <id>FIPS:US</id>
      <displayName>United States</displayName>
    </locationLabels>
    <coverage>0.4833</coverage>
  </station>
  <station>
    <id>GHCND:USC00422429</id>
    <displayName>ELKHORN ASHLEY RANGER STATION, UT US</displayName>
    <minDate>1910-01-01</minDate>
    <maxDate>1956-04-30</maxDate>
    <latitude>40.55</latitude>
    <longitude>-109.95</longitude>
    <elevation>2075.7</elevation>
    <locationLabels>
      <type>CNTRY</type>
      <id>FIPS:US</id>
      <displayName>United States</displayName>
    </locationLabels>
    <coverage>0.8224</coverage>
  </station>
  <station>
    <id>GHCND:USC00152528</id>
    <displayName>ELKHORN CITY, KY US</displayName>
    <minDate>1951-09-01</minDate>
    <maxDate>1990-03-31</maxDate>
    <latitude>37.3</latitude>
    <longitude>-82.35</longitude>
    <elevation>274.3</elevation>
    <locationLabels>
      <type>CNTRY</type>
      <id>FIPS:US</id>
      <displayName>United States</displayName>
    </locationLabels>
    <coverage>0.7842</coverage>
  </station>
  <station>
    <id>GHCND:USC00422432</id>
    <displayName>ELKHORN FISHLAKE RANGER STATION, UT US</displayName>
    <minDate>1920-07-01</minDate>
    <maxDate>1928-08-26</maxDate>
    <latitude>38.45</latitude>
    <longitude>-111.466667</longitude>
    <elevation>2438.4</elevation>
    <locationLabels>
      <type>CNTRY</type>
      <id>FIPS:US</id>
      <displayName>United States</displayName>
    </locationLabels>
    <coverage>0.2692</coverage>
  </station>
  <station>
    <id>GHCND:USC00242719</id>
    <displayName>ELKHORN HOT SPRINGS, MT US</displayName>
    <minDate>1891-07-07</minDate>
    <maxDate>1955-09-08</maxDate>
    <latitude>45.46667</latitude>
    <longitude>-113.11667</longitude>
    <elevation>2250.9</elevation>
    <locationLabels>
      <type>CNTRY</type>
      <id>FIPS:US</id>
      <displayName>United States</displayName>
    </locationLabels>
    <coverage>0.0954</coverage>
  </station>
  <station>
    <id>GHCND:USR0000MELK</id>
    <displayName>ELKHORN MICHIGAN, MI US</displayName>
    <minDate>2002-04-17</minDate>
    <maxDate>2009-06-30</maxDate>
    <latitude>45.9536</latitude>
    <longitude>-86.4053</longitude>
    <elevation>219.5</elevation>
    <locationLabels>
      <type>CNTRY</type>
      <id>FIPS:US</id>
      <displayName>United States</displayName>
    </locationLabels>
    <coverage>0.9962</coverage>
  </station>
  <station>
    <id>GHCND:USC00352613</id>
    <displayName>ELKHORN RANCH, OR US</displayName>
    <minDate>1909-06-11</minDate>
    <maxDate>1910-10-31</maxDate>
    <latitude>43.55</latitude>
    <longitude>-123.95</longitude>
    <elevation>182.9</elevation>
    <locationLabels>
      <type>CNTRY</type>
      <id>FIPS:US</id>
      <displayName>United States</displayName>
    </locationLabels>
    <coverage>0.9409</coverage>
  </station>
  <station>
    <id>GHCND:USC00462709</id>
    <displayName>ELKHORN, WV US</displayName>
    <minDate>1892-01-01</minDate>
    <maxDate>2008-02-01</maxDate>
    <latitude>37.3872</latitude>
    <longitude>-81.4052</longitude>
    <elevation>593.8</elevation>
    <locationLabels>
      <type>CNTRY</type>
      <id>FIPS:US</id>
      <displayName>United States</displayName>
    </locationLabels>
    <coverage>0.3596</coverage>
  </station>
  <station>
    <id>GHCND:USC00312740</id>
    <displayName>ELKIN, NC US</displayName>
    <minDate>1913-03-01</minDate>
    <maxDate>2013-01-12</maxDate>
    <latitude>36.2544</latitude>
    <longitude>-80.865</longitude>
    <elevation>265.2</elevation>
    <locationLabels>
      <type>CNTRY</type>
      <id>FIPS:US</id>
      <displayName>United States</displayName>
    </locationLabels>
    <coverage>0.8102</coverage>
  </station>
  <station>
    <id>GHCND:USC00462717</id>
    <displayName>ELKINS 1 N, WV US</displayName>
    <minDate>2011-01-01</minDate>
    <maxDate>2012-11-30</maxDate>
    <latitude>38.9272</latitude>
    <longitude>-79.8311</longitude>
    <elevation>627.6</elevation>
    <locationLabels>
      <type>CNTRY</type>
      <id>FIPS:US</id>
      <displayName>United States</displayName>
    </locationLabels>
    <coverage>0.9414</coverage>
  </station>
  <station>
    <id>GHCND:US1ARMD0002</id>
    <displayName>ELKINS 10.6 SSE, AR US</displayName>
    <minDate>2012-07-23</minDate>
    <maxDate>2013-01-16</maxDate>
    <latitude>35.8644</latitude>
    <longitude>-93.9259</longitude>
    <elevation>421.2</elevation>
    <locationLabels>
      <type>CNTRY</type>
      <id>FIPS:US</id>
      <displayName>United States</displayName>
    </locationLabels>
    <coverage>0.927</coverage>
  </station>
  <station>
    <id>GHCND:USW00003733</id>
    <displayName>ELKINS 21 ENE, WV US</displayName>
    <minDate>2003-11-18</minDate>
    <maxDate>2013-01-15</maxDate>
    <latitude>39.0130</latitude>
    <longitude>-79.4743</longitude>
    <elevation>1033.3</elevation>
    <locationLabels>
      <type>CNTRY</type>
      <id>FIPS:US</id>
      <displayName>United States</displayName>
    </locationLabels>
    <coverage>0.9833</coverage>
  </station>
  <station>
    <id>GHCND:USW00013729</id>
    <displayName>ELKINS RANDOLPH CO AIRPORT, WV US</displayName>
    <minDate>1926-01-01</minDate>
    <maxDate>2013-01-15</maxDate>
    <latitude>38.8853</latitude>
    <longitude>-79.8528</longitude>
    <elevation>603.2</elevation>
    <locationLabels>
      <type>CNTRY</type>
      <id>FIPS:US</id>
      <displayName>United States</displayName>
    </locationLabels>
    <coverage>0.9863</coverage>
  </station>
  <station>
    <id>GHCND:USC00032315</id>
    <displayName>ELKINS, AR US</displayName>
    <minDate>1948-03-01</minDate>
    <maxDate>1948-11-30</maxDate>
    <latitude>36</latitude>
    <longitude>-94</longitude>
    <locationLabels>
      <type>CNTRY</type>
      <id>FIPS:US</id>
      <displayName>United States</displayName>
    </locationLabels>
    <coverage>1</coverage>
  </station>
  <station>
    <id>GHCND:USC00292871</id>
    <displayName>ELKINS, NM US</displayName>
    <minDate>1909-04-01</minDate>
    <maxDate>1948-07-16</maxDate>
    <latitude>33.7</latitude>
    <longitude>-104.06667</longitude>
    <elevation>1229</elevation>
    <locationLabels>
      <type>CNTRY</type>
      <id>FIPS:US</id>
      <displayName>United States</displayName>
    </locationLabels>
    <coverage>0.9383</coverage>
  </station>
  <station>
    <id>GHCND:USC00462716</id>
    <displayName>ELKINS, WV US</displayName>
    <minDate>1997-01-01</minDate>
    <maxDate>2007-07-08</maxDate>
    <latitude>38.9244</latitude>
    <longitude>-79.8611</longitude>
    <elevation>596.8</elevation>
    <locationLabels>
      <type>CNTRY</type>
      <id>FIPS:US</id>
      <displayName>United States</displayName>
    </locationLabels>
    <coverage>0.982</coverage>
  </station>
  <station>
    <id>GHCND:US1ALLS0008</id>
    <displayName>ELKMONT 0.5 NNE, AL US</displayName>
    <minDate>1998-06-17</minDate>
    <maxDate>2013-01-16</maxDate>
    <latitude>34.9352</latitude>
    <longitude>-86.9723</longitude>
    <elevation>264.9</elevation>
    <locationLabels>
      <type>CNTRY</type>
      <id>FIPS:US</id>
      <displayName>United States</displayName>
    </locationLabels>
    <coverage>0.2256</coverage>
  </station>
  <station>
    <id>GHCND:USC00012600</id>
    <displayName>ELKMONT, AL US</displayName>
    <minDate>1959-01-01</minDate>
    <maxDate>1962-03-31</maxDate>
    <latitude>34.88333</latitude>
    <longitude>-86.91667</longitude>
    <elevation>235</elevation>
    <locationLabels>
      <type>CNTRY</type>
      <id>FIPS:US</id>
      <displayName>United States</displayName>
    </locationLabels>
    <coverage>0.9983</coverage>
  </station>
  <station>
    <id>GHCND:USC00402841</id>
    <displayName>ELKMONT, TN US</displayName>
    <minDate>1924-12-01</minDate>
    <maxDate>1943-11-30</maxDate>
    <latitude>35.65</latitude>
    <longitude>-83.56667</longitude>
    <elevation>668.1</elevation>
    <locationLabels>
      <type>CNTRY</type>
      <id>FIPS:US</id>
      <displayName>United States</displayName>
    </locationLabels>
    <coverage>0.9308</coverage>
  </station>
  <station>
    <id>GHCND:US1NVEL0015</id>
    <displayName>ELKO 0.9 NW, NV US</displayName>
    <minDate>2012-05-01</minDate>
    <maxDate>2012-12-12</maxDate>
    <latitude>40.8484</latitude>
    <longitude>-115.7722</longitude>
    <elevation>1592.9</elevation>
    <locationLabels>
      <type>CNTRY</type>
      <id>FIPS:US</id>
      <displayName>United States</displayName>
    </locationLabels>
    <coverage>0.9115</coverage>
  </station>
  <station>
    <id>GHCND:US1NVEL0009</id>
    <displayName>ELKO 0.9 SE, NV US</displayName>
    <minDate>2010-03-13</minDate>
    <maxDate>2013-01-15</maxDate>
    <latitude>40.8288</latitude>
    <longitude>-115.7484</longitude>
    <elevation>1547.8</elevation>
    <locationLabels>
      <type>CNTRY</type>
      <id>FIPS:US</id>
      <displayName>United States</displayName>
    </locationLabels>
    <coverage>0.9933</coverage>
  </station>
  <station>
    <id>GHCND:US1NVEL0010</id>
    <displayName>ELKO 1.4 W, NV US</displayName>
    <minDate>2010-06-11</minDate>
    <maxDate>2012-05-11</maxDate>
    <latitude>40.84</latitude>
    <longitude>-115.7865</longitude>
    <elevation>1610.6</elevation>
    <locationLabels>
      <type>CNTRY</type>
      <id>FIPS:US</id>
      <displayName>United States</displayName>
    </locationLabels>
    <coverage>0.2026</coverage>
  </station>
  <station>
    <id>GHCND:US1NVEL0013</id>
    <displayName>ELKO 15.5 NE, NV US</displayName>
    <minDate>2007-12-07</minDate>
    <maxDate>2012-12-31</maxDate>
    <latitude>40.9772</latitude>
    <longitude>-115.5267</longitude>
    <elevation>1591.1</elevation>
    <locationLabels>
      <type>CNTRY</type>
      <id>FIPS:US</id>
      <displayName>United States</displayName>
    </locationLabels>
    <coverage>0.5637</coverage>
  </station>
  <station>
    <id>GHCND:US1NVEL0011</id>
    <displayName>ELKO 5.4 NNE, NV US</displayName>
    <minDate>2010-07-10</minDate>
    <maxDate>2012-01-27</maxDate>
    <latitude>40.9097</latitude>
    <longitude>-115.7166</longitude>
    <elevation>1590.8</elevation>
    <locationLabels>
      <type>CNTRY</type>
      <id>FIPS:US</id>
      <displayName>United States</displayName>
    </locationLabels>
    <coverage>0.8959</coverage>
  </station>
  <station>
    <id>GHCND:US1MNSC0013</id>
    <displayName>ELKO NEW MARKET 0.8 WNW, MN US</displayName>
    <minDate>2011-04-23</minDate>
    <maxDate>2011-10-31</maxDate>
    <latitude>44.5726</latitude>
    <longitude>-93.3528</longitude>
    <elevation>341.1</elevation>
    <locationLabels>
      <type>CNTRY</type>
      <id>FIPS:US</id>
      <displayName>United States</displayName>
    </locationLabels>
    <coverage>0.9323</coverage>
  </station>
  <station>
    <id>GHCND:USW00024121</id>
    <displayName>ELKO REGIONAL AIRPORT, NV US</displayName>
    <minDate>1888-02-01</minDate>
    <maxDate>2013-01-15</maxDate>
    <latitude>40.8288</latitude>
    <longitude>-115.7886</longitude>
    <elevation>1533.1</elevation>
    <locationLabels>
      <type>CNTRY</type>
      <id>FIPS:US</id>
      <displayName>United States</displayName>
    </locationLabels>
    <coverage>0.9365</coverage>
  </station>
  <station>
    <id>GHCND:USC00262570</id>
    <displayName>ELKO, NV US</displayName>
    <minDate>1999-11-01</minDate>
    <maxDate>2013-01-15</maxDate>
    <latitude>40.8602</latitude>
    <longitude>-115.7426</longitude>
    <elevation>1595.6</elevation>
    <locationLabels>
      <type>CNTRY</type>
      <id>FIPS:US</id>
      <displayName>United States</displayName>
    </locationLabels>
    <coverage>0.999</coverage>
  </station>
  <station>
    <id>GHCND:US1MDHW0003</id>
    <displayName>ELKRIDGE 1.8 W, MD US</displayName>
    <minDate>2005-10-01</minDate>
    <maxDate>2013-01-16</maxDate>
    <latitude>39.2021</latitude>
    <longitude>-76.7843</longitude>
    <elevation>103.9</elevation>
    <locationLabels>
      <type>CNTRY</type>
      <id>FIPS:US</id>
      <displayName>United States</displayName>
    </locationLabels>
    <coverage>0.9981</coverage>
  </station>
  <station>
    <id>GHCND:US1MDHW0019</id>
    <displayName>ELKRIDGE 2.2 NW, MD US</displayName>
    <minDate>2008-02-08</minDate>
    <maxDate>2008-06-17</maxDate>
    <latitude>39.2201</latitude>
    <longitude>-76.7847</longitude>
    <elevation>121.6</elevation>
    <locationLabels>
      <type>CNTRY</type>
      <id>FIPS:US</id>
      <displayName>United States</displayName>
    </locationLabels>
    <coverage>1</coverage>
  </station>
  <station>
    <id>GHCND:US1MDCC0004</id>
    <displayName>ELKTON 0.6 N, MD US</displayName>
    <minDate>2006-05-08</minDate>
    <maxDate>2008-03-09</maxDate>
    <latitude>39.6126</latitude>
    <longitude>-75.8217</longitude>
    <elevation>15.8</elevation>
    <locationLabels>
      <type>CNTRY</type>
      <id>FIPS:US</id>
      <displayName>United States</displayName>
    </locationLabels>
    <coverage>0.6994</coverage>
  </station>
  <station>
    <id>GHCND:USC00352632</id>
    <displayName>ELKTON 1 SW, OR US</displayName>
    <minDate>2008-09-01</minDate>
    <maxDate>2013-01-16</maxDate>
    <latitude>43.6425</latitude>
    <longitude>-123.5828</longitude>
    <elevation>41.8</elevation>
    <locationLabels>
      <type>CNTRY</type>
      <id>FIPS:US</id>
      <displayName>United States</displayName>
    </locationLabels>
    <coverage>0.9781</coverage>
  </station>
  <station>
    <id>GHCND:US1MDCC0002</id>
    <displayName>ELKTON 1.2 SW, MD US</displayName>
    <minDate>2005-11-01</minDate>
    <maxDate>2006-11-13</maxDate>
    <latitude>39.5896</latitude>
    <longitude>-75.8347</longitude>
    <elevation>20.1</elevation>
    <locationLabels>
      <type>CNTRY</type>
      <id>FIPS:US</id>
      <displayName>United States</displayName>
    </locationLabels>
    <coverage>0.582</coverage>
  </station>
  <station>
    <id>GHCND:US1MDCC0006</id>
    <displayName>ELKTON 1.3 NW, MD US</displayName>
    <minDate>2004-09-22</minDate>
    <maxDate>2012-12-27</maxDate>
    <latitude>39.6165</latitude>
    <longitude>-75.838</longitude>
    <elevation>14.9</elevation>
    <locationLabels>
      <type>CNTRY</type>
      <id>FIPS:US</id>
      <displayName>United States</displayName>
    </locationLabels>
    <coverage>0.2103</coverage>
  </station>
  <station>
    <id>GHCND:US1MDCC0003</id>
    <displayName>ELKTON 1.5 NNW, MD US</displayName>
    <minDate>2006-04-02</minDate>
    <maxDate>2012-04-24</maxDate>
    <latitude>39.6236</latitude>
    <longitude>-75.8307</longitude>
    <elevation>28.7</elevation>
    <locationLabels>
      <type>CNTRY</type>
      <id>FIPS:US</id>
      <displayName>United States</displayName>
    </locationLabels>
    <coverage>0.4831</coverage>
  </station>
</stationCollection>
