<?xml version="1.0" encoding="UTF-8" standalone="yes"?>
<stationCollection totalCount="46020" pageCount="461" pageSize="100" page="357">
  <station>
    <id>GHCND:USC00237223</id>
    <displayName>ROCKPORT, MO US</displayName>
    <minDate>1899-11-01</minDate>
    <maxDate>1907-08-31</maxDate>
    <latitude>40.4</latitude>
    <longitude>-95.516667</longitude>
    <locationLabels>
      <type>CNTRY</type>
      <id>FIPS:US</id>
      <displayName>United States</displayName>
    </locationLabels>
    <coverage>0.9203</coverage>
  </station>
  <station>
    <id>GHCND:USC00227537</id>
    <displayName>ROCKPORT, MS US</displayName>
    <minDate>1940-05-15</minDate>
    <maxDate>1999-09-30</maxDate>
    <latitude>31.79667</latitude>
    <longitude>-90.1525</longitude>
    <elevation>61</elevation>
    <locationLabels>
      <type>CNTRY</type>
      <id>FIPS:US</id>
      <displayName>United States</displayName>
    </locationLabels>
    <coverage>0.9666</coverage>
  </station>
  <station>
    <id>GHCND:USC00417704</id>
    <displayName>ROCKPORT, TX US</displayName>
    <minDate>1959-01-01</minDate>
    <maxDate>2013-01-16</maxDate>
    <latitude>28.0285</latitude>
    <longitude>-97.0566</longitude>
    <elevation>2.7</elevation>
    <locationLabels>
      <type>CNTRY</type>
      <id>FIPS:US</id>
      <displayName>United States</displayName>
    </locationLabels>
    <coverage>0.9963</coverage>
  </station>
  <station>
    <id>GHCND:US1TXED0020</id>
    <displayName>ROCKSPRINGS 0.5 SE, TX US</displayName>
    <minDate>2011-07-27</minDate>
    <maxDate>2013-01-16</maxDate>
    <latitude>30.0128</latitude>
    <longitude>-100.2049</longitude>
    <elevation>733</elevation>
    <locationLabels>
      <type>CNTRY</type>
      <id>FIPS:US</id>
      <displayName>United States</displayName>
    </locationLabels>
    <coverage>0.9204</coverage>
  </station>
  <station>
    <id>GHCND:US1TXED0017</id>
    <displayName>ROCKSPRINGS 11.2 NNW, TX US</displayName>
    <minDate>2010-03-19</minDate>
    <maxDate>2013-01-16</maxDate>
    <latitude>30.1542</latitude>
    <longitude>-100.3111</longitude>
    <elevation>658.7</elevation>
    <locationLabels>
      <type>CNTRY</type>
      <id>FIPS:US</id>
      <displayName>United States</displayName>
    </locationLabels>
    <coverage>0.943</coverage>
  </station>
  <station>
    <id>GHCND:US1TXED0022</id>
    <displayName>ROCKSPRINGS 11.8 ENE, TX US</displayName>
    <minDate>2011-10-09</minDate>
    <maxDate>2013-01-13</maxDate>
    <latitude>30.0649</latitude>
    <longitude>-100.023</longitude>
    <elevation>722.4</elevation>
    <locationLabels>
      <type>CNTRY</type>
      <id>FIPS:US</id>
      <displayName>United States</displayName>
    </locationLabels>
    <coverage>0.9374</coverage>
  </station>
  <station>
    <id>GHCND:USC00417714</id>
    <displayName>ROCKSPRINGS 14 NE, TX US</displayName>
    <minDate>1978-04-01</minDate>
    <maxDate>1989-05-31</maxDate>
    <latitude>30.15</latitude>
    <longitude>-100.05</longitude>
    <elevation>662.3</elevation>
    <locationLabels>
      <type>CNTRY</type>
      <id>FIPS:US</id>
      <displayName>United States</displayName>
    </locationLabels>
    <coverage>0.7401</coverage>
  </station>
  <station>
    <id>GHCND:US1TXED0018</id>
    <displayName>ROCKSPRINGS 16.9 SW, TX US</displayName>
    <minDate>2010-04-29</minDate>
    <maxDate>2013-01-10</maxDate>
    <latitude>29.8413</latitude>
    <longitude>-100.4045</longitude>
    <elevation>573.6</elevation>
    <locationLabels>
      <type>CNTRY</type>
      <id>FIPS:US</id>
      <displayName>United States</displayName>
    </locationLabels>
    <coverage>0.4211</coverage>
  </station>
  <station>
    <id>GHCND:US1TXED0001</id>
    <displayName>ROCKSPRINGS 17.2 SW, TX US</displayName>
    <minDate>1998-06-17</minDate>
    <maxDate>2013-01-16</maxDate>
    <latitude>29.8355</latitude>
    <longitude>-100.4084</longitude>
    <elevation>574.9</elevation>
    <locationLabels>
      <type>CNTRY</type>
      <id>FIPS:US</id>
      <displayName>United States</displayName>
    </locationLabels>
    <coverage>0.3756</coverage>
  </station>
  <station>
    <id>GHCND:US1TXED0019</id>
    <displayName>ROCKSPRINGS 17.9 WSW, TX US</displayName>
    <minDate>2011-07-19</minDate>
    <maxDate>2013-01-09</maxDate>
    <latitude>29.8772</latitude>
    <longitude>-100.4502</longitude>
    <elevation>646.8</elevation>
    <locationLabels>
      <type>CNTRY</type>
      <id>FIPS:US</id>
      <displayName>United States</displayName>
    </locationLabels>
    <coverage>0.2329</coverage>
  </station>
  <station>
    <id>GHCND:USC00417712</id>
    <displayName>ROCKSPRINGS 18 SW, TX US</displayName>
    <minDate>1963-02-01</minDate>
    <maxDate>1993-07-31</maxDate>
    <latitude>29.78889</latitude>
    <longitude>-100.425</longitude>
    <elevation>525.8</elevation>
    <locationLabels>
      <type>CNTRY</type>
      <id>FIPS:US</id>
      <displayName>United States</displayName>
    </locationLabels>
    <coverage>0.9777</coverage>
  </station>
  <station>
    <id>GHCND:US1TXED0024</id>
    <displayName>ROCKSPRINGS 18.4 WNW, TX US</displayName>
    <minDate>2012-02-22</minDate>
    <maxDate>2013-01-13</maxDate>
    <latitude>30.1369</latitude>
    <longitude>-100.4871</longitude>
    <elevation>657.5</elevation>
    <locationLabels>
      <type>CNTRY</type>
      <id>FIPS:US</id>
      <displayName>United States</displayName>
    </locationLabels>
    <coverage>0.633</coverage>
  </station>
  <station>
    <id>GHCND:USC00417717</id>
    <displayName>ROCKSPRINGS 26 SSW, TX US</displayName>
    <minDate>1995-08-01</minDate>
    <maxDate>2012-11-30</maxDate>
    <latitude>29.6879</latitude>
    <longitude>-100.4216</longitude>
    <elevation>525.8</elevation>
    <locationLabels>
      <type>CNTRY</type>
      <id>FIPS:US</id>
      <displayName>United States</displayName>
    </locationLabels>
    <coverage>0.9992</coverage>
  </station>
  <station>
    <id>GHCND:USC00417711</id>
    <displayName>ROCKSPRINGS 5 W, TX US</displayName>
    <minDate>1955-03-01</minDate>
    <maxDate>1956-06-30</maxDate>
    <latitude>30.01667</latitude>
    <longitude>-100.3</longitude>
    <elevation>729.1</elevation>
    <locationLabels>
      <type>CNTRY</type>
      <id>FIPS:US</id>
      <displayName>United States</displayName>
    </locationLabels>
    <coverage>0.875</coverage>
  </station>
  <station>
    <id>GHCND:US1TXED0002</id>
    <displayName>ROCKSPRINGS 5.4 NW, TX US</displayName>
    <minDate>2007-07-23</minDate>
    <maxDate>2013-01-16</maxDate>
    <latitude>30.0653</latitude>
    <longitude>-100.2825</longitude>
    <elevation>719.9</elevation>
    <locationLabels>
      <type>CNTRY</type>
      <id>FIPS:US</id>
      <displayName>United States</displayName>
    </locationLabels>
    <coverage>0.9666</coverage>
  </station>
  <station>
    <id>GHCND:US1TXED0025</id>
    <displayName>ROCKSPRINGS 6.2 S, TX US</displayName>
    <minDate>2012-03-09</minDate>
    <maxDate>2013-01-10</maxDate>
    <latitude>29.9284</latitude>
    <longitude>-100.207</longitude>
    <elevation>697.1</elevation>
    <locationLabels>
      <type>CNTRY</type>
      <id>FIPS:US</id>
      <displayName>United States</displayName>
    </locationLabels>
    <coverage>0.8994</coverage>
  </station>
  <station>
    <id>GHCND:US1TXED0012</id>
    <displayName>ROCKSPRINGS 8.5 WSW, TX US</displayName>
    <minDate>2008-03-26</minDate>
    <maxDate>2013-01-16</maxDate>
    <latitude>29.9666</latitude>
    <longitude>-100.3424</longitude>
    <elevation>709</elevation>
    <locationLabels>
      <type>CNTRY</type>
      <id>FIPS:US</id>
      <displayName>United States</displayName>
    </locationLabels>
    <coverage>0.8362</coverage>
  </station>
  <station>
    <id>GHCND:US1TXED0026</id>
    <displayName>ROCKSPRINGS 8.9 SE, TX US</displayName>
    <minDate>2012-07-13</minDate>
    <maxDate>2013-01-16</maxDate>
    <latitude>29.9427</latitude>
    <longitude>-100.0903</longitude>
    <elevation>723.9</elevation>
    <locationLabels>
      <type>CNTRY</type>
      <id>FIPS:US</id>
      <displayName>United States</displayName>
    </locationLabels>
    <coverage>0.8883</coverage>
  </station>
  <station>
    <id>GHCND:USC00417706</id>
    <displayName>ROCKSPRINGS, TX US</displayName>
    <minDate>1894-03-02</minDate>
    <maxDate>2013-01-16</maxDate>
    <latitude>30.0039</latitude>
    <longitude>-100.2065</longitude>
    <elevation>731.5</elevation>
    <locationLabels>
      <type>CNTRY</type>
      <id>FIPS:US</id>
      <displayName>United States</displayName>
    </locationLabels>
    <coverage>0.5771</coverage>
  </station>
  <station>
    <id>GHCND:US1ILWN0019</id>
    <displayName>ROCKTON 1.0 ESE, IL US</displayName>
    <minDate>2007-12-08</minDate>
    <maxDate>2013-01-16</maxDate>
    <latitude>42.4442</latitude>
    <longitude>-89.0508</longitude>
    <elevation>228.9</elevation>
    <locationLabels>
      <type>CNTRY</type>
      <id>FIPS:US</id>
      <displayName>United States</displayName>
    </locationLabels>
    <coverage>0.8543</coverage>
  </station>
  <station>
    <id>GHCND:US1MDMG0074</id>
    <displayName>ROCKVILLE 0.6 SE, MD US</displayName>
    <minDate>2012-04-15</minDate>
    <maxDate>2013-01-16</maxDate>
    <latitude>39.0741</latitude>
    <longitude>-77.1463</longitude>
    <elevation>125.9</elevation>
    <locationLabels>
      <type>CNTRY</type>
      <id>FIPS:US</id>
      <displayName>United States</displayName>
    </locationLabels>
    <coverage>0.8123</coverage>
  </station>
  <station>
    <id>GHCND:USC00187705</id>
    <displayName>ROCKVILLE 1 NE, MD US</displayName>
    <minDate>1907-12-17</minDate>
    <maxDate>2007-07-31</maxDate>
    <latitude>39.10083</latitude>
    <longitude>-77.14861</longitude>
    <elevation>134.1</elevation>
    <locationLabels>
      <type>CNTRY</type>
      <id>FIPS:US</id>
      <displayName>United States</displayName>
    </locationLabels>
    <coverage>0.6846</coverage>
  </station>
  <station>
    <id>GHCND:US1MDMG0014</id>
    <displayName>ROCKVILLE 1.5 SSW, MD US</displayName>
    <minDate>2005-12-09</minDate>
    <maxDate>2009-01-07</maxDate>
    <latitude>39.0617</latitude>
    <longitude>-77.1676</longitude>
    <elevation>114.9</elevation>
    <locationLabels>
      <type>CNTRY</type>
      <id>FIPS:US</id>
      <displayName>United States</displayName>
    </locationLabels>
    <coverage>0.1821</coverage>
  </station>
  <station>
    <id>GHCND:US1MDMG0062</id>
    <displayName>ROCKVILLE 1.8 W, MD US</displayName>
    <minDate>2009-12-19</minDate>
    <maxDate>2012-12-27</maxDate>
    <latitude>39.0853</latitude>
    <longitude>-77.1873</longitude>
    <elevation>128.6</elevation>
    <locationLabels>
      <type>CNTRY</type>
      <id>FIPS:US</id>
      <displayName>United States</displayName>
    </locationLabels>
    <coverage>0.3068</coverage>
  </station>
  <station>
    <id>GHCND:US10shem003</id>
    <displayName>ROCKVILLE 2.2 NW, NE US</displayName>
    <minDate>2007-01-01</minDate>
    <maxDate>2013-01-16</maxDate>
    <latitude>41.1426</latitude>
    <longitude>-98.8593</longitude>
    <elevation>613</elevation>
    <locationLabels>
      <type>CNTRY</type>
      <id>FIPS:US</id>
      <displayName>United States</displayName>
    </locationLabels>
    <coverage>0.9896</coverage>
  </station>
  <station>
    <id>GHCND:US1MDMG0056</id>
    <displayName>ROCKVILLE 4.8 NE, MD US</displayName>
    <minDate>2009-07-08</minDate>
    <maxDate>2011-09-08</maxDate>
    <latitude>39.1268</latitude>
    <longitude>-77.0865</longitude>
    <elevation>139</elevation>
    <locationLabels>
      <type>CNTRY</type>
      <id>FIPS:US</id>
      <displayName>United States</displayName>
    </locationLabels>
    <coverage>0.2333</coverage>
  </station>
  <station>
    <id>GHCND:USC00357277</id>
    <displayName>ROCKVILLE 5 N, OR US</displayName>
    <minDate>1963-11-01</minDate>
    <maxDate>2012-11-30</maxDate>
    <latitude>43.3636</latitude>
    <longitude>-117.1142</longitude>
    <elevation>1118.6</elevation>
    <locationLabels>
      <type>CNTRY</type>
      <id>FIPS:US</id>
      <displayName>United States</displayName>
    </locationLabels>
    <coverage>0.9839</coverage>
  </station>
  <station>
    <id>GHCND:US1UTWG0010</id>
    <displayName>ROCKVILLE 5.1 SW, UT US</displayName>
    <minDate>2010-11-24</minDate>
    <maxDate>2013-01-16</maxDate>
    <latitude>37.1028</latitude>
    <longitude>-113.1277</longitude>
    <elevation>1449.9</elevation>
    <locationLabels>
      <type>CNTRY</type>
      <id>FIPS:US</id>
      <displayName>United States</displayName>
    </locationLabels>
    <coverage>0.9541</coverage>
  </station>
  <station>
    <id>GHCND:US1INMY0009</id>
    <displayName>ROCKVILLE 9.1 E, IN US</displayName>
    <minDate>2011-04-21</minDate>
    <maxDate>2013-01-13</maxDate>
    <latitude>39.746</latitude>
    <longitude>-87.0611</longitude>
    <elevation>219.8</elevation>
    <locationLabels>
      <type>CNTRY</type>
      <id>FIPS:US</id>
      <displayName>United States</displayName>
    </locationLabels>
    <coverage>0.1987</coverage>
  </station>
  <station>
    <id>GHCND:USC00066942</id>
    <displayName>ROCKVILLE, CT US</displayName>
    <minDate>1948-06-01</minDate>
    <maxDate>1951-08-31</maxDate>
    <latitude>41.86667</latitude>
    <longitude>-72.43333</longitude>
    <elevation>155.4</elevation>
    <locationLabels>
      <type>CNTRY</type>
      <id>FIPS:US</id>
      <displayName>United States</displayName>
    </locationLabels>
    <coverage>0.9284</coverage>
  </station>
  <station>
    <id>GHCND:USC00127522</id>
    <displayName>ROCKVILLE, IN US</displayName>
    <minDate>1893-01-01</minDate>
    <maxDate>2013-01-14</maxDate>
    <latitude>39.7594</latitude>
    <longitude>-87.2269</longitude>
    <elevation>211.2</elevation>
    <locationLabels>
      <type>CNTRY</type>
      <id>FIPS:US</id>
      <displayName>United States</displayName>
    </locationLabels>
    <coverage>0.9839</coverage>
  </station>
  <station>
    <id>GHCND:US1TXRK0001</id>
    <displayName>ROCKWALL 0.8 WNW, TX US</displayName>
    <minDate>2007-09-28</minDate>
    <maxDate>2013-01-15</maxDate>
    <latitude>32.927</latitude>
    <longitude>-96.4701</longitude>
    <elevation>146</elevation>
    <locationLabels>
      <type>CNTRY</type>
      <id>FIPS:US</id>
      <displayName>United States</displayName>
    </locationLabels>
    <coverage>0.762</coverage>
  </station>
  <station>
    <id>GHCND:US1TXRK0002</id>
    <displayName>ROCKWALL 2.6 NNW, TX US</displayName>
    <minDate>2008-05-17</minDate>
    <maxDate>2010-10-12</maxDate>
    <latitude>32.9558</latitude>
    <longitude>-96.478</longitude>
    <elevation>137.5</elevation>
    <locationLabels>
      <type>CNTRY</type>
      <id>FIPS:US</id>
      <displayName>United States</displayName>
    </locationLabels>
    <coverage>0.8953</coverage>
  </station>
  <station>
    <id>GHCND:USC00417707</id>
    <displayName>ROCKWALL, TX US</displayName>
    <minDate>1941-11-01</minDate>
    <maxDate>2009-12-31</maxDate>
    <latitude>32.93306</latitude>
    <longitude>-96.46472</longitude>
    <elevation>165.5</elevation>
    <locationLabels>
      <type>CNTRY</type>
      <id>FIPS:US</id>
      <displayName>United States</displayName>
    </locationLabels>
    <coverage>0.9859</coverage>
  </station>
  <station>
    <id>GHCND:USC00417708</id>
    <displayName>ROCKWALL, TX US</displayName>
    <minDate>1950-09-01</minDate>
    <maxDate>1956-02-29</maxDate>
    <latitude>32.93333</latitude>
    <longitude>-96.45</longitude>
    <elevation>182.9</elevation>
    <locationLabels>
      <type>CNTRY</type>
      <id>FIPS:US</id>
      <displayName>United States</displayName>
    </locationLabels>
    <coverage>0.9387</coverage>
  </station>
  <station>
    <id>GHCND:USC00137161</id>
    <displayName>ROCKWELL CITY, IA US</displayName>
    <minDate>1894-01-01</minDate>
    <maxDate>2013-01-16</maxDate>
    <latitude>42.3969</latitude>
    <longitude>-94.6291</longitude>
    <elevation>364.2</elevation>
    <locationLabels>
      <type>CNTRY</type>
      <id>FIPS:US</id>
      <displayName>United States</displayName>
    </locationLabels>
    <coverage>0.9574</coverage>
  </station>
  <station>
    <id>GHCND:USC00087665</id>
    <displayName>ROCKWELL, FL US</displayName>
    <minDate>1899-08-01</minDate>
    <maxDate>1919-06-30</maxDate>
    <latitude>29.066667</latitude>
    <longitude>-82.466667</longitude>
    <elevation>3</elevation>
    <locationLabels>
      <type>CNTRY</type>
      <id>FIPS:US</id>
      <displayName>United States</displayName>
    </locationLabels>
    <coverage>0.8433</coverage>
  </station>
  <station>
    <id>GHCND:US1TNRN0002</id>
    <displayName>ROCKWOOD 0.6 WSW, TN US</displayName>
    <minDate>2007-04-01</minDate>
    <maxDate>2008-04-06</maxDate>
    <latitude>35.8702</latitude>
    <longitude>-84.6839</longitude>
    <elevation>277.1</elevation>
    <locationLabels>
      <type>CNTRY</type>
      <id>FIPS:US</id>
      <displayName>United States</displayName>
    </locationLabels>
    <coverage>0.9946</coverage>
  </station>
  <station>
    <id>GHCND:US1TNMM0006</id>
    <displayName>ROCKWOOD 11.3 S, TN US</displayName>
    <minDate>2007-07-18</minDate>
    <maxDate>2013-01-16</maxDate>
    <latitude>35.6357</latitude>
    <longitude>-84.6198</longitude>
    <elevation>256</elevation>
    <locationLabels>
      <type>CNTRY</type>
      <id>FIPS:US</id>
      <displayName>United States</displayName>
    </locationLabels>
    <coverage>0.9478</coverage>
  </station>
  <station>
    <id>GHCND:USC00407831</id>
    <displayName>ROCKWOOD 2, TN US</displayName>
    <minDate>1884-12-01</minDate>
    <maxDate>1962-03-31</maxDate>
    <latitude>35.836</latitude>
    <longitude>-84.692</longitude>
    <elevation>233.8</elevation>
    <locationLabels>
      <type>CNTRY</type>
      <id>FIPS:US</id>
      <displayName>United States</displayName>
    </locationLabels>
    <coverage>0.4188</coverage>
  </station>
  <station>
    <id>GHCND:USC00407834</id>
    <displayName>ROCKWOOD 2, TN US</displayName>
    <minDate>1962-04-01</minDate>
    <maxDate>2012-11-30</maxDate>
    <latitude>35.836</latitude>
    <longitude>-84.692</longitude>
    <elevation>233.8</elevation>
    <locationLabels>
      <type>CNTRY</type>
      <id>FIPS:US</id>
      <displayName>United States</displayName>
    </locationLabels>
    <coverage>0.9564</coverage>
  </station>
  <station>
    <id>GHCND:US1COLP0066</id>
    <displayName>ROCKWOOD 6.7 N, CO US</displayName>
    <minDate>2012-07-27</minDate>
    <maxDate>2013-01-15</maxDate>
    <latitude>37.596</latitude>
    <longitude>-107.8144</longitude>
    <elevation>2665.5</elevation>
    <locationLabels>
      <type>CNTRY</type>
      <id>FIPS:US</id>
      <displayName>United States</displayName>
    </locationLabels>
    <coverage>0.9538</coverage>
  </station>
  <station>
    <id>GHCND:USC00066954</id>
    <displayName>ROCKWOOD LAKE, CT US</displayName>
    <minDate>1948-06-01</minDate>
    <maxDate>1950-12-31</maxDate>
    <latitude>41.1</latitude>
    <longitude>-73.63333</longitude>
    <elevation>100.9</elevation>
    <locationLabels>
      <type>CNTRY</type>
      <id>FIPS:US</id>
      <displayName>United States</displayName>
    </locationLabels>
    <coverage>0.9788</coverage>
  </station>
  <station>
    <id>GHCND:US1OKWH0002</id>
    <displayName>ROCKY 1.9 E, OK US</displayName>
    <minDate>2008-01-08</minDate>
    <maxDate>2013-01-15</maxDate>
    <latitude>35.1606</latitude>
    <longitude>-99.0255</longitude>
    <elevation>519.1</elevation>
    <locationLabels>
      <type>CNTRY</type>
      <id>FIPS:US</id>
      <displayName>United States</displayName>
    </locationLabels>
    <coverage>0.6534</coverage>
  </station>
  <station>
    <id>GHCND:USS0012J06S</id>
    <displayName>ROCKY BASIN SETTLEME, UT US</displayName>
    <minDate>1981-10-01</minDate>
    <maxDate>2013-01-13</maxDate>
    <latitude>40.4333</latitude>
    <longitude>-112.2167</longitude>
    <elevation>2712.7</elevation>
    <locationLabels>
      <type>CNTRY</type>
      <id>FIPS:US</id>
      <displayName>United States</displayName>
    </locationLabels>
    <coverage>0.8831</coverage>
  </station>
  <station>
    <id>GHCND:USR0000MROC</id>
    <displayName>ROCKY BOY MONTANA, MT US</displayName>
    <minDate>1992-06-29</minDate>
    <maxDate>2011-05-11</maxDate>
    <latitude>48.255</latitude>
    <longitude>-109.7836</longitude>
    <elevation>1158.2</elevation>
    <locationLabels>
      <type>CNTRY</type>
      <id>FIPS:US</id>
      <displayName>United States</displayName>
    </locationLabels>
    <coverage>0.9653</coverage>
  </station>
  <station>
    <id>GHCND:USS0009A01S</id>
    <displayName>ROCKY BOY, MT US</displayName>
    <minDate>1997-01-02</minDate>
    <maxDate>2013-01-13</maxDate>
    <latitude>48.1833</latitude>
    <longitude>-109.65</longitude>
    <elevation>1432.6</elevation>
    <locationLabels>
      <type>CNTRY</type>
      <id>FIPS:US</id>
      <displayName>United States</displayName>
    </locationLabels>
    <coverage>0.929</coverage>
  </station>
  <station>
    <id>GHCND:USC00247148</id>
    <displayName>ROCKY BOY, MT US</displayName>
    <minDate>1951-06-01</minDate>
    <maxDate>1987-05-31</maxDate>
    <latitude>48.25</latitude>
    <longitude>-109.78333</longitude>
    <elevation>1125</elevation>
    <locationLabels>
      <type>CNTRY</type>
      <id>FIPS:US</id>
      <displayName>United States</displayName>
    </locationLabels>
    <coverage>0.9087</coverage>
  </station>
  <station>
    <id>GHCND:US1LAUN0002</id>
    <displayName>ROCKY BRANCH 1.3 W, LA US</displayName>
    <minDate>2009-01-12</minDate>
    <maxDate>2013-01-16</maxDate>
    <latitude>32.6805</latitude>
    <longitude>-92.2236</longitude>
    <elevation>39</elevation>
    <locationLabels>
      <type>CNTRY</type>
      <id>FIPS:US</id>
      <displayName>United States</displayName>
    </locationLabels>
    <coverage>0.8411</coverage>
  </station>
  <station>
    <id>GHCND:US1COOT0008</id>
    <displayName>ROCKY FORD .13 SSE, CO US</displayName>
    <minDate>2003-12-13</minDate>
    <maxDate>2004-11-03</maxDate>
    <latitude>38.0507</latitude>
    <longitude>-103.7191</longitude>
    <elevation>1275</elevation>
    <locationLabels>
      <type>CNTRY</type>
      <id>FIPS:US</id>
      <displayName>United States</displayName>
    </locationLabels>
    <coverage>0.8593</coverage>
  </station>
  <station>
    <id>GHCND:US1COOT0007</id>
    <displayName>ROCKY FORD .89 WNW, CO US</displayName>
    <minDate>2003-12-09</minDate>
    <maxDate>2013-01-15</maxDate>
    <latitude>38.0552</latitude>
    <longitude>-103.7359</longitude>
    <elevation>1282</elevation>
    <locationLabels>
      <type>CNTRY</type>
      <id>FIPS:US</id>
      <displayName>United States</displayName>
    </locationLabels>
    <coverage>0.5075</coverage>
  </station>
  <station>
    <id>GHCND:US1COOT0026</id>
    <displayName>ROCKY FORD 0.4 E, CO US</displayName>
    <minDate>2007-05-15</minDate>
    <maxDate>2009-07-28</maxDate>
    <latitude>38.0496</latitude>
    <longitude>-103.7154</longitude>
    <elevation>1274.1</elevation>
    <locationLabels>
      <type>CNTRY</type>
      <id>FIPS:US</id>
      <displayName>United States</displayName>
    </locationLabels>
    <coverage>0.3238</coverage>
  </station>
  <station>
    <id>GHCND:USW00003089</id>
    <displayName>ROCKY FORD 1 ESE, CO US</displayName>
    <minDate>2009-11-01</minDate>
    <maxDate>2013-01-15</maxDate>
    <latitude>38.0386</latitude>
    <longitude>-103.6948</longitude>
    <elevation>1271</elevation>
    <locationLabels>
      <type>CNTRY</type>
      <id>FIPS:US</id>
      <displayName>United States</displayName>
    </locationLabels>
    <coverage>0.9949</coverage>
  </station>
  <station>
    <id>GHCND:USC00057167</id>
    <displayName>ROCKY FORD 2 SE, CO US</displayName>
    <minDate>1893-01-01</minDate>
    <maxDate>2012-12-31</maxDate>
    <latitude>38.0391</latitude>
    <longitude>-103.6932</longitude>
    <elevation>1271</elevation>
    <locationLabels>
      <type>CNTRY</type>
      <id>FIPS:US</id>
      <displayName>United States</displayName>
    </locationLabels>
    <coverage>0.9836</coverage>
  </station>
  <station>
    <id>GHCND:US1COOT0029</id>
    <displayName>ROCKY FORD 2.9 ESE, CO US</displayName>
    <minDate>2010-07-01</minDate>
    <maxDate>2012-12-07</maxDate>
    <latitude>38.0296</latitude>
    <longitude>-103.6751</longitude>
    <elevation>1267.1</elevation>
    <locationLabels>
      <type>CNTRY</type>
      <id>FIPS:US</id>
      <displayName>United States</displayName>
    </locationLabels>
    <coverage>0.9315</coverage>
  </station>
  <station>
    <id>GHCND:USC00097528</id>
    <displayName>ROCKY FORD 4 SE, GA US</displayName>
    <minDate>1999-11-01</minDate>
    <maxDate>2013-01-16</maxDate>
    <latitude>32.6328</latitude>
    <longitude>-81.7756</longitude>
    <elevation>45.7</elevation>
    <locationLabels>
      <type>CNTRY</type>
      <id>FIPS:US</id>
      <displayName>United States</displayName>
    </locationLabels>
    <coverage>0.9836</coverage>
  </station>
  <station>
    <id>GHCND:US1COOT0005</id>
    <displayName>ROCKY FORD 5.5 E, CO US</displayName>
    <minDate>2004-01-23</minDate>
    <maxDate>2006-11-06</maxDate>
    <latitude>38.049</latitude>
    <longitude>-103.6179</longitude>
    <elevation>1275.9</elevation>
    <locationLabels>
      <type>CNTRY</type>
      <id>FIPS:US</id>
      <displayName>United States</displayName>
    </locationLabels>
    <coverage>0.8921</coverage>
  </station>
  <station>
    <id>GHCND:USC00447330</id>
    <displayName>ROCKY KNOB, VA US</displayName>
    <minDate>1940-07-01</minDate>
    <maxDate>1975-11-30</maxDate>
    <latitude>36.85</latitude>
    <longitude>-80.36667</longitude>
    <elevation>939.1</elevation>
    <locationLabels>
      <type>CNTRY</type>
      <id>FIPS:US</id>
      <displayName>United States</displayName>
    </locationLabels>
    <coverage>0.8953</coverage>
  </station>
  <station>
    <id>GHCND:US1VAFR0012</id>
    <displayName>ROCKY MOUNT 0.2 N, VA US</displayName>
    <minDate>2011-04-05</minDate>
    <maxDate>2012-11-01</maxDate>
    <latitude>36.9996</latitude>
    <longitude>-79.8894</longitude>
    <elevation>363.6</elevation>
    <locationLabels>
      <type>CNTRY</type>
      <id>FIPS:US</id>
      <displayName>United States</displayName>
    </locationLabels>
    <coverage>0.4263</coverage>
  </station>
  <station>
    <id>GHCND:US1NCNS0005</id>
    <displayName>ROCKY MOUNT 2.1 NE, NC US</displayName>
    <minDate>2009-05-28</minDate>
    <maxDate>2010-03-29</maxDate>
    <latitude>35.9806</latitude>
    <longitude>-77.7873</longitude>
    <elevation>26.5</elevation>
    <locationLabels>
      <type>CNTRY</type>
      <id>FIPS:US</id>
      <displayName>United States</displayName>
    </locationLabels>
    <coverage>0.9575</coverage>
  </station>
  <station>
    <id>GHCND:US1MOML0003</id>
    <displayName>ROCKY MOUNT 3.0 SE, MO US</displayName>
    <minDate>2009-06-30</minDate>
    <maxDate>2011-07-13</maxDate>
    <latitude>38.2352</latitude>
    <longitude>-92.6884</longitude>
    <elevation>222.5</elevation>
    <locationLabels>
      <type>CNTRY</type>
      <id>FIPS:US</id>
      <displayName>United States</displayName>
    </locationLabels>
    <coverage>0.711</coverage>
  </station>
  <station>
    <id>GHCND:US1VAFR0004</id>
    <displayName>ROCKY MOUNT 3.1 SE, VA US</displayName>
    <minDate>2008-08-01</minDate>
    <maxDate>2013-01-16</maxDate>
    <latitude>36.971</latitude>
    <longitude>-79.8447</longitude>
    <elevation>326.1</elevation>
    <locationLabels>
      <type>CNTRY</type>
      <id>FIPS:US</id>
      <displayName>United States</displayName>
    </locationLabels>
    <coverage>0.9479</coverage>
  </station>
  <station>
    <id>GHCND:US1VAFR0001</id>
    <displayName>ROCKY MOUNT 3.6 W, VA US</displayName>
    <minDate>2006-01-31</minDate>
    <maxDate>2013-01-15</maxDate>
    <latitude>36.989</latitude>
    <longitude>-79.9545</longitude>
    <elevation>396.8</elevation>
    <locationLabels>
      <type>CNTRY</type>
      <id>FIPS:US</id>
      <displayName>United States</displayName>
    </locationLabels>
    <coverage>0.7648</coverage>
  </station>
  <station>
    <id>GHCND:US1VAFR0005</id>
    <displayName>ROCKY MOUNT 4.3 NNW, VA US</displayName>
    <minDate>2009-02-01</minDate>
    <maxDate>2013-01-16</maxDate>
    <latitude>37.0561</latitude>
    <longitude>-79.9143</longitude>
    <elevation>329.8</elevation>
    <locationLabels>
      <type>CNTRY</type>
      <id>FIPS:US</id>
      <displayName>United States</displayName>
    </locationLabels>
    <coverage>0.9177</coverage>
  </station>
  <station>
    <id>GHCND:US1VAFR0016</id>
    <displayName>ROCKY MOUNT 5.1 WNW, VA US</displayName>
    <minDate>2011-05-13</minDate>
    <maxDate>2013-01-16</maxDate>
    <latitude>37.0205</latitude>
    <longitude>-79.9779</longitude>
    <elevation>328.9</elevation>
    <locationLabels>
      <type>CNTRY</type>
      <id>FIPS:US</id>
      <displayName>United States</displayName>
    </locationLabels>
    <coverage>0.3073</coverage>
  </station>
  <station>
    <id>GHCND:US1NCNS0010</id>
    <displayName>ROCKY MOUNT 5.9 SW, NC US</displayName>
    <minDate>2011-08-12</minDate>
    <maxDate>2013-01-16</maxDate>
    <latitude>35.8957</latitude>
    <longitude>-77.8823</longitude>
    <elevation>40.8</elevation>
    <locationLabels>
      <type>CNTRY</type>
      <id>FIPS:US</id>
      <displayName>United States</displayName>
    </locationLabels>
    <coverage>0.9447</coverage>
  </station>
  <station>
    <id>GHCND:USC00317395</id>
    <displayName>ROCKY MOUNT 6 SW, NC US</displayName>
    <minDate>1905-01-01</minDate>
    <maxDate>2012-10-31</maxDate>
    <latitude>35.952</latitude>
    <longitude>-77.8184</longitude>
    <elevation>39.6</elevation>
    <locationLabels>
      <type>CNTRY</type>
      <id>FIPS:US</id>
      <displayName>United States</displayName>
    </locationLabels>
    <coverage>0.9758</coverage>
  </station>
  <station>
    <id>GHCND:US1VAFR0017</id>
    <displayName>ROCKY MOUNT 6.0 SE, VA US</displayName>
    <minDate>2011-06-25</minDate>
    <maxDate>2012-12-05</maxDate>
    <latitude>36.9355</latitude>
    <longitude>-79.8135</longitude>
    <elevation>317.9</elevation>
    <locationLabels>
      <type>CNTRY</type>
      <id>FIPS:US</id>
      <displayName>United States</displayName>
    </locationLabels>
    <coverage>0.683</coverage>
  </station>
  <station>
    <id>GHCND:US1VAFR0009</id>
    <displayName>ROCKY MOUNT 6.4 NE, VA US</displayName>
    <minDate>2009-06-26</minDate>
    <maxDate>2010-12-11</maxDate>
    <latitude>37.0675</latitude>
    <longitude>-79.8158</longitude>
    <elevation>259.7</elevation>
    <locationLabels>
      <type>CNTRY</type>
      <id>FIPS:US</id>
      <displayName>United States</displayName>
    </locationLabels>
    <coverage>0.9532</coverage>
  </station>
  <station>
    <id>GHCND:USC00317400</id>
    <displayName>ROCKY MOUNT 8 ESE, NC US</displayName>
    <minDate>1914-05-01</minDate>
    <maxDate>2012-11-30</maxDate>
    <latitude>35.8936</latitude>
    <longitude>-77.6806</longitude>
    <elevation>33.5</elevation>
    <locationLabels>
      <type>CNTRY</type>
      <id>FIPS:US</id>
      <displayName>United States</displayName>
    </locationLabels>
    <coverage>0.959</coverage>
  </station>
  <station>
    <id>GHCND:USW00013746</id>
    <displayName>ROCKY MOUNT FAA AIRPORT, NC US</displayName>
    <minDate>1949-01-01</minDate>
    <maxDate>1976-12-31</maxDate>
    <latitude>35.96667</latitude>
    <longitude>-77.8</longitude>
    <elevation>25.9</elevation>
    <locationLabels>
      <type>CNTRY</type>
      <id>FIPS:US</id>
      <displayName>United States</displayName>
    </locationLabels>
    <coverage>0.9967</coverage>
  </station>
  <station>
    <id>GHCND:USR0000NRKM</id>
    <displayName>ROCKY MOUNT NORTH CAROLINA, NC US</displayName>
    <minDate>2002-07-03</minDate>
    <maxDate>2012-08-31</maxDate>
    <latitude>35.9731</latitude>
    <longitude>-77.7986</longitude>
    <elevation>32</elevation>
    <locationLabels>
      <type>CNTRY</type>
      <id>FIPS:US</id>
      <displayName>United States</displayName>
    </locationLabels>
    <coverage>0.9168</coverage>
  </station>
  <station>
    <id>GHCND:USW00093759</id>
    <displayName>ROCKY MOUNT WILSON AIRPORT, NC US</displayName>
    <minDate>2000-10-01</minDate>
    <maxDate>2013-01-14</maxDate>
    <latitude>35.855</latitude>
    <longitude>-77.89306</longitude>
    <elevation>48.8</elevation>
    <locationLabels>
      <type>CNTRY</type>
      <id>FIPS:US</id>
      <displayName>United States</displayName>
    </locationLabels>
    <coverage>0.9846</coverage>
  </station>
  <station>
    <id>GHCND:USC00447338</id>
    <displayName>ROCKY MOUNT, VA US</displayName>
    <minDate>1894-04-19</minDate>
    <maxDate>2013-01-16</maxDate>
    <latitude>36.9769</latitude>
    <longitude>-79.8961</longitude>
    <elevation>400.8</elevation>
    <locationLabels>
      <type>CNTRY</type>
      <id>FIPS:US</id>
      <displayName>United States</displayName>
    </locationLabels>
    <coverage>0.9336</coverage>
  </station>
  <station>
    <id>GHCND:US1NCPD0008</id>
    <displayName>ROCKY POINT 2.3 SW, NC US</displayName>
    <minDate>2011-03-10</minDate>
    <maxDate>2013-01-16</maxDate>
    <latitude>34.417</latitude>
    <longitude>-77.9206</longitude>
    <elevation>11.6</elevation>
    <locationLabels>
      <type>CNTRY</type>
      <id>FIPS:US</id>
      <displayName>United States</displayName>
    </locationLabels>
    <coverage>0.7614</coverage>
  </station>
  <station>
    <id>GHCND:USC00357285</id>
    <displayName>ROCKY POINT 3 S, OR US</displayName>
    <minDate>1966-10-01</minDate>
    <maxDate>1975-10-31</maxDate>
    <latitude>42.43333</latitude>
    <longitude>-122.08333</longitude>
    <elevation>1266.1</elevation>
    <locationLabels>
      <type>CNTRY</type>
      <id>FIPS:US</id>
      <displayName>United States</displayName>
    </locationLabels>
    <coverage>0.9867</coverage>
  </station>
  <station>
    <id>GHCND:US1NCPD0004</id>
    <displayName>ROCKY POINT 6.1 WNW, NC US</displayName>
    <minDate>2011-03-02</minDate>
    <maxDate>2011-09-14</maxDate>
    <latitude>34.4524</latitude>
    <longitude>-77.9923</longitude>
    <elevation>8.2</elevation>
    <locationLabels>
      <type>CNTRY</type>
      <id>FIPS:US</id>
      <displayName>United States</displayName>
    </locationLabels>
    <coverage>0.7056</coverage>
  </station>
  <station>
    <id>GHCND:USC00066966</id>
    <displayName>ROCKY RIVER DAM, CT US</displayName>
    <minDate>1948-06-01</minDate>
    <maxDate>2013-01-16</maxDate>
    <latitude>41.5833</latitude>
    <longitude>-73.4333</longitude>
    <elevation>67.1</elevation>
    <locationLabels>
      <type>CNTRY</type>
      <id>FIPS:US</id>
      <displayName>United States</displayName>
    </locationLabels>
    <coverage>0.8949</coverage>
  </station>
  <station>
    <id>GHCND:USC00407842</id>
    <displayName>ROCKY RIVER, TN US</displayName>
    <minDate>1949-01-01</minDate>
    <maxDate>1962-03-31</maxDate>
    <latitude>35.65</latitude>
    <longitude>-85.56667</longitude>
    <elevation>274.9</elevation>
    <locationLabels>
      <type>CNTRY</type>
      <id>FIPS:US</id>
      <displayName>United States</displayName>
    </locationLabels>
    <coverage>0.9992</coverage>
  </station>
  <station>
    <id>GHCND:USC00317387</id>
    <displayName>ROCKYFACE MOUNTAIN, NC US</displayName>
    <minDate>1949-01-01</minDate>
    <maxDate>1962-03-31</maxDate>
    <latitude>35.58333</latitude>
    <longitude>-82.8</longitude>
    <elevation>946.1</elevation>
    <locationLabels>
      <type>CNTRY</type>
      <id>FIPS:US</id>
      <displayName>United States</displayName>
    </locationLabels>
    <coverage>0.9961</coverage>
  </station>
  <station>
    <id>GHCND:USC00397267</id>
    <displayName>ROCKYFORD 5 SW, SD US</displayName>
    <minDate>1949-07-01</minDate>
    <maxDate>1952-12-31</maxDate>
    <latitude>43.45</latitude>
    <longitude>-102.56667</longitude>
    <elevation>833</elevation>
    <locationLabels>
      <type>CNTRY</type>
      <id>FIPS:US</id>
      <displayName>United States</displayName>
    </locationLabels>
    <coverage>0.2078</coverage>
  </station>
  <station>
    <id>GHCND:USC00487885</id>
    <displayName>ROCKYPOINT 7 NNE, WY US</displayName>
    <minDate>1911-06-01</minDate>
    <maxDate>2010-08-31</maxDate>
    <latitude>44.9916</latitude>
    <longitude>-105.0472</longitude>
    <elevation>1191.8</elevation>
    <locationLabels>
      <type>CNTRY</type>
      <id>FIPS:US</id>
      <displayName>United States</displayName>
    </locationLabels>
    <coverage>0.4783</coverage>
  </station>
  <station>
    <id>GHCND:USC00367578</id>
    <displayName>RODALE RESEARCH CTR, PA US</displayName>
    <minDate>1983-12-01</minDate>
    <maxDate>2012-11-30</maxDate>
    <latitude>40.5515</latitude>
    <longitude>-75.7222</longitude>
    <elevation>167.6</elevation>
    <locationLabels>
      <type>CNTRY</type>
      <id>FIPS:US</id>
      <displayName>United States</displayName>
    </locationLabels>
    <coverage>0.9439</coverage>
  </station>
  <station>
    <id>GHCND:USC00407850</id>
    <displayName>RODDY, TN US</displayName>
    <minDate>1948-09-01</minDate>
    <maxDate>1962-03-31</maxDate>
    <latitude>35.76556</latitude>
    <longitude>-84.77722</longitude>
    <elevation>246.9</elevation>
    <locationLabels>
      <type>CNTRY</type>
      <id>FIPS:US</id>
      <displayName>United States</displayName>
    </locationLabels>
    <coverage>0.9859</coverage>
  </station>
  <station>
    <id>GHCND:US1NMHD0015</id>
    <displayName>RODEO 2.4 N, NM US</displayName>
    <minDate>2010-08-16</minDate>
    <maxDate>2013-01-03</maxDate>
    <latitude>31.87</latitude>
    <longitude>-109.0349</longitude>
    <elevation>1251.8</elevation>
    <locationLabels>
      <type>CNTRY</type>
      <id>FIPS:US</id>
      <displayName>United States</displayName>
    </locationLabels>
    <coverage>0.1445</coverage>
  </station>
  <station>
    <id>GHCND:USW00023045</id>
    <displayName>RODEO CAA AIRPORT, NM US</displayName>
    <minDate>1940-03-01</minDate>
    <maxDate>1954-01-06</maxDate>
    <latitude>31.93333</latitude>
    <longitude>-108.98333</longitude>
    <elevation>1254.9</elevation>
    <locationLabels>
      <type>CNTRY</type>
      <id>FIPS:US</id>
      <displayName>United States</displayName>
    </locationLabels>
    <coverage>0.9875</coverage>
  </station>
  <station>
    <id>GHCND:US1COLR0448</id>
    <displayName>RODEO DETENTION, CO US</displayName>
    <minDate>2001-05-27</minDate>
    <maxDate>2004-11-03</maxDate>
    <latitude>40.5603</latitude>
    <longitude>-105.1333</longitude>
    <elevation>1567</elevation>
    <locationLabels>
      <type>CNTRY</type>
      <id>FIPS:US</id>
      <displayName>United States</displayName>
    </locationLabels>
    <coverage>0.4893</coverage>
  </station>
  <station>
    <id>GHCND:USR0000CROD</id>
    <displayName>RODEO VALLEY, CA US</displayName>
    <minDate>1993-07-23</minDate>
    <maxDate>2012-08-30</maxDate>
    <latitude>39.6681</latitude>
    <longitude>-123.3211</longitude>
    <elevation>740.1</elevation>
    <locationLabels>
      <type>CNTRY</type>
      <id>FIPS:US</id>
      <displayName>United States</displayName>
    </locationLabels>
    <coverage>0.9054</coverage>
  </station>
  <station>
    <id>GHCND:USC00297534</id>
    <displayName>RODEO, NM US</displayName>
    <minDate>1909-07-01</minDate>
    <maxDate>1978-04-30</maxDate>
    <latitude>31.83333</latitude>
    <longitude>-109.03333</longitude>
    <elevation>1253.9</elevation>
    <locationLabels>
      <type>CNTRY</type>
      <id>FIPS:US</id>
      <displayName>United States</displayName>
    </locationLabels>
    <coverage>0.937</coverage>
  </station>
  <station>
    <id>GHCND:USC00167950</id>
    <displayName>RODESSA, LA US</displayName>
    <minDate>1940-01-29</minDate>
    <maxDate>1985-03-31</maxDate>
    <latitude>32.96667</latitude>
    <longitude>-94</longitude>
    <elevation>61</elevation>
    <locationLabels>
      <type>CNTRY</type>
      <id>FIPS:US</id>
      <displayName>United States</displayName>
    </locationLabels>
    <coverage>0.9757</coverage>
  </station>
  <station>
    <id>GHCND:USC00347705</id>
    <displayName>ROFF 2 WNW, OK US</displayName>
    <minDate>1901-01-01</minDate>
    <maxDate>1951-09-30</maxDate>
    <latitude>34.6373</latitude>
    <longitude>-96.8821</longitude>
    <elevation>382.5</elevation>
    <locationLabels>
      <type>CNTRY</type>
      <id>FIPS:US</id>
      <displayName>United States</displayName>
    </locationLabels>
    <coverage>0.1448</coverage>
  </station>
  <station>
    <id>GHCND:US1ARBT0016</id>
    <displayName>ROGERS 2.0 SSW, AR US</displayName>
    <minDate>2010-11-22</minDate>
    <maxDate>2012-09-03</maxDate>
    <latitude>36.3038</latitude>
    <longitude>-94.1456</longitude>
    <elevation>39.3</elevation>
    <locationLabels>
      <type>CNTRY</type>
      <id>FIPS:US</id>
      <displayName>United States</displayName>
    </locationLabels>
    <coverage>0.4693</coverage>
  </station>
  <station>
    <id>GHCND:US1ARBT0024</id>
    <displayName>ROGERS 3.8 SW, AR US</displayName>
    <minDate>2012-06-01</minDate>
    <maxDate>2013-01-14</maxDate>
    <latitude>36.2905</latitude>
    <longitude>-94.1787</longitude>
    <elevation>394.4</elevation>
    <locationLabels>
      <type>CNTRY</type>
      <id>FIPS:US</id>
      <displayName>United States</displayName>
    </locationLabels>
    <coverage>0.8333</coverage>
  </station>
  <station>
    <id>GHCND:US10colf002</id>
    <displayName>ROGERS 9.3 NW, NE US</displayName>
    <minDate>2007-01-01</minDate>
    <maxDate>2013-01-14</maxDate>
    <latitude>41.5837</latitude>
    <longitude>-97.0027</longitude>
    <elevation>438</elevation>
    <locationLabels>
      <type>CNTRY</type>
      <id>FIPS:US</id>
      <displayName>United States</displayName>
    </locationLabels>
    <coverage>0.9615</coverage>
  </station>
  <station>
    <id>GHCND:USC00207089</id>
    <displayName>ROGERS CITY 3 S, MI US</displayName>
    <minDate>1896-03-01</minDate>
    <maxDate>1978-05-31</maxDate>
    <latitude>45.38333</latitude>
    <longitude>-83.83333</longitude>
    <elevation>224.9</elevation>
    <locationLabels>
      <type>CNTRY</type>
      <id>FIPS:US</id>
      <displayName>United States</displayName>
    </locationLabels>
    <coverage>0.4684</coverage>
  </station>
  <station>
    <id>GHCND:USC00207091</id>
    <displayName>ROGERS CITY 5 W, MI US</displayName>
    <minDate>1950-09-01</minDate>
    <maxDate>1953-01-31</maxDate>
    <latitude>45.4</latitude>
    <longitude>-83.91667</longitude>
    <elevation>309.4</elevation>
    <locationLabels>
      <type>CNTRY</type>
      <id>FIPS:US</id>
      <displayName>United States</displayName>
    </locationLabels>
    <coverage>0.8914</coverage>
  </station>
  <station>
    <id>GHCND:USC00207096</id>
    <displayName>ROGERS CITY NUMBER 2, MI US</displayName>
    <minDate>2009-07-01</minDate>
    <maxDate>2013-01-16</maxDate>
    <latitude>45.41333</latitude>
    <longitude>-83.81389</longitude>
    <elevation>193.5</elevation>
    <locationLabels>
      <type>CNTRY</type>
      <id>FIPS:US</id>
      <displayName>United States</displayName>
    </locationLabels>
    <coverage>0.9869</coverage>
  </station>
  <station>
    <id>GHCND:USC00207094</id>
    <displayName>ROGERS CITY, MI US</displayName>
    <minDate>1979-01-01</minDate>
    <maxDate>2009-06-30</maxDate>
    <latitude>45.4169</latitude>
    <longitude>-83.8158</longitude>
    <elevation>187.5</elevation>
    <locationLabels>
      <type>CNTRY</type>
      <id>FIPS:US</id>
      <displayName>United States</displayName>
    </locationLabels>
    <coverage>0.9859</coverage>
  </station>
  <station>
    <id>GHCND:USC00247159</id>
    <displayName>ROGERS PASS 9 NNE, MT US</displayName>
    <minDate>1964-08-21</minDate>
    <maxDate>2012-11-30</maxDate>
    <latitude>47.19</latitude>
    <longitude>-112.2906</longitude>
    <elevation>1280.2</elevation>
    <locationLabels>
      <type>CNTRY</type>
      <id>FIPS:US</id>
      <displayName>United States</displayName>
    </locationLabels>
    <coverage>0.911</coverage>
  </station>
  <station>
    <id>GHCND:USC00247156</id>
    <displayName>ROGERS PASS, MT US</displayName>
    <minDate>1953-05-01</minDate>
    <maxDate>1956-06-30</maxDate>
    <latitude>47.08333</latitude>
    <longitude>-112.36667</longitude>
    <elevation>1690.1</elevation>
    <locationLabels>
      <type>CNTRY</type>
      <id>FIPS:US</id>
      <displayName>United States</displayName>
    </locationLabels>
    <coverage>0.9939</coverage>
  </station>
</stationCollection>
