<?xml version="1.0" encoding="UTF-8" standalone="yes"?>
<stationCollection totalCount="46020" pageCount="461" pageSize="100" page="309">
  <station>
    <id>GHCND:USR0000COJA</id>
    <displayName>OJAI CALIFORNIA, CA US</displayName>
    <minDate>2000-06-23</minDate>
    <maxDate>2012-08-30</maxDate>
    <latitude>34.4483</latitude>
    <longitude>-119.2303</longitude>
    <elevation>233.2</elevation>
    <locationLabels>
      <type>CNTRY</type>
      <id>FIPS:US</id>
      <displayName>United States</displayName>
    </locationLabels>
    <coverage>0.9438</coverage>
  </station>
  <station>
    <id>GHCND:USC00046399</id>
    <displayName>OJAI, CA US</displayName>
    <minDate>1905-05-01</minDate>
    <maxDate>2013-01-16</maxDate>
    <latitude>34.4477</latitude>
    <longitude>-119.2275</longitude>
    <elevation>227.1</elevation>
    <locationLabels>
      <type>CNTRY</type>
      <id>FIPS:US</id>
      <displayName>United States</displayName>
    </locationLabels>
    <coverage>0.9752</coverage>
  </station>
  <station>
    <id>GHCND:USR0000MOJI</id>
    <displayName>OJIBWAY MICHIGAN, US</displayName>
    <minDate>2001-10-04</minDate>
    <maxDate>2012-08-31</maxDate>
    <latitude>48.1086</latitude>
    <longitude>-88.5467</longitude>
    <elevation>317</elevation>
    <locationLabels>
      <type>CNTRY</type>
      <id>FIPS:US</id>
      <displayName>United States</displayName>
    </locationLabels>
    <coverage>0.7338</coverage>
  </station>
  <station>
    <id>GHCND:US1NMRA0032</id>
    <displayName>OJO CALIENTE 4.0 S, NM US</displayName>
    <minDate>2011-01-10</minDate>
    <maxDate>2013-01-16</maxDate>
    <latitude>36.2467</latitude>
    <longitude>-106.0489</longitude>
    <elevation>1855.6</elevation>
    <locationLabels>
      <type>CNTRY</type>
      <id>FIPS:US</id>
      <displayName>United States</displayName>
    </locationLabels>
    <coverage>0.7913</coverage>
  </station>
  <station>
    <id>GHCND:USC00296321</id>
    <displayName>OJO CALIENTE, NM US</displayName>
    <minDate>1944-06-25</minDate>
    <maxDate>1982-03-31</maxDate>
    <latitude>36.3</latitude>
    <longitude>-106.05</longitude>
    <elevation>1919</elevation>
    <locationLabels>
      <type>CNTRY</type>
      <id>FIPS:US</id>
      <displayName>United States</displayName>
    </locationLabels>
    <coverage>0.8543</coverage>
  </station>
  <station>
    <id>GHCND:USC00296332</id>
    <displayName>OJO RICO RANCH, NM US</displayName>
    <minDate>1940-06-01</minDate>
    <maxDate>1956-04-10</maxDate>
    <latitude>36.01667</latitude>
    <longitude>-104.46667</longitude>
    <elevation>1830</elevation>
    <locationLabels>
      <type>CNTRY</type>
      <id>FIPS:US</id>
      <displayName>United States</displayName>
    </locationLabels>
    <coverage>0.9183</coverage>
  </station>
  <station>
    <id>GHCND:USC00456073</id>
    <displayName>OKANOGAN, WA US</displayName>
    <minDate>1926-03-01</minDate>
    <maxDate>1950-01-31</maxDate>
    <latitude>48.36667</latitude>
    <longitude>-119.58333</longitude>
    <elevation>256</elevation>
    <locationLabels>
      <type>CNTRY</type>
      <id>FIPS:US</id>
      <displayName>United States</displayName>
    </locationLabels>
    <coverage>0.9543</coverage>
  </station>
  <station>
    <id>GHCND:US1OKKN0001</id>
    <displayName>OKARCHE 11.8 W, OK US</displayName>
    <minDate>2011-10-04</minDate>
    <maxDate>2013-01-11</maxDate>
    <latitude>35.7526</latitude>
    <longitude>-98.1855</longitude>
    <elevation>380.1</elevation>
    <locationLabels>
      <type>CNTRY</type>
      <id>FIPS:US</id>
      <displayName>United States</displayName>
    </locationLabels>
    <coverage>0.9399</coverage>
  </station>
  <station>
    <id>GHCND:USC00226513</id>
    <displayName>OKATIBBEE RESERVIOR, MS US</displayName>
    <minDate>2005-06-01</minDate>
    <maxDate>2013-01-16</maxDate>
    <latitude>32.4758</latitude>
    <longitude>-88.8111</longitude>
    <elevation>107</elevation>
    <locationLabels>
      <type>CNTRY</type>
      <id>FIPS:US</id>
      <displayName>United States</displayName>
    </locationLabels>
    <coverage>0.9939</coverage>
  </station>
  <station>
    <id>GHCND:US1SDJN0003</id>
    <displayName>OKATON 2.6 NW, SD US</displayName>
    <minDate>2008-04-24</minDate>
    <maxDate>2013-01-16</maxDate>
    <latitude>43.9066</latitude>
    <longitude>-100.9352</longitude>
    <elevation>680.9</elevation>
    <locationLabels>
      <type>CNTRY</type>
      <id>FIPS:US</id>
      <displayName>United States</displayName>
    </locationLabels>
    <coverage>0.5853</coverage>
  </station>
  <station>
    <id>GHCND:US1ILWS0003</id>
    <displayName>OKAWVILLE 2.3 SW, IL US</displayName>
    <minDate>2012-03-20</minDate>
    <maxDate>2013-01-16</maxDate>
    <latitude>38.4085</latitude>
    <longitude>-89.5749</longitude>
    <elevation>141.7</elevation>
    <locationLabels>
      <type>CNTRY</type>
      <id>FIPS:US</id>
      <displayName>United States</displayName>
    </locationLabels>
    <coverage>0.8878</coverage>
  </station>
  <station>
    <id>GHCND:USC00346625</id>
    <displayName>OKAY 2 NE, OK US</displayName>
    <minDate>1912-01-01</minDate>
    <maxDate>1949-04-01</maxDate>
    <latitude>35.88333</latitude>
    <longitude>-95.28333</longitude>
    <elevation>167.9</elevation>
    <locationLabels>
      <type>CNTRY</type>
      <id>FIPS:US</id>
      <displayName>United States</displayName>
    </locationLabels>
    <coverage>0.9624</coverage>
  </station>
  <station>
    <id>GHCND:USC00035376</id>
    <displayName>OKAY, AR US</displayName>
    <minDate>1915-05-01</minDate>
    <maxDate>1992-09-30</maxDate>
    <latitude>33.76667</latitude>
    <longitude>-93.91667</longitude>
    <elevation>91.4</elevation>
    <locationLabels>
      <type>CNTRY</type>
      <id>FIPS:US</id>
      <displayName>United States</displayName>
    </locationLabels>
    <coverage>0.873</coverage>
  </station>
  <station>
    <id>GHCND:US1FLMT0013</id>
    <displayName>OKEECHOBEE 16.4 ESE, FL US</displayName>
    <minDate>2008-11-12</minDate>
    <maxDate>2013-01-16</maxDate>
    <latitude>27.1681</latitude>
    <longitude>-80.5756</longitude>
    <elevation>11.6</elevation>
    <locationLabels>
      <type>CNTRY</type>
      <id>FIPS:US</id>
      <displayName>United States</displayName>
    </locationLabels>
    <coverage>0.8088</coverage>
  </station>
  <station>
    <id>GHCND:US1FLOB0005</id>
    <displayName>OKEECHOBEE 18.0 NNW, FL US</displayName>
    <minDate>2012-07-26</minDate>
    <maxDate>2013-01-16</maxDate>
    <latitude>27.4681</latitude>
    <longitude>-80.9753</longitude>
    <elevation>19.5</elevation>
    <locationLabels>
      <type>CNTRY</type>
      <id>FIPS:US</id>
      <displayName>United States</displayName>
    </locationLabels>
    <coverage>0.8971</coverage>
  </station>
  <station>
    <id>GHCND:US1FLOB0002</id>
    <displayName>OKEECHOBEE 27.1 NNW, FL US</displayName>
    <minDate>2010-01-01</minDate>
    <maxDate>2013-01-15</maxDate>
    <latitude>27.5847</latitude>
    <longitude>-81.0456</longitude>
    <elevation>18.3</elevation>
    <locationLabels>
      <type>CNTRY</type>
      <id>FIPS:US</id>
      <displayName>United States</displayName>
    </locationLabels>
    <coverage>0.9811</coverage>
  </station>
  <station>
    <id>GHCND:US1FLOB0004</id>
    <displayName>OKEECHOBEE 3.2 SE, FL US</displayName>
    <minDate>2011-08-12</minDate>
    <maxDate>2012-12-12</maxDate>
    <latitude>27.2118</latitude>
    <longitude>-80.7896</longitude>
    <elevation>4.6</elevation>
    <locationLabels>
      <type>CNTRY</type>
      <id>FIPS:US</id>
      <displayName>United States</displayName>
    </locationLabels>
    <coverage>0.5174</coverage>
  </station>
  <station>
    <id>GHCND:USC00086480</id>
    <displayName>OKEECHOBEE 9 W, FL US</displayName>
    <minDate>1948-07-01</minDate>
    <maxDate>1974-10-31</maxDate>
    <latitude>27.23333</latitude>
    <longitude>-80.96667</longitude>
    <elevation>6.1</elevation>
    <locationLabels>
      <type>CNTRY</type>
      <id>FIPS:US</id>
      <displayName>United States</displayName>
    </locationLabels>
    <coverage>0.8812</coverage>
  </station>
  <station>
    <id>GHCND:USC00086477</id>
    <displayName>OKEECHOBEE INTOWN, FL US</displayName>
    <minDate>2011-02-17</minDate>
    <maxDate>2012-07-05</maxDate>
    <latitude>27.25556</latitude>
    <longitude>-80.83583</longitude>
    <elevation>7.9</elevation>
    <locationLabels>
      <type>CNTRY</type>
      <id>FIPS:US</id>
      <displayName>United States</displayName>
    </locationLabels>
    <coverage>1</coverage>
  </station>
  <station>
    <id>GHCND:USC00086478</id>
    <displayName>OKEECHOBEE NEAR, FL US</displayName>
    <minDate>1918-01-01</minDate>
    <maxDate>1945-05-31</maxDate>
    <latitude>27.25</latitude>
    <longitude>-80.866667</longitude>
    <locationLabels>
      <type>CNTRY</type>
      <id>FIPS:US</id>
      <displayName>United States</displayName>
    </locationLabels>
    <coverage>0.8602</coverage>
  </station>
  <station>
    <id>GHCND:USC00086485</id>
    <displayName>OKEECHOBEE, FL US</displayName>
    <minDate>1940-03-08</minDate>
    <maxDate>2011-11-11</maxDate>
    <latitude>27.15083</latitude>
    <longitude>-80.86528</longitude>
    <elevation>5.5</elevation>
    <locationLabels>
      <type>CNTRY</type>
      <id>FIPS:US</id>
      <displayName>United States</displayName>
    </locationLabels>
    <coverage>0.8352</coverage>
  </station>
  <station>
    <id>GHCND:USC00346629</id>
    <displayName>OKEENE, OK US</displayName>
    <minDate>1903-04-01</minDate>
    <maxDate>2011-02-22</maxDate>
    <latitude>36.12167</latitude>
    <longitude>-98.315</longitude>
    <elevation>370.3</elevation>
    <locationLabels>
      <type>CNTRY</type>
      <id>FIPS:US</id>
      <displayName>United States</displayName>
    </locationLabels>
    <coverage>0.8792</coverage>
  </station>
  <station>
    <id>GHCND:USC00346643</id>
    <displayName>OKEMAH 2, OK US</displayName>
    <minDate>1943-09-04</minDate>
    <maxDate>1950-07-29</maxDate>
    <latitude>35.45</latitude>
    <longitude>-96.3</longitude>
    <elevation>244.1</elevation>
    <locationLabels>
      <type>CNTRY</type>
      <id>FIPS:US</id>
      <displayName>United States</displayName>
    </locationLabels>
    <coverage>0.3983</coverage>
  </station>
  <station>
    <id>GHCND:USC00346638</id>
    <displayName>OKEMAH, OK US</displayName>
    <minDate>1912-04-01</minDate>
    <maxDate>2012-09-30</maxDate>
    <latitude>35.4252</latitude>
    <longitude>-96.3033</longitude>
    <elevation>285</elevation>
    <locationLabels>
      <type>CNTRY</type>
      <id>FIPS:US</id>
      <displayName>United States</displayName>
    </locationLabels>
    <coverage>0.9842</coverage>
  </station>
  <station>
    <id>GHCND:US1MIIH0007</id>
    <displayName>OKEMOS 0.6 ESE, MI US</displayName>
    <minDate>2008-07-30</minDate>
    <maxDate>2011-02-21</maxDate>
    <latitude>42.706</latitude>
    <longitude>-84.4023</longitude>
    <elevation>270.4</elevation>
    <locationLabels>
      <type>CNTRY</type>
      <id>FIPS:US</id>
      <displayName>United States</displayName>
    </locationLabels>
    <coverage>0.1761</coverage>
  </station>
  <station>
    <id>GHCND:USC00145964</id>
    <displayName>OKETO, KS US</displayName>
    <minDate>1948-08-01</minDate>
    <maxDate>1950-10-20</maxDate>
    <latitude>39.96667</latitude>
    <longitude>-96.6</longitude>
    <elevation>374.9</elevation>
    <locationLabels>
      <type>CNTRY</type>
      <id>FIPS:US</id>
      <displayName>United States</displayName>
    </locationLabels>
    <coverage>0.9864</coverage>
  </station>
  <station>
    <id>GHCND:US1OKOK0026</id>
    <displayName>OKLAHOMA CITY 1.7 NNW, OK US</displayName>
    <minDate>2008-08-19</minDate>
    <maxDate>2012-12-15</maxDate>
    <latitude>35.4877</latitude>
    <longitude>-97.5294</longitude>
    <elevation>381.6</elevation>
    <locationLabels>
      <type>CNTRY</type>
      <id>FIPS:US</id>
      <displayName>United States</displayName>
    </locationLabels>
    <coverage>0.2519</coverage>
  </station>
  <station>
    <id>GHCND:US1OKOK0019</id>
    <displayName>OKLAHOMA CITY 3.8 NNW, OK US</displayName>
    <minDate>2008-03-18</minDate>
    <maxDate>2013-01-16</maxDate>
    <latitude>35.5206</latitude>
    <longitude>-97.5323</longitude>
    <elevation>352.7</elevation>
    <locationLabels>
      <type>CNTRY</type>
      <id>FIPS:US</id>
      <displayName>United States</displayName>
    </locationLabels>
    <coverage>0.7469</coverage>
  </station>
  <station>
    <id>GHCND:US1OKOK0034</id>
    <displayName>OKLAHOMA CITY 5.0 S, OK US</displayName>
    <minDate>2009-08-17</minDate>
    <maxDate>2012-11-10</maxDate>
    <latitude>35.3958</latitude>
    <longitude>-97.4962</longitude>
    <elevation>389.5</elevation>
    <locationLabels>
      <type>CNTRY</type>
      <id>FIPS:US</id>
      <displayName>United States</displayName>
    </locationLabels>
    <coverage>0.1041</coverage>
  </station>
  <station>
    <id>GHCND:USC00346663</id>
    <displayName>OKLAHOMA CITY EAST, OK US</displayName>
    <minDate>1934-05-01</minDate>
    <maxDate>1974-05-31</maxDate>
    <latitude>35.46667</latitude>
    <longitude>-97.46667</longitude>
    <elevation>349.6</elevation>
    <locationLabels>
      <type>CNTRY</type>
      <id>FIPS:US</id>
      <displayName>United States</displayName>
    </locationLabels>
    <coverage>0.9269</coverage>
  </station>
  <station>
    <id>GHCND:USC00346664</id>
    <displayName>OKLAHOMA CITY N DSPL, OK US</displayName>
    <minDate>1944-01-01</minDate>
    <maxDate>1975-06-30</maxDate>
    <latitude>35.53333</latitude>
    <longitude>-97.46667</longitude>
    <elevation>326.1</elevation>
    <locationLabels>
      <type>CNTRY</type>
      <id>FIPS:US</id>
      <displayName>United States</displayName>
    </locationLabels>
    <coverage>0.9865</coverage>
  </station>
  <station>
    <id>GHCND:USC00346656</id>
    <displayName>OKLAHOMA CITY PENN AVENUE, OK US</displayName>
    <minDate>1948-01-01</minDate>
    <maxDate>1975-01-28</maxDate>
    <latitude>35.48333</latitude>
    <longitude>-97.53333</longitude>
    <elevation>385</elevation>
    <locationLabels>
      <type>CNTRY</type>
      <id>FIPS:US</id>
      <displayName>United States</displayName>
    </locationLabels>
    <coverage>0.998</coverage>
  </station>
  <station>
    <id>GHCND:USW00013919</id>
    <displayName>OKLAHOMA CITY TINKER AFB, OK US</displayName>
    <minDate>1949-01-01</minDate>
    <maxDate>1970-12-31</maxDate>
    <latitude>35.41667</latitude>
    <longitude>-97.38333</longitude>
    <elevation>393.5</elevation>
    <locationLabels>
      <type>CNTRY</type>
      <id>FIPS:US</id>
      <displayName>United States</displayName>
    </locationLabels>
    <coverage>0.9998</coverage>
  </station>
  <station>
    <id>GHCND:USW00003954</id>
    <displayName>OKLAHOMA CITY WILEY POST AIRPORT, OK US</displayName>
    <minDate>1996-08-01</minDate>
    <maxDate>2013-01-14</maxDate>
    <latitude>35.53417</latitude>
    <longitude>-97.64694</longitude>
    <elevation>395.3</elevation>
    <locationLabels>
      <type>CNTRY</type>
      <id>FIPS:US</id>
      <displayName>United States</displayName>
    </locationLabels>
    <coverage>0.985</coverage>
  </station>
  <station>
    <id>GHCND:USW00013967</id>
    <displayName>OKLAHOMA CITY WILL ROGERS WORLD AIRPORT, OK US</displayName>
    <minDate>1948-01-01</minDate>
    <maxDate>2013-01-15</maxDate>
    <latitude>35.3889</latitude>
    <longitude>-97.6006</longitude>
    <elevation>391.7</elevation>
    <locationLabels>
      <type>CNTRY</type>
      <id>FIPS:US</id>
      <displayName>United States</displayName>
    </locationLabels>
    <coverage>0.9998</coverage>
  </station>
  <station>
    <id>GHCND:USC00346659</id>
    <displayName>OKLAHOMA CITY, OK US</displayName>
    <minDate>1996-02-01</minDate>
    <maxDate>2013-01-16</maxDate>
    <latitude>35.4055</latitude>
    <longitude>-97.5972</longitude>
    <elevation>393.8</elevation>
    <locationLabels>
      <type>CNTRY</type>
      <id>FIPS:US</id>
      <displayName>United States</displayName>
    </locationLabels>
    <coverage>0.8512</coverage>
  </station>
  <station>
    <id>GHCND:USC00216148</id>
    <displayName>OKLEE, MN US</displayName>
    <minDate>1939-09-13</minDate>
    <maxDate>1996-06-30</maxDate>
    <latitude>47.83333</latitude>
    <longitude>-95.85</longitude>
    <elevation>350.5</elevation>
    <locationLabels>
      <type>CNTRY</type>
      <id>FIPS:US</id>
      <displayName>United States</displayName>
    </locationLabels>
    <coverage>0.8375</coverage>
  </station>
  <station>
    <id>GHCND:USC00346670</id>
    <displayName>OKMULGEE WATER WORKS, OK US</displayName>
    <minDate>1910-01-01</minDate>
    <maxDate>2012-03-31</maxDate>
    <latitude>35.6238</latitude>
    <longitude>-96.025</longitude>
    <elevation>197.2</elevation>
    <locationLabels>
      <type>CNTRY</type>
      <id>FIPS:US</id>
      <displayName>United States</displayName>
    </locationLabels>
    <coverage>0.9295</coverage>
  </station>
  <station>
    <id>GHCND:US1KYJF0018</id>
    <displayName>OKOLONA 3.5 SSE, KY US</displayName>
    <minDate>2010-03-14</minDate>
    <maxDate>2011-07-20</maxDate>
    <latitude>38.0935</latitude>
    <longitude>-85.654</longitude>
    <elevation>185.3</elevation>
    <locationLabels>
      <type>CNTRY</type>
      <id>FIPS:US</id>
      <displayName>United States</displayName>
    </locationLabels>
    <coverage>0.5263</coverage>
  </station>
  <station>
    <id>GHCND:USC00226515</id>
    <displayName>OKOLONA, MS US</displayName>
    <minDate>1893-01-01</minDate>
    <maxDate>1986-09-30</maxDate>
    <latitude>34</latitude>
    <longitude>-88.75</longitude>
    <elevation>98.1</elevation>
    <locationLabels>
      <type>CNTRY</type>
      <id>FIPS:US</id>
      <displayName>United States</displayName>
    </locationLabels>
    <coverage>0.7896</coverage>
  </station>
  <station>
    <id>GHCND:USC00346678</id>
    <displayName>OKTAHA 2 NE, OK US</displayName>
    <minDate>1985-08-01</minDate>
    <maxDate>2013-01-13</maxDate>
    <latitude>35.6091</latitude>
    <longitude>-95.4633</longitude>
    <elevation>198.1</elevation>
    <locationLabels>
      <type>CNTRY</type>
      <id>FIPS:US</id>
      <displayName>United States</displayName>
    </locationLabels>
    <coverage>0.9585</coverage>
  </station>
  <station>
    <id>GHCND:USC00106590</id>
    <displayName>OLA 4 S, ID US</displayName>
    <minDate>1951-08-01</minDate>
    <maxDate>1988-11-30</maxDate>
    <latitude>44.13333</latitude>
    <longitude>-116.28333</longitude>
    <elevation>911.4</elevation>
    <locationLabels>
      <type>CNTRY</type>
      <id>FIPS:US</id>
      <displayName>United States</displayName>
    </locationLabels>
    <coverage>0.9825</coverage>
  </station>
  <station>
    <id>GHCND:USC00106586</id>
    <displayName>OLA, ID US</displayName>
    <minDate>1896-08-01</minDate>
    <maxDate>2012-11-30</maxDate>
    <latitude>44.1758</latitude>
    <longitude>-116.2827</longitude>
    <elevation>937.3</elevation>
    <locationLabels>
      <type>CNTRY</type>
      <id>FIPS:US</id>
      <displayName>United States</displayName>
    </locationLabels>
    <coverage>0.3559</coverage>
  </station>
  <station>
    <id>GHCND:USC00517026</id>
    <displayName>OLAA KURTISTOWN, HI US</displayName>
    <minDate>1905-01-01</minDate>
    <maxDate>1926-07-28</maxDate>
    <latitude>19.6</latitude>
    <longitude>-155.06667</longitude>
    <elevation>198.1</elevation>
    <locationLabels>
      <type>CNTRY</type>
      <id>FIPS:US</id>
      <displayName>United States</displayName>
    </locationLabels>
    <coverage>0.8881</coverage>
  </station>
  <station>
    <id>GHCND:USR0000AOLA</id>
    <displayName>OLAF KNOLLS ARIZONA, AZ US</displayName>
    <minDate>1985-05-23</minDate>
    <maxDate>2012-08-30</maxDate>
    <latitude>36.5072</latitude>
    <longitude>-113.8161</longitude>
    <elevation>883.9</elevation>
    <locationLabels>
      <type>CNTRY</type>
      <id>FIPS:US</id>
      <displayName>United States</displayName>
    </locationLabels>
    <coverage>0.9458</coverage>
  </station>
  <station>
    <id>GHCND:US1WAKP0013</id>
    <displayName>OLALLA 1.4 WNW, WA US</displayName>
    <minDate>2008-06-03</minDate>
    <maxDate>2013-01-15</maxDate>
    <latitude>47.4325</latitude>
    <longitude>-122.574</longitude>
    <elevation>34.7</elevation>
    <locationLabels>
      <type>CNTRY</type>
      <id>FIPS:US</id>
      <displayName>United States</displayName>
    </locationLabels>
    <coverage>0.9864</coverage>
  </station>
  <station>
    <id>GHCND:US1WAKP0031</id>
    <displayName>OLALLA 2.2 NW, WA US</displayName>
    <minDate>2009-08-28</minDate>
    <maxDate>2013-01-16</maxDate>
    <latitude>47.4535</latitude>
    <longitude>-122.5737</longitude>
    <elevation>47.9</elevation>
    <locationLabels>
      <type>CNTRY</type>
      <id>FIPS:US</id>
      <displayName>United States</displayName>
    </locationLabels>
    <coverage>0.9015</coverage>
  </station>
  <station>
    <id>GHCND:USS0021B55S</id>
    <displayName>OLALLIE MEADOWS, WA US</displayName>
    <minDate>1981-10-01</minDate>
    <maxDate>2013-01-13</maxDate>
    <latitude>47.3667</latitude>
    <longitude>-121.4333</longitude>
    <elevation>1127.8</elevation>
    <locationLabels>
      <type>CNTRY</type>
      <id>FIPS:US</id>
      <displayName>United States</displayName>
    </locationLabels>
    <coverage>0.8964</coverage>
  </station>
  <station>
    <id>GHCND:US1COLR0416</id>
    <displayName>OLANDER, CO US</displayName>
    <minDate>2001-05-27</minDate>
    <maxDate>2004-11-03</maxDate>
    <latitude>40.5383</latitude>
    <longitude>-105.1233</longitude>
    <elevation>1570.9</elevation>
    <locationLabels>
      <type>CNTRY</type>
      <id>FIPS:US</id>
      <displayName>United States</displayName>
    </locationLabels>
    <coverage>0.4837</coverage>
  </station>
  <station>
    <id>GHCND:US1COMT0020</id>
    <displayName>OLATHE 2.3 NNE, CO US</displayName>
    <minDate>2005-10-25</minDate>
    <maxDate>2009-11-26</maxDate>
    <latitude>38.6346</latitude>
    <longitude>-107.9619</longitude>
    <elevation>1620.3</elevation>
    <locationLabels>
      <type>CNTRY</type>
      <id>FIPS:US</id>
      <displayName>United States</displayName>
    </locationLabels>
    <coverage>0.9793</coverage>
  </station>
  <station>
    <id>GHCND:US1KSJO0012</id>
    <displayName>OLATHE 2.8 W, KS US</displayName>
    <minDate>2006-06-06</minDate>
    <maxDate>2013-01-15</maxDate>
    <latitude>38.893</latitude>
    <longitude>-94.8666</longitude>
    <elevation>317.9</elevation>
    <locationLabels>
      <type>CNTRY</type>
      <id>FIPS:US</id>
      <displayName>United States</displayName>
    </locationLabels>
    <coverage>0.9938</coverage>
  </station>
  <station>
    <id>GHCND:USC00145972</id>
    <displayName>OLATHE 3 E, KS US</displayName>
    <minDate>1893-05-01</minDate>
    <maxDate>2009-09-30</maxDate>
    <latitude>38.8875</latitude>
    <longitude>-94.7602</longitude>
    <elevation>321.6</elevation>
    <locationLabels>
      <type>CNTRY</type>
      <id>FIPS:US</id>
      <displayName>United States</displayName>
    </locationLabels>
    <coverage>0.9642</coverage>
  </station>
  <station>
    <id>GHCND:US1COMT0025</id>
    <displayName>OLATHE 3.2 NNE, CO US</displayName>
    <minDate>2007-09-18</minDate>
    <maxDate>2013-01-16</maxDate>
    <latitude>38.6507</latitude>
    <longitude>-107.967</longitude>
    <elevation>1609.3</elevation>
    <locationLabels>
      <type>CNTRY</type>
      <id>FIPS:US</id>
      <displayName>United States</displayName>
    </locationLabels>
    <coverage>0.9107</coverage>
  </station>
  <station>
    <id>GHCND:US1KSJO0006</id>
    <displayName>OLATHE 3.3 ENE, KS US</displayName>
    <minDate>2005-07-27</minDate>
    <maxDate>2013-01-14</maxDate>
    <latitude>38.9049</latitude>
    <longitude>-94.7569</longitude>
    <elevation>319.1</elevation>
    <locationLabels>
      <type>CNTRY</type>
      <id>FIPS:US</id>
      <displayName>United States</displayName>
    </locationLabels>
    <coverage>0.9593</coverage>
  </station>
  <station>
    <id>GHCND:USC00056116</id>
    <displayName>OLATHE 4 SSW, CO US</displayName>
    <minDate>1983-08-01</minDate>
    <maxDate>1985-09-30</maxDate>
    <latitude>38.55</latitude>
    <longitude>-108</longitude>
    <elevation>1705.7</elevation>
    <locationLabels>
      <type>CNTRY</type>
      <id>FIPS:US</id>
      <displayName>United States</displayName>
    </locationLabels>
    <coverage>0.8093</coverage>
  </station>
  <station>
    <id>GHCND:US1COMT0030</id>
    <displayName>OLATHE 5.2 SW, CO US</displayName>
    <minDate>2009-01-07</minDate>
    <maxDate>2009-05-28</maxDate>
    <latitude>38.5509</latitude>
    <longitude>-108.0484</longitude>
    <elevation>1706.6</elevation>
    <locationLabels>
      <type>CNTRY</type>
      <id>FIPS:US</id>
      <displayName>United States</displayName>
    </locationLabels>
    <coverage>0.993</coverage>
  </station>
  <station>
    <id>GHCND:US1COMT0016</id>
    <displayName>OLATHE 6.7 WNW, CO US</displayName>
    <minDate>2005-10-12</minDate>
    <maxDate>2006-09-12</maxDate>
    <latitude>38.6437</latitude>
    <longitude>-108.0954</longitude>
    <elevation>1624.9</elevation>
    <locationLabels>
      <type>CNTRY</type>
      <id>FIPS:US</id>
      <displayName>United States</displayName>
    </locationLabels>
    <coverage>0.8452</coverage>
  </station>
  <station>
    <id>GHCND:USW00003967</id>
    <displayName>OLATHE JOHNSON CO EXECUTIVE AIRPORT, KS US</displayName>
    <minDate>1996-07-01</minDate>
    <maxDate>2013-01-14</maxDate>
    <latitude>38.85</latitude>
    <longitude>-94.73917</longitude>
    <elevation>326.1</elevation>
    <locationLabels>
      <type>CNTRY</type>
      <id>FIPS:US</id>
      <displayName>United States</displayName>
    </locationLabels>
    <coverage>0.9897</coverage>
  </station>
  <station>
    <id>GHCND:USW00093909</id>
    <displayName>OLATHE JOHNSON CO INDUSTRIAL AIRPORT, KS US</displayName>
    <minDate>1945-03-01</minDate>
    <maxDate>2013-01-14</maxDate>
    <latitude>38.83167</latitude>
    <longitude>-94.88972</longitude>
    <elevation>331.3</elevation>
    <locationLabels>
      <type>CNTRY</type>
      <id>FIPS:US</id>
      <displayName>United States</displayName>
    </locationLabels>
    <coverage>0.5787</coverage>
  </station>
  <station>
    <id>GHCND:USC00056081</id>
    <displayName>OLATHE, CO US</displayName>
    <minDate>1941-04-01</minDate>
    <maxDate>1955-07-31</maxDate>
    <latitude>38.61667</latitude>
    <longitude>-107.98333</longitude>
    <elevation>1634.9</elevation>
    <locationLabels>
      <type>CNTRY</type>
      <id>FIPS:US</id>
      <displayName>United States</displayName>
    </locationLabels>
    <coverage>0.8886</coverage>
  </station>
  <station>
    <id>GHCND:USC00416615</id>
    <displayName>OLD 8 CAMP 6666, TX US</displayName>
    <minDate>1973-10-01</minDate>
    <maxDate>2000-09-30</maxDate>
    <latitude>33.56389</latitude>
    <longitude>-100.18528</longitude>
    <elevation>545.6</elevation>
    <locationLabels>
      <type>CNTRY</type>
      <id>FIPS:US</id>
      <displayName>United States</displayName>
    </locationLabels>
    <coverage>0.2747</coverage>
  </station>
  <station>
    <id>GHCND:USS0006H10S</id>
    <displayName>OLD BATTLE, WY US</displayName>
    <minDate>1982-10-01</minDate>
    <maxDate>2013-01-13</maxDate>
    <latitude>41.15</latitude>
    <longitude>-107.9667</longitude>
    <elevation>3023.6</elevation>
    <locationLabels>
      <type>CNTRY</type>
      <id>FIPS:US</id>
      <displayName>United States</displayName>
    </locationLabels>
    <coverage>0.9126</coverage>
  </station>
  <station>
    <id>GHCND:US1NJMD0031</id>
    <displayName>OLD BRIDGE TWP 3.3 N, NJ US</displayName>
    <minDate>2011-05-05</minDate>
    <maxDate>2012-10-08</maxDate>
    <latitude>40.4513</latitude>
    <longitude>-74.3129</longitude>
    <elevation>33.2</elevation>
    <locationLabels>
      <type>CNTRY</type>
      <id>FIPS:US</id>
      <displayName>United States</displayName>
    </locationLabels>
    <coverage>0.2505</coverage>
  </station>
  <station>
    <id>GHCND:US1KYJF0002</id>
    <displayName>OLD BROWNSBORO PLACE 0.3 SW, KY US</displayName>
    <minDate>2007-11-01</minDate>
    <maxDate>2013-01-16</maxDate>
    <latitude>38.2859</latitude>
    <longitude>-85.6141</longitude>
    <elevation>187.5</elevation>
    <locationLabels>
      <type>CNTRY</type>
      <id>FIPS:US</id>
      <displayName>United States</displayName>
    </locationLabels>
    <coverage>0.9701</coverage>
  </station>
  <station>
    <id>GHCND:USC00506777</id>
    <displayName>OLD EDGERTON, AK US</displayName>
    <minDate>1970-03-19</minDate>
    <maxDate>1996-01-31</maxDate>
    <latitude>61.8</latitude>
    <longitude>-144.98333</longitude>
    <elevation>402.3</elevation>
    <locationLabels>
      <type>CNTRY</type>
      <id>FIPS:US</id>
      <displayName>United States</displayName>
    </locationLabels>
    <coverage>0.9863</coverage>
  </station>
  <station>
    <id>GHCND:USC00486845</id>
    <displayName>OLD FAITHFUL, WY US</displayName>
    <minDate>1904-05-01</minDate>
    <maxDate>2013-01-13</maxDate>
    <latitude>44.4569</latitude>
    <longitude>-110.8327</longitude>
    <elevation>2243.3</elevation>
    <locationLabels>
      <type>CNTRY</type>
      <id>FIPS:US</id>
      <displayName>United States</displayName>
    </locationLabels>
    <coverage>0.4594</coverage>
  </station>
  <station>
    <id>GHCND:US1NYHR0009</id>
    <displayName>OLD FORGE 0.8 SE, NY US</displayName>
    <minDate>2009-10-30</minDate>
    <maxDate>2012-11-24</maxDate>
    <latitude>43.7052</latitude>
    <longitude>-74.959</longitude>
    <elevation>538.9</elevation>
    <locationLabels>
      <type>CNTRY</type>
      <id>FIPS:US</id>
      <displayName>United States</displayName>
    </locationLabels>
    <coverage>0.8271</coverage>
  </station>
  <station>
    <id>GHCND:USC00306179</id>
    <displayName>OLD FORGE THENDARA, NY US</displayName>
    <minDate>1948-05-01</minDate>
    <maxDate>1948-08-31</maxDate>
    <latitude>43.7</latitude>
    <longitude>-75</longitude>
    <elevation>519.1</elevation>
    <locationLabels>
      <type>CNTRY</type>
      <id>FIPS:US</id>
      <displayName>United States</displayName>
    </locationLabels>
    <coverage>1</coverage>
  </station>
  <station>
    <id>GHCND:USC00306184</id>
    <displayName>OLD FORGE, NY US</displayName>
    <minDate>1907-12-01</minDate>
    <maxDate>2013-01-08</maxDate>
    <latitude>43.7026</latitude>
    <longitude>-74.9838</longitude>
    <elevation>532.8</elevation>
    <locationLabels>
      <type>CNTRY</type>
      <id>FIPS:US</id>
      <displayName>United States</displayName>
    </locationLabels>
    <coverage>0.6958</coverage>
  </station>
  <station>
    <id>GHCND:USC00316380</id>
    <displayName>OLD FORT AG 3 W, NC US</displayName>
    <minDate>2011-01-01</minDate>
    <maxDate>2012-11-30</maxDate>
    <latitude>35.6672</latitude>
    <longitude>-82.1236</longitude>
    <elevation>434.3</elevation>
    <locationLabels>
      <type>CNTRY</type>
      <id>FIPS:US</id>
      <displayName>United States</displayName>
    </locationLabels>
    <coverage>0.9229</coverage>
  </station>
  <station>
    <id>GHCND:USC00486852</id>
    <displayName>OLD FORT LARAMIE, WY US</displayName>
    <minDate>1989-12-01</minDate>
    <maxDate>2013-01-15</maxDate>
    <latitude>42.2058</latitude>
    <longitude>-104.5561</longitude>
    <elevation>1295.4</elevation>
    <locationLabels>
      <type>CNTRY</type>
      <id>FIPS:US</id>
      <displayName>United States</displayName>
    </locationLabels>
    <coverage>0.9844</coverage>
  </station>
  <station>
    <id>GHCND:USC00316384</id>
    <displayName>OLD FORT, NC US</displayName>
    <minDate>1948-08-01</minDate>
    <maxDate>1964-07-31</maxDate>
    <latitude>35.61667</latitude>
    <longitude>-82.18333</longitude>
    <elevation>442</elevation>
    <locationLabels>
      <type>CNTRY</type>
      <id>FIPS:US</id>
      <displayName>United States</displayName>
    </locationLabels>
    <coverage>0.9459</coverage>
  </station>
  <station>
    <id>GHCND:USC00406803</id>
    <displayName>OLD HICKORY DAM, TN US</displayName>
    <minDate>1954-08-20</minDate>
    <maxDate>2013-01-16</maxDate>
    <latitude>36.29528</latitude>
    <longitude>-86.65694</longitude>
    <elevation>140.2</elevation>
    <locationLabels>
      <type>CNTRY</type>
      <id>FIPS:US</id>
      <displayName>United States</displayName>
    </locationLabels>
    <coverage>0.9699</coverage>
  </station>
  <station>
    <id>GHCND:USC00405349</id>
    <displayName>OLD HICKORY DAM, TN US</displayName>
    <minDate>1936-01-01</minDate>
    <maxDate>1954-06-30</maxDate>
    <latitude>36.29528</latitude>
    <longitude>-86.65694</longitude>
    <elevation>140.2</elevation>
    <locationLabels>
      <type>CNTRY</type>
      <id>FIPS:US</id>
      <displayName>United States</displayName>
    </locationLabels>
    <coverage>0.9905</coverage>
  </station>
  <station>
    <id>GHCND:USC00406806</id>
    <displayName>OLD HICKORY WEATHER FORECAST OFFICE, TN US</displayName>
    <minDate>1990-11-01</minDate>
    <maxDate>2013-01-16</maxDate>
    <latitude>36.247</latitude>
    <longitude>-86.5631</longitude>
    <elevation>179.8</elevation>
    <locationLabels>
      <type>CNTRY</type>
      <id>FIPS:US</id>
      <displayName>United States</displayName>
    </locationLabels>
    <coverage>0.9911</coverage>
  </station>
  <station>
    <id>GHCND:US1LAEB0021</id>
    <displayName>OLD JEFFERSON 0.9 W, LA US</displayName>
    <minDate>2008-01-18</minDate>
    <maxDate>2010-01-13</maxDate>
    <latitude>30.3781</latitude>
    <longitude>-91.018</longitude>
    <elevation>7</elevation>
    <locationLabels>
      <type>CNTRY</type>
      <id>FIPS:US</id>
      <displayName>United States</displayName>
    </locationLabels>
    <coverage>0.7221</coverage>
  </station>
  <station>
    <id>GHCND:USC00506800</id>
    <displayName>OLD MAN, AK US</displayName>
    <minDate>1975-02-01</minDate>
    <maxDate>1976-10-31</maxDate>
    <latitude>66.45</latitude>
    <longitude>-150.58333</longitude>
    <locationLabels>
      <type>CNTRY</type>
      <id>FIPS:US</id>
      <displayName>United States</displayName>
    </locationLabels>
    <coverage>1</coverage>
  </station>
  <station>
    <id>GHCND:USC00206158</id>
    <displayName>OLD MISSION 3 SSW, MI US</displayName>
    <minDate>1979-10-01</minDate>
    <maxDate>2013-01-14</maxDate>
    <latitude>44.9215</latitude>
    <longitude>-85.5161</longitude>
    <elevation>199.9</elevation>
    <locationLabels>
      <type>CNTRY</type>
      <id>FIPS:US</id>
      <displayName>United States</displayName>
    </locationLabels>
    <coverage>0.8817</coverage>
  </station>
  <station>
    <id>GHCND:USC00206156</id>
    <displayName>OLD MISSION, US</displayName>
    <minDate>1894-02-01</minDate>
    <maxDate>1930-11-30</maxDate>
    <latitude>44.95</latitude>
    <longitude>-85.48333</longitude>
    <elevation>258.5</elevation>
    <locationLabels>
      <type>CNTRY</type>
      <id>FIPS:US</id>
      <displayName>United States</displayName>
    </locationLabels>
    <coverage>0.9893</coverage>
  </station>
  <station>
    <id>GHCND:USC00236315</id>
    <displayName>OLD MONROE, MO US</displayName>
    <minDate>2010-08-01</minDate>
    <maxDate>2012-03-02</maxDate>
    <latitude>38.9288</latitude>
    <longitude>-90.7458</longitude>
    <elevation>130.8</elevation>
    <locationLabels>
      <type>CNTRY</type>
      <id>FIPS:US</id>
      <displayName>United States</displayName>
    </locationLabels>
    <coverage>0.9603</coverage>
  </station>
  <station>
    <id>GHCND:US1PANH0003</id>
    <displayName>OLD ORCHARD 1.3 WNW, PA US</displayName>
    <minDate>2006-05-28</minDate>
    <maxDate>2006-09-28</maxDate>
    <latitude>40.6633</latitude>
    <longitude>-75.2867</longitude>
    <elevation>121</elevation>
    <locationLabels>
      <type>CNTRY</type>
      <id>FIPS:US</id>
      <displayName>United States</displayName>
    </locationLabels>
    <coverage>0.8145</coverage>
  </station>
  <station>
    <id>GHCND:USC00166962</id>
    <displayName>OLD RIVER LOCK, LA US</displayName>
    <minDate>1965-03-01</minDate>
    <maxDate>1989-01-31</maxDate>
    <latitude>31</latitude>
    <longitude>-91.66667</longitude>
    <elevation>21.3</elevation>
    <locationLabels>
      <type>CNTRY</type>
      <id>FIPS:US</id>
      <displayName>United States</displayName>
    </locationLabels>
    <coverage>0.9971</coverage>
  </station>
  <station>
    <id>GHCND:USC00265760</id>
    <displayName>OLD RUTH, NV US</displayName>
    <minDate>1978-09-01</minDate>
    <maxDate>1985-11-30</maxDate>
    <latitude>39.26667</latitude>
    <longitude>-114.98333</longitude>
    <elevation>2144</elevation>
    <locationLabels>
      <type>CNTRY</type>
      <id>FIPS:US</id>
      <displayName>United States</displayName>
    </locationLabels>
    <coverage>0.9898</coverage>
  </station>
  <station>
    <id>GHCND:USC00145989</id>
    <displayName>OLD SPRINGFIELD, KS US</displayName>
    <minDate>1948-08-02</minDate>
    <maxDate>1951-09-30</maxDate>
    <latitude>37.41667</latitude>
    <longitude>-100.68333</longitude>
    <locationLabels>
      <type>CNTRY</type>
      <id>FIPS:US</id>
      <displayName>United States</displayName>
    </locationLabels>
    <coverage>0.9714</coverage>
  </station>
  <station>
    <id>GHCND:USW00094644</id>
    <displayName>OLD TOWN 2 W, ME US</displayName>
    <minDate>2002-09-15</minDate>
    <maxDate>2013-01-15</maxDate>
    <latitude>44.9281</latitude>
    <longitude>-68.7006</longitude>
    <elevation>38.7</elevation>
    <locationLabels>
      <type>CNTRY</type>
      <id>FIPS:US</id>
      <displayName>United States</displayName>
    </locationLabels>
    <coverage>0.9934</coverage>
  </station>
  <station>
    <id>GHCND:USC00166968</id>
    <displayName>OLD TOWN BAY, LA US</displayName>
    <minDate>1954-01-01</minDate>
    <maxDate>2013-01-16</maxDate>
    <latitude>30.2869</latitude>
    <longitude>-93.1444</longitude>
    <elevation>3.7</elevation>
    <locationLabels>
      <type>CNTRY</type>
      <id>FIPS:US</id>
      <displayName>United States</displayName>
    </locationLabels>
    <coverage>0.4446</coverage>
  </station>
  <station>
    <id>GHCND:USW00014622</id>
    <displayName>OLD TOWN FAA AIRPORT, ME US</displayName>
    <minDate>1948-06-01</minDate>
    <maxDate>1972-01-31</maxDate>
    <latitude>44.95</latitude>
    <longitude>-68.66667</longitude>
    <elevation>41.1</elevation>
    <locationLabels>
      <type>CNTRY</type>
      <id>FIPS:US</id>
      <displayName>United States</displayName>
    </locationLabels>
    <coverage>1</coverage>
  </station>
  <station>
    <id>GHCND:USC00086500</id>
    <displayName>OLD TOWN, FL US</displayName>
    <minDate>1918-05-22</minDate>
    <maxDate>1920-08-31</maxDate>
    <latitude>29.616667</latitude>
    <longitude>-82.983333</longitude>
    <locationLabels>
      <type>CNTRY</type>
      <id>FIPS:US</id>
      <displayName>United States</displayName>
    </locationLabels>
    <coverage>1</coverage>
  </station>
  <station>
    <id>GHCND:USC00176420</id>
    <displayName>OLD TOWN, ME US</displayName>
    <minDate>1921-01-01</minDate>
    <maxDate>1956-08-31</maxDate>
    <latitude>44.93333</latitude>
    <longitude>-68.65</longitude>
    <elevation>34.1</elevation>
    <locationLabels>
      <type>CNTRY</type>
      <id>FIPS:US</id>
      <displayName>United States</displayName>
    </locationLabels>
    <coverage>0.9932</coverage>
  </station>
  <station>
    <id>GHCND:USC00236294</id>
    <displayName>OLDEN, MO US</displayName>
    <minDate>1893-01-01</minDate>
    <maxDate>1912-12-31</maxDate>
    <latitude>36.833333</latitude>
    <longitude>-91.9</longitude>
    <elevation>379.8</elevation>
    <locationLabels>
      <type>CNTRY</type>
      <id>FIPS:US</id>
      <displayName>United States</displayName>
    </locationLabels>
    <coverage>0.9749</coverage>
  </station>
  <station>
    <id>GHCND:USC00236302</id>
    <displayName>OLDFIELD, MO US</displayName>
    <minDate>1955-10-01</minDate>
    <maxDate>2005-01-05</maxDate>
    <latitude>36.97556</latitude>
    <longitude>-93.02389</longitude>
    <elevation>378</elevation>
    <locationLabels>
      <type>CNTRY</type>
      <id>FIPS:US</id>
      <displayName>United States</displayName>
    </locationLabels>
    <coverage>0.7877</coverage>
  </station>
  <station>
    <id>GHCND:US1FLHB0070</id>
    <displayName>OLDSMAR 2.1 E, FL US</displayName>
    <minDate>2010-07-19</minDate>
    <maxDate>2011-04-26</maxDate>
    <latitude>28.0505</latitude>
    <longitude>-82.6359</longitude>
    <elevation>1.5</elevation>
    <locationLabels>
      <type>CNTRY</type>
      <id>FIPS:US</id>
      <displayName>United States</displayName>
    </locationLabels>
    <coverage>0.6383</coverage>
  </station>
  <station>
    <id>GHCND:USC00286544</id>
    <displayName>OLDWICK, NJ US</displayName>
    <minDate>1956-11-01</minDate>
    <maxDate>1968-03-11</maxDate>
    <latitude>40.66667</latitude>
    <longitude>-74.75</longitude>
    <elevation>78.9</elevation>
    <locationLabels>
      <type>CNTRY</type>
      <id>FIPS:US</id>
      <displayName>United States</displayName>
    </locationLabels>
    <coverage>1</coverage>
  </station>
  <station>
    <id>GHCND:US1NYCT0006</id>
    <displayName>OLEAN 1.2 NE, NY US</displayName>
    <minDate>2008-09-09</minDate>
    <maxDate>2013-01-16</maxDate>
    <latitude>42.092</latitude>
    <longitude>-78.413</longitude>
    <elevation>469.7</elevation>
    <locationLabels>
      <type>CNTRY</type>
      <id>FIPS:US</id>
      <displayName>United States</displayName>
    </locationLabels>
    <coverage>0.9013</coverage>
  </station>
  <station>
    <id>GHCND:USC00306196</id>
    <displayName>OLEAN, NY US</displayName>
    <minDate>1909-09-01</minDate>
    <maxDate>2013-01-16</maxDate>
    <latitude>42.0737</latitude>
    <longitude>-78.4518</longitude>
    <elevation>432.8</elevation>
    <locationLabels>
      <type>CNTRY</type>
      <id>FIPS:US</id>
      <displayName>United States</displayName>
    </locationLabels>
    <coverage>0.9409</coverage>
  </station>
  <station>
    <id>GHCND:US1PABR0019</id>
    <displayName>OLEY 1.9 E, PA US</displayName>
    <minDate>2010-10-01</minDate>
    <maxDate>2013-01-16</maxDate>
    <latitude>40.3895</latitude>
    <longitude>-75.7541</longitude>
    <elevation>106.1</elevation>
    <locationLabels>
      <type>CNTRY</type>
      <id>FIPS:US</id>
      <displayName>United States</displayName>
    </locationLabels>
    <coverage>0.9607</coverage>
  </station>
  <station>
    <id>GHCND:US1WASJ0024</id>
    <displayName>OLGA 1.2 ESE, WA US</displayName>
    <minDate>2009-05-05</minDate>
    <maxDate>2011-04-02</maxDate>
    <latitude>48.6145</latitude>
    <longitude>-122.8107</longitude>
    <elevation>23.8</elevation>
    <locationLabels>
      <type>CNTRY</type>
      <id>FIPS:US</id>
      <displayName>United States</displayName>
    </locationLabels>
    <coverage>0.4112</coverage>
  </station>
  <station>
    <id>GHCND:USC00456096</id>
    <displayName>OLGA 2 SE, WA US</displayName>
    <minDate>1891-07-01</minDate>
    <maxDate>2012-11-30</maxDate>
    <latitude>48.6116</latitude>
    <longitude>-122.8063</longitude>
    <elevation>24.4</elevation>
    <locationLabels>
      <type>CNTRY</type>
      <id>FIPS:US</id>
      <displayName>United States</displayName>
    </locationLabels>
    <coverage>0.9933</coverage>
  </station>
  <station>
    <id>GHCND:USC00506812</id>
    <displayName>OLGA, AK US</displayName>
    <minDate>1951-08-11</minDate>
    <maxDate>1952-02-29</maxDate>
    <latitude>57.16667</latitude>
    <longitude>-154.23333</longitude>
    <locationLabels>
      <type>CNTRY</type>
      <id>FIPS:US</id>
      <displayName>United States</displayName>
    </locationLabels>
    <coverage>0.5074</coverage>
  </station>
  <station>
    <id>GHCND:USC00136225</id>
    <displayName>OLIN, IA US</displayName>
    <minDate>1898-03-01</minDate>
    <maxDate>1941-06-30</maxDate>
    <latitude>42</latitude>
    <longitude>-91.13333</longitude>
    <elevation>228.9</elevation>
    <locationLabels>
      <type>CNTRY</type>
      <id>FIPS:US</id>
      <displayName>United States</displayName>
    </locationLabels>
    <coverage>0.9494</coverage>
  </station>
</stationCollection>
