<?xml version="1.0" encoding="UTF-8" standalone="yes"?>
<stationCollection totalCount="46020" pageCount="461" pageSize="100" page="4">
  <station>
    <id>GHCND:US1ALSH0032</id>
    <displayName>ALABASTER 1.8 WNW, AL US</displayName>
    <minDate>2008-01-14</minDate>
    <maxDate>2008-06-02</maxDate>
    <latitude>33.239</latitude>
    <longitude>-86.8512</longitude>
    <elevation>132.9</elevation>
    <locationLabels>
      <type>CNTRY</type>
      <id>FIPS:US</id>
      <displayName>United States</displayName>
    </locationLabels>
    <coverage>0.9858</coverage>
  </station>
  <station>
    <id>GHCND:US1ALSH0013</id>
    <displayName>ALABASTER 2.0 WSW, AL US</displayName>
    <minDate>2007-11-01</minDate>
    <maxDate>2013-01-16</maxDate>
    <latitude>33.2185</latitude>
    <longitude>-86.8587</longitude>
    <elevation>159.1</elevation>
    <locationLabels>
      <type>CNTRY</type>
      <id>FIPS:US</id>
      <displayName>United States</displayName>
    </locationLabels>
    <coverage>0.9349</coverage>
  </station>
  <station>
    <id>GHCND:US1ALSH0022</id>
    <displayName>ALABASTER 2.4 NE, AL US</displayName>
    <minDate>2007-10-31</minDate>
    <maxDate>2013-01-16</maxDate>
    <latitude>33.2462</latitude>
    <longitude>-86.7903</longitude>
    <elevation>183.5</elevation>
    <locationLabels>
      <type>CNTRY</type>
      <id>FIPS:US</id>
      <displayName>United States</displayName>
    </locationLabels>
    <coverage>0.8919</coverage>
  </station>
  <station>
    <id>GHCND:US1ALSH0012</id>
    <displayName>ALABASTER 2.8 N, AL US</displayName>
    <minDate>2007-10-01</minDate>
    <maxDate>2011-02-24</maxDate>
    <latitude>33.2666</latitude>
    <longitude>-86.821</longitude>
    <elevation>143.9</elevation>
    <locationLabels>
      <type>CNTRY</type>
      <id>FIPS:US</id>
      <displayName>United States</displayName>
    </locationLabels>
    <coverage>1</coverage>
  </station>
  <station>
    <id>GHCND:US1ALSH0046</id>
    <displayName>ALABASTER 4.2 E, AL US</displayName>
    <minDate>2011-02-22</minDate>
    <maxDate>2013-01-16</maxDate>
    <latitude>33.2267</latitude>
    <longitude>-86.7511</longitude>
    <elevation>182.9</elevation>
    <locationLabels>
      <type>CNTRY</type>
      <id>FIPS:US</id>
      <displayName>United States</displayName>
    </locationLabels>
    <coverage>0.8576</coverage>
  </station>
  <station>
    <id>GHCND:USW00053864</id>
    <displayName>ALABASTER SHELBY CO AIRPORT, AL US</displayName>
    <minDate>1995-04-01</minDate>
    <maxDate>2013-01-15</maxDate>
    <latitude>33.17833</latitude>
    <longitude>-86.78167</longitude>
    <elevation>172.2</elevation>
    <locationLabels>
      <type>CNTRY</type>
      <id>FIPS:US</id>
      <displayName>United States</displayName>
    </locationLabels>
    <coverage>0.9981</coverage>
  </station>
  <station>
    <id>GHCND:US1WYCK0002</id>
    <displayName>ALADDIN 9.3 NW, WY US</displayName>
    <minDate>2000-05-23</minDate>
    <maxDate>2006-06-03</maxDate>
    <latitude>44.7635</latitude>
    <longitude>-104.3155</longitude>
    <elevation>1164</elevation>
    <locationLabels>
      <type>CNTRY</type>
      <id>FIPS:US</id>
      <displayName>United States</displayName>
    </locationLabels>
    <coverage>0.1362</coverage>
  </station>
  <station>
    <id>GHCND:USC00480050</id>
    <displayName>ALADDIN, WY US</displayName>
    <minDate>1951-04-02</minDate>
    <maxDate>1952-01-13</maxDate>
    <latitude>44.63333</latitude>
    <longitude>-104.18333</longitude>
    <elevation>1140.9</elevation>
    <locationLabels>
      <type>CNTRY</type>
      <id>FIPS:US</id>
      <displayName>United States</displayName>
    </locationLabels>
    <coverage>0.993</coverage>
  </station>
  <station>
    <id>GHCND:USC00010125</id>
    <displayName>ALAGA, AL US</displayName>
    <minDate>1904-10-01</minDate>
    <maxDate>1936-12-31</maxDate>
    <latitude>31.13333</latitude>
    <longitude>-85.06667</longitude>
    <elevation>34.1</elevation>
    <locationLabels>
      <type>CNTRY</type>
      <id>FIPS:US</id>
      <displayName>United States</displayName>
    </locationLabels>
    <coverage>0.9556</coverage>
  </station>
  <station>
    <id>GHCND:USC00510134</id>
    <displayName>ALAKAHI LOWER 194, HI US</displayName>
    <minDate>1919-01-01</minDate>
    <maxDate>1963-04-30</maxDate>
    <latitude>20.08333</latitude>
    <longitude>-155.65</longitude>
    <elevation>256</elevation>
    <locationLabels>
      <type>CNTRY</type>
      <id>FIPS:US</id>
      <displayName>United States</displayName>
    </locationLabels>
    <coverage>0.6998</coverage>
  </station>
  <station>
    <id>GHCND:USC00510137</id>
    <displayName>ALAKAHI UPPER, HI US</displayName>
    <minDate>1919-01-01</minDate>
    <maxDate>1948-07-31</maxDate>
    <latitude>20.06667</latitude>
    <longitude>-155.66667</longitude>
    <elevation>1214</elevation>
    <locationLabels>
      <type>CNTRY</type>
      <id>FIPS:US</id>
      <displayName>United States</displayName>
    </locationLabels>
    <coverage>0.907</coverage>
  </station>
  <station>
    <id>GHCND:USC00040064</id>
    <displayName>ALAMO 1 N, CA US</displayName>
    <minDate>1957-10-01</minDate>
    <maxDate>1975-07-31</maxDate>
    <latitude>37.86667</latitude>
    <longitude>-122.03333</longitude>
    <elevation>125</elevation>
    <locationLabels>
      <type>CNTRY</type>
      <id>FIPS:US</id>
      <displayName>United States</displayName>
    </locationLabels>
    <coverage>0.9156</coverage>
  </station>
  <station>
    <id>GHCND:USC00045000</id>
    <displayName>ALAMO 1 N, CA US</displayName>
    <minDate>1956-01-01</minDate>
    <maxDate>1957-05-30</maxDate>
    <latitude>37.86667</latitude>
    <longitude>-122.03333</longitude>
    <elevation>125</elevation>
    <locationLabels>
      <type>CNTRY</type>
      <id>FIPS:US</id>
      <displayName>United States</displayName>
    </locationLabels>
    <coverage>0.7965</coverage>
  </station>
  <station>
    <id>GHCND:USC00400049</id>
    <displayName>ALAMO 1 N, TN US</displayName>
    <minDate>2001-11-01</minDate>
    <maxDate>2013-01-16</maxDate>
    <latitude>35.7977</latitude>
    <longitude>-89.1176</longitude>
    <elevation>100.6</elevation>
    <locationLabels>
      <type>CNTRY</type>
      <id>FIPS:US</id>
      <displayName>United States</displayName>
    </locationLabels>
    <coverage>0.9905</coverage>
  </station>
  <station>
    <id>GHCND:US1CACC0014</id>
    <displayName>ALAMO 1.0 WSW, CA US</displayName>
    <minDate>2009-10-14</minDate>
    <maxDate>2013-01-06</maxDate>
    <latitude>37.8538</latitude>
    <longitude>-122.0157</longitude>
    <elevation>100.9</elevation>
    <locationLabels>
      <type>CNTRY</type>
      <id>FIPS:US</id>
      <displayName>United States</displayName>
    </locationLabels>
    <coverage>0.149</coverage>
  </station>
  <station>
    <id>GHCND:US1TXHDL006</id>
    <displayName>ALAMO 1.5 NNE, TX US</displayName>
    <minDate>2007-06-25</minDate>
    <maxDate>2013-01-16</maxDate>
    <latitude>26.2086</latitude>
    <longitude>-98.1084</longitude>
    <elevation>32.9</elevation>
    <locationLabels>
      <type>CNTRY</type>
      <id>FIPS:US</id>
      <displayName>United States</displayName>
    </locationLabels>
    <coverage>0.786</coverage>
  </station>
  <station>
    <id>GHCND:US1TNCK0001</id>
    <displayName>ALAMO 3.5 WNW, TN US</displayName>
    <minDate>2007-07-01</minDate>
    <maxDate>2011-06-30</maxDate>
    <latitude>35.806</latitude>
    <longitude>-89.1708</longitude>
    <elevation>102.1</elevation>
    <locationLabels>
      <type>CNTRY</type>
      <id>FIPS:US</id>
      <displayName>United States</displayName>
    </locationLabels>
    <coverage>0.1903</coverage>
  </station>
  <station>
    <id>GHCND:USC00020097</id>
    <displayName>ALAMO 8 SW, AZ US</displayName>
    <minDate>1957-02-15</minDate>
    <maxDate>1960-07-31</maxDate>
    <latitude>34.2</latitude>
    <longitude>-113.7</longitude>
    <elevation>289.9</elevation>
    <locationLabels>
      <type>CNTRY</type>
      <id>FIPS:US</id>
      <displayName>United States</displayName>
    </locationLabels>
    <coverage>0.9517</coverage>
  </station>
  <station>
    <id>GHCND:USC00020099</id>
    <displayName>ALAMO DAM 6 ESE, AZ US</displayName>
    <minDate>1962-02-01</minDate>
    <maxDate>1974-09-30</maxDate>
    <latitude>34.25</latitude>
    <longitude>-113.46667</longitude>
    <elevation>451.1</elevation>
    <locationLabels>
      <type>CNTRY</type>
      <id>FIPS:US</id>
      <displayName>United States</displayName>
    </locationLabels>
    <coverage>0.9537</coverage>
  </station>
  <station>
    <id>GHCND:USC00020100</id>
    <displayName>ALAMO DAM, AZ US</displayName>
    <minDate>1975-07-01</minDate>
    <maxDate>2012-12-31</maxDate>
    <latitude>34.228</latitude>
    <longitude>-113.5777</longitude>
    <elevation>393.2</elevation>
    <locationLabels>
      <type>CNTRY</type>
      <id>FIPS:US</id>
      <displayName>United States</displayName>
    </locationLabels>
    <coverage>0.9914</coverage>
  </station>
  <station>
    <id>GHCND:US1TXBXR143</id>
    <displayName>ALAMO HEIGHTS 0.7 NNW, TX US</displayName>
    <minDate>2009-06-19</minDate>
    <maxDate>2013-01-10</maxDate>
    <latitude>29.492</latitude>
    <longitude>-98.4708</longitude>
    <elevation>245.4</elevation>
    <locationLabels>
      <type>CNTRY</type>
      <id>FIPS:US</id>
      <displayName>United States</displayName>
    </locationLabels>
    <coverage>0.1413</coverage>
  </station>
  <station>
    <id>GHCND:US1TXBXR149</id>
    <displayName>ALAMO HEIGHTS 1.5 NE, TX US</displayName>
    <minDate>2009-07-12</minDate>
    <maxDate>2010-11-02</maxDate>
    <latitude>29.499</latitude>
    <longitude>-98.4507</longitude>
    <elevation>249.6</elevation>
    <locationLabels>
      <type>CNTRY</type>
      <id>FIPS:US</id>
      <displayName>United States</displayName>
    </locationLabels>
    <coverage>0.6451</coverage>
  </station>
  <station>
    <id>GHCND:USC00260109</id>
    <displayName>ALAMO MNTC STATION, NV US</displayName>
    <minDate>1948-07-01</minDate>
    <maxDate>1949-07-25</maxDate>
    <latitude>37.36667</latitude>
    <longitude>-115.15</longitude>
    <elevation>1250.9</elevation>
    <locationLabels>
      <type>CNTRY</type>
      <id>FIPS:US</id>
      <displayName>United States</displayName>
    </locationLabels>
    <coverage>0.8077</coverage>
  </station>
  <station>
    <id>GHCND:USC00020098</id>
    <displayName>ALAMO RANGER STATION, AZ US</displayName>
    <minDate>1915-11-01</minDate>
    <maxDate>1946-03-31</maxDate>
    <latitude>33.5</latitude>
    <longitude>-110.85</longitude>
    <elevation>926.9</elevation>
    <locationLabels>
      <type>CNTRY</type>
      <id>FIPS:US</id>
      <displayName>United States</displayName>
    </locationLabels>
    <coverage>0.858</coverage>
  </station>
  <station>
    <id>GHCND:USC00020096</id>
    <displayName>ALAMO, AZ US</displayName>
    <minDate>1948-07-01</minDate>
    <maxDate>1951-03-31</maxDate>
    <latitude>34.26667</latitude>
    <longitude>-113.56667</longitude>
    <elevation>323.1</elevation>
    <locationLabels>
      <type>CNTRY</type>
      <id>FIPS:US</id>
      <displayName>United States</displayName>
    </locationLabels>
    <coverage>0.5677</coverage>
  </station>
  <station>
    <id>GHCND:USC00260099</id>
    <displayName>ALAMO, NV US</displayName>
    <minDate>1921-09-27</minDate>
    <maxDate>1962-09-30</maxDate>
    <latitude>37.36667</latitude>
    <longitude>-115.16667</longitude>
    <locationLabels>
      <type>CNTRY</type>
      <id>FIPS:US</id>
      <displayName>United States</displayName>
    </locationLabels>
    <coverage>0.9055</coverage>
  </station>
  <station>
    <id>GHCND:USC00290200</id>
    <displayName>ALAMOGORDO 1, NM US</displayName>
    <minDate>1892-01-01</minDate>
    <maxDate>1943-09-28</maxDate>
    <latitude>32.86667</latitude>
    <longitude>-105.93333</longitude>
    <locationLabels>
      <type>CNTRY</type>
      <id>FIPS:US</id>
      <displayName>United States</displayName>
    </locationLabels>
    <coverage>0.8175</coverage>
  </station>
  <station>
    <id>GHCND:US1NMOT0036</id>
    <displayName>ALAMOGORDO 1.6 NNE, NM US</displayName>
    <minDate>2006-07-21</minDate>
    <maxDate>2013-01-14</maxDate>
    <latitude>32.9058</latitude>
    <longitude>-105.9481</longitude>
    <elevation>1332.9</elevation>
    <locationLabels>
      <type>CNTRY</type>
      <id>FIPS:US</id>
      <displayName>United States</displayName>
    </locationLabels>
    <coverage>0.9852</coverage>
  </station>
  <station>
    <id>GHCND:US1NMOT0065</id>
    <displayName>ALAMOGORDO 2.0 N, NM US</displayName>
    <minDate>2012-08-01</minDate>
    <maxDate>2013-01-05</maxDate>
    <latitude>32.9125</latitude>
    <longitude>-105.9511</longitude>
    <elevation>1338.4</elevation>
    <locationLabels>
      <type>CNTRY</type>
      <id>FIPS:US</id>
      <displayName>United States</displayName>
    </locationLabels>
    <coverage>0.8797</coverage>
  </station>
  <station>
    <id>GHCND:US1NMOT0015</id>
    <displayName>ALAMOGORDO 2.1 ENE, NM US</displayName>
    <minDate>2005-07-01</minDate>
    <maxDate>2013-01-11</maxDate>
    <latitude>32.8996</latitude>
    <longitude>-105.9263</longitude>
    <elevation>1381</elevation>
    <locationLabels>
      <type>CNTRY</type>
      <id>FIPS:US</id>
      <displayName>United States</displayName>
    </locationLabels>
    <coverage>0.7976</coverage>
  </station>
  <station>
    <id>GHCND:US1NMOT0006</id>
    <displayName>ALAMOGORDO 2.1 SE, NM US</displayName>
    <minDate>2005-07-01</minDate>
    <maxDate>2013-01-05</maxDate>
    <latitude>32.8598</latitude>
    <longitude>-105.9377</longitude>
    <elevation>1378.9</elevation>
    <locationLabels>
      <type>CNTRY</type>
      <id>FIPS:US</id>
      <displayName>United States</displayName>
    </locationLabels>
    <coverage>0.8664</coverage>
  </station>
  <station>
    <id>GHCND:US1NMOT0029</id>
    <displayName>ALAMOGORDO 2.3 NE, NM US</displayName>
    <minDate>2006-05-15</minDate>
    <maxDate>2013-01-05</maxDate>
    <latitude>32.9079</latitude>
    <longitude>-105.9282</longitude>
    <elevation>1380.1</elevation>
    <locationLabels>
      <type>CNTRY</type>
      <id>FIPS:US</id>
      <displayName>United States</displayName>
    </locationLabels>
    <coverage>0.1359</coverage>
  </station>
  <station>
    <id>GHCND:US1NMOT0005</id>
    <displayName>ALAMOGORDO 2.3 NE, NM US</displayName>
    <minDate>2005-01-01</minDate>
    <maxDate>2007-06-30</maxDate>
    <latitude>32.9046</latitude>
    <longitude>-105.9256</longitude>
    <elevation>1385.9</elevation>
    <locationLabels>
      <type>CNTRY</type>
      <id>FIPS:US</id>
      <displayName>United States</displayName>
    </locationLabels>
    <coverage>0.5499</coverage>
  </station>
  <station>
    <id>GHCND:US1NMOT0042</id>
    <displayName>ALAMOGORDO 2.4 NE, NM US</displayName>
    <minDate>2009-12-02</minDate>
    <maxDate>2011-11-30</maxDate>
    <latitude>32.9102</latitude>
    <longitude>-105.9288</longitude>
    <elevation>1380.1</elevation>
    <locationLabels>
      <type>CNTRY</type>
      <id>FIPS:US</id>
      <displayName>United States</displayName>
    </locationLabels>
    <coverage>0.6571</coverage>
  </station>
  <station>
    <id>GHCND:US1NMOT0021</id>
    <displayName>ALAMOGORDO 2.7 NNE, NM US</displayName>
    <minDate>2005-11-17</minDate>
    <maxDate>2008-02-28</maxDate>
    <latitude>32.9197</latitude>
    <longitude>-105.9359</longitude>
    <elevation>1361.8</elevation>
    <locationLabels>
      <type>CNTRY</type>
      <id>FIPS:US</id>
      <displayName>United States</displayName>
    </locationLabels>
    <coverage>0.8094</coverage>
  </station>
  <station>
    <id>GHCND:US1NMOT0012</id>
    <displayName>ALAMOGORDO 2.8 NNE, NM US</displayName>
    <minDate>2005-07-03</minDate>
    <maxDate>2013-01-16</maxDate>
    <latitude>32.9212</latitude>
    <longitude>-105.9409</longitude>
    <elevation>1353</elevation>
    <locationLabels>
      <type>CNTRY</type>
      <id>FIPS:US</id>
      <displayName>United States</displayName>
    </locationLabels>
    <coverage>0.7361</coverage>
  </station>
  <station>
    <id>GHCND:US1NMOT0023</id>
    <displayName>ALAMOGORDO 4.0 S, NM US</displayName>
    <minDate>2005-12-01</minDate>
    <maxDate>2006-12-18</maxDate>
    <latitude>32.8275</latitude>
    <longitude>-105.9663</longitude>
    <elevation>1275</elevation>
    <locationLabels>
      <type>CNTRY</type>
      <id>FIPS:US</id>
      <displayName>United States</displayName>
    </locationLabels>
    <coverage>0.9791</coverage>
  </station>
  <station>
    <id>GHCND:US1NMOT0047</id>
    <displayName>ALAMOGORDO 4.6 N, NM US</displayName>
    <minDate>2007-05-08</minDate>
    <maxDate>2012-02-17</maxDate>
    <latitude>32.9511</latitude>
    <longitude>-105.9547</longitude>
    <elevation>1386.8</elevation>
    <locationLabels>
      <type>CNTRY</type>
      <id>FIPS:US</id>
      <displayName>United States</displayName>
    </locationLabels>
    <coverage>0.1511</coverage>
  </station>
  <station>
    <id>GHCND:US1NMOT0008</id>
    <displayName>ALAMOGORDO 5.1 NW, NM US</displayName>
    <minDate>2005-06-11</minDate>
    <maxDate>2013-01-05</maxDate>
    <latitude>32.9386</latitude>
    <longitude>-106.0161</longitude>
    <elevation>1263.1</elevation>
    <locationLabels>
      <type>CNTRY</type>
      <id>FIPS:US</id>
      <displayName>United States</displayName>
    </locationLabels>
    <coverage>0.962</coverage>
  </station>
  <station>
    <id>GHCND:US1NMOT0061</id>
    <displayName>ALAMOGORDO 6.8 NNW, NM US</displayName>
    <minDate>2011-04-06</minDate>
    <maxDate>2013-01-08</maxDate>
    <latitude>32.9696</latitude>
    <longitude>-106.0174</longitude>
    <elevation>1325.6</elevation>
    <locationLabels>
      <type>CNTRY</type>
      <id>FIPS:US</id>
      <displayName>United States</displayName>
    </locationLabels>
    <coverage>0.6165</coverage>
  </station>
  <station>
    <id>GHCND:US1NMOT0060</id>
    <displayName>ALAMOGORDO 7.0 S, NM US</displayName>
    <minDate>2010-08-17</minDate>
    <maxDate>2012-12-25</maxDate>
    <latitude>32.7838</latitude>
    <longitude>-105.9574</longitude>
    <elevation>1258.5</elevation>
    <locationLabels>
      <type>CNTRY</type>
      <id>FIPS:US</id>
      <displayName>United States</displayName>
    </locationLabels>
    <coverage>0.9559</coverage>
  </station>
  <station>
    <id>GHCND:US1NMOT0002</id>
    <displayName>ALAMOGORDO 8.5 NE, NM US</displayName>
    <minDate>2005-03-24</minDate>
    <maxDate>2009-03-09</maxDate>
    <latitude>32.9576</latitude>
    <longitude>-105.8398</longitude>
    <elevation>2026.9</elevation>
    <locationLabels>
      <type>CNTRY</type>
      <id>FIPS:US</id>
      <displayName>United States</displayName>
    </locationLabels>
    <coverage>0.6966</coverage>
  </station>
  <station>
    <id>GHCND:US1NMOT0046</id>
    <displayName>ALAMOGORDO 8.8 N, NM US</displayName>
    <minDate>2007-05-01</minDate>
    <maxDate>2013-01-15</maxDate>
    <latitude>33.0111</latitude>
    <longitude>-105.9808</longitude>
    <elevation>1380.1</elevation>
    <locationLabels>
      <type>CNTRY</type>
      <id>FIPS:US</id>
      <displayName>United States</displayName>
    </locationLabels>
    <coverage>0.9574</coverage>
  </station>
  <station>
    <id>GHCND:USC00290199</id>
    <displayName>ALAMOGORDO, NM US</displayName>
    <minDate>1909-07-01</minDate>
    <maxDate>2009-01-31</maxDate>
    <latitude>32.9181</latitude>
    <longitude>-105.955</longitude>
    <elevation>1335</elevation>
    <locationLabels>
      <type>CNTRY</type>
      <id>FIPS:US</id>
      <displayName>United States</displayName>
    </locationLabels>
    <coverage>0.9595</coverage>
  </station>
  <station>
    <id>GHCND:US1COAM0021</id>
    <displayName>ALAMOSA 1.2 NE, CO US</displayName>
    <minDate>2008-07-25</minDate>
    <maxDate>2013-01-16</maxDate>
    <latitude>37.4795</latitude>
    <longitude>-105.8548</longitude>
    <elevation>2301.2</elevation>
    <locationLabels>
      <type>CNTRY</type>
      <id>FIPS:US</id>
      <displayName>United States</displayName>
    </locationLabels>
    <coverage>0.9927</coverage>
  </station>
  <station>
    <id>GHCND:US1COAM0020</id>
    <displayName>ALAMOSA 1.6 NW, CO US</displayName>
    <minDate>2008-07-26</minDate>
    <maxDate>2012-02-07</maxDate>
    <latitude>37.4879</latitude>
    <longitude>-105.8902</longitude>
    <elevation>2301.8</elevation>
    <locationLabels>
      <type>CNTRY</type>
      <id>FIPS:US</id>
      <displayName>United States</displayName>
    </locationLabels>
    <coverage>0.4396</coverage>
  </station>
  <station>
    <id>GHCND:USC00050128</id>
    <displayName>ALAMOSA 2 S, CO US</displayName>
    <minDate>2005-09-01</minDate>
    <maxDate>2013-01-16</maxDate>
    <latitude>37.4416</latitude>
    <longitude>-105.8613</longitude>
    <elevation>2296.1</elevation>
    <locationLabels>
      <type>CNTRY</type>
      <id>FIPS:US</id>
      <displayName>United States</displayName>
    </locationLabels>
    <coverage>0.983</coverage>
  </station>
  <station>
    <id>GHCND:US1COAM0023</id>
    <displayName>ALAMOSA 2.1 SSW, CO US</displayName>
    <minDate>2010-03-10</minDate>
    <maxDate>2013-01-16</maxDate>
    <latitude>37.4397</latitude>
    <longitude>-105.8848</longitude>
    <elevation>2298.5</elevation>
    <locationLabels>
      <type>CNTRY</type>
      <id>FIPS:US</id>
      <displayName>United States</displayName>
    </locationLabels>
    <coverage>0.9837</coverage>
  </station>
  <station>
    <id>GHCND:US1COAM0007</id>
    <displayName>ALAMOSA 4.1 ENE, CO US</displayName>
    <minDate>2004-01-28</minDate>
    <maxDate>2012-12-23</maxDate>
    <latitude>37.4997</latitude>
    <longitude>-105.8044</longitude>
    <elevation>2299.1</elevation>
    <locationLabels>
      <type>CNTRY</type>
      <id>FIPS:US</id>
      <displayName>United States</displayName>
    </locationLabels>
    <coverage>0.5742</coverage>
  </station>
  <station>
    <id>GHCND:US1COAM0001</id>
    <displayName>ALAMOSA 5.8 WNW, CO US</displayName>
    <minDate>2003-01-12</minDate>
    <maxDate>2006-10-26</maxDate>
    <latitude>37.5049</latitude>
    <longitude>-105.9657</longitude>
    <elevation>2314</elevation>
    <locationLabels>
      <type>CNTRY</type>
      <id>FIPS:US</id>
      <displayName>United States</displayName>
    </locationLabels>
    <coverage>0.2435</coverage>
  </station>
  <station>
    <id>GHCND:US1COAM0011</id>
    <displayName>ALAMOSA 6.9 NW, CO US</displayName>
    <minDate>2006-08-01</minDate>
    <maxDate>2013-01-16</maxDate>
    <latitude>37.5363</latitude>
    <longitude>-105.9655</longitude>
    <elevation>2310.1</elevation>
    <locationLabels>
      <type>CNTRY</type>
      <id>FIPS:US</id>
      <displayName>United States</displayName>
    </locationLabels>
    <coverage>0.9682</coverage>
  </station>
  <station>
    <id>GHCND:USW00023061</id>
    <displayName>ALAMOSA SAN LUIS VALLEY REGIONAL AIRPORT, CO US</displayName>
    <minDate>1948-01-01</minDate>
    <maxDate>2013-01-15</maxDate>
    <latitude>37.4389</latitude>
    <longitude>-105.8613</longitude>
    <elevation>2296.1</elevation>
    <locationLabels>
      <type>CNTRY</type>
      <id>FIPS:US</id>
      <displayName>United States</displayName>
    </locationLabels>
    <coverage>0.9997</coverage>
  </station>
  <station>
    <id>GHCND:USC00050125</id>
    <displayName>ALAMOSA, CO US</displayName>
    <minDate>1906-05-01</minDate>
    <maxDate>1949-12-31</maxDate>
    <latitude>37.46667</latitude>
    <longitude>-105.88333</longitude>
    <elevation>2297</elevation>
    <locationLabels>
      <type>CNTRY</type>
      <id>FIPS:US</id>
      <displayName>United States</displayName>
    </locationLabels>
    <coverage>0.4266</coverage>
  </station>
  <station>
    <id>GHCND:USC00260125</id>
    <displayName>ALAN BIBLE VISITOR CENTER, NV US</displayName>
    <minDate>1997-11-01</minDate>
    <maxDate>2011-03-01</maxDate>
    <latitude>36.01</latitude>
    <longitude>-114.79639</longitude>
    <elevation>500.2</elevation>
    <locationLabels>
      <type>CNTRY</type>
      <id>FIPS:US</id>
      <displayName>United States</displayName>
    </locationLabels>
    <coverage>0.4513</coverage>
  </station>
  <station>
    <id>GHCND:USC00090131</id>
    <displayName>ALAPAHA EXPERIMENTAL STATION, GA US</displayName>
    <minDate>1891-11-02</minDate>
    <maxDate>1974-12-31</maxDate>
    <latitude>31.35</latitude>
    <longitude>-83.21667</longitude>
    <elevation>88.1</elevation>
    <locationLabels>
      <type>CNTRY</type>
      <id>FIPS:US</id>
      <displayName>United States</displayName>
    </locationLabels>
    <coverage>0.9182</coverage>
  </station>
  <station>
    <id>GHCND:USC00500172</id>
    <displayName>ALASKA PACIFIC UNIVERSITY, AK US</displayName>
    <minDate>1993-07-01</minDate>
    <maxDate>2004-10-31</maxDate>
    <latitude>61.18889</latitude>
    <longitude>-149.80556</longitude>
    <elevation>67.1</elevation>
    <locationLabels>
      <type>CNTRY</type>
      <id>FIPS:US</id>
      <displayName>United States</displayName>
    </locationLabels>
    <coverage>0.9254</coverage>
  </station>
  <station>
    <id>GHCND:US1ORLN0013</id>
    <displayName>ALBANY 0.5 NE, OR US</displayName>
    <minDate>2007-12-04</minDate>
    <maxDate>2008-07-25</maxDate>
    <latitude>44.623</latitude>
    <longitude>-123.085</longitude>
    <elevation>69.2</elevation>
    <locationLabels>
      <type>CNTRY</type>
      <id>FIPS:US</id>
      <displayName>United States</displayName>
    </locationLabels>
    <coverage>0.8596</coverage>
  </station>
  <station>
    <id>GHCND:US1ORLN0003</id>
    <displayName>ALBANY 0.5 SE, OR US</displayName>
    <minDate>2007-12-02</minDate>
    <maxDate>2013-01-16</maxDate>
    <latitude>44.611</latitude>
    <longitude>-123.0853</longitude>
    <elevation>69.5</elevation>
    <locationLabels>
      <type>CNTRY</type>
      <id>FIPS:US</id>
      <displayName>United States</displayName>
    </locationLabels>
    <coverage>0.9786</coverage>
  </station>
  <station>
    <id>GHCND:US1NYAB0017</id>
    <displayName>ALBANY 0.7 E, NY US</displayName>
    <minDate>2009-07-01</minDate>
    <maxDate>2012-12-22</maxDate>
    <latitude>42.6678</latitude>
    <longitude>-73.7856</longitude>
    <elevation>65.5</elevation>
    <locationLabels>
      <type>CNTRY</type>
      <id>FIPS:US</id>
      <displayName>United States</displayName>
    </locationLabels>
    <coverage>0.3021</coverage>
  </station>
  <station>
    <id>GHCND:US1MOFSA075</id>
    <displayName>ALBANY 0.7 NE, MO US</displayName>
    <minDate>2006-05-01</minDate>
    <maxDate>2013-01-16</maxDate>
    <latitude>40.2569</latitude>
    <longitude>-94.3262</longitude>
    <elevation>285.9</elevation>
    <locationLabels>
      <type>CNTRY</type>
      <id>FIPS:US</id>
      <displayName>United States</displayName>
    </locationLabels>
    <coverage>0.9959</coverage>
  </station>
  <station>
    <id>GHCND:US1NYAB0023</id>
    <displayName>ALBANY 0.7 SW, NY US</displayName>
    <minDate>2010-01-14</minDate>
    <maxDate>2013-01-16</maxDate>
    <latitude>42.6602</latitude>
    <longitude>-73.8103</longitude>
    <elevation>78</elevation>
    <locationLabels>
      <type>CNTRY</type>
      <id>FIPS:US</id>
      <displayName>United States</displayName>
    </locationLabels>
    <coverage>0.8453</coverage>
  </station>
  <station>
    <id>GHCND:US1KYCN0001</id>
    <displayName>ALBANY 1.4 WNW, KY US</displayName>
    <minDate>2008-04-24</minDate>
    <maxDate>2009-02-25</maxDate>
    <latitude>36.6987</latitude>
    <longitude>-85.1584</longitude>
    <elevation>298.1</elevation>
    <locationLabels>
      <type>CNTRY</type>
      <id>FIPS:US</id>
      <displayName>United States</displayName>
    </locationLabels>
    <coverage>0.3734</coverage>
  </station>
  <station>
    <id>GHCND:US1TXSF0001</id>
    <displayName>ALBANY 1.5 N, TX US</displayName>
    <minDate>2009-01-21</minDate>
    <maxDate>2012-10-01</maxDate>
    <latitude>32.748</latitude>
    <longitude>-99.2957</longitude>
    <elevation>452</elevation>
    <locationLabels>
      <type>CNTRY</type>
      <id>FIPS:US</id>
      <displayName>United States</displayName>
    </locationLabels>
    <coverage>0.0741</coverage>
  </station>
  <station>
    <id>GHCND:US1TXSF0008</id>
    <displayName>ALBANY 11.4 WNW, TX US</displayName>
    <minDate>2009-08-11</minDate>
    <maxDate>2012-12-31</maxDate>
    <latitude>32.8046</latitude>
    <longitude>-99.4679</longitude>
    <elevation>545</elevation>
    <locationLabels>
      <type>CNTRY</type>
      <id>FIPS:US</id>
      <displayName>United States</displayName>
    </locationLabels>
    <coverage>0.8337</coverage>
  </station>
  <station>
    <id>GHCND:US1TXSF0007</id>
    <displayName>ALBANY 11.9 WNW, TX US</displayName>
    <minDate>2009-08-11</minDate>
    <maxDate>2012-12-31</maxDate>
    <latitude>32.7842</latitude>
    <longitude>-99.4884</longitude>
    <elevation>541</elevation>
    <locationLabels>
      <type>CNTRY</type>
      <id>FIPS:US</id>
      <displayName>United States</displayName>
    </locationLabels>
    <coverage>0.8563</coverage>
  </station>
  <station>
    <id>GHCND:USC00350082</id>
    <displayName>ALBANY 2, OR US</displayName>
    <minDate>1963-02-01</minDate>
    <maxDate>1975-02-28</maxDate>
    <latitude>44.61667</latitude>
    <longitude>-123.11667</longitude>
    <elevation>67.1</elevation>
    <locationLabels>
      <type>CNTRY</type>
      <id>FIPS:US</id>
      <displayName>United States</displayName>
    </locationLabels>
    <coverage>0.9998</coverage>
  </station>
  <station>
    <id>GHCND:USC00090140</id>
    <displayName>ALBANY 3 SE, GA US</displayName>
    <minDate>1891-11-05</minDate>
    <maxDate>2013-01-16</maxDate>
    <latitude>31.5338</latitude>
    <longitude>-84.1488</longitude>
    <elevation>54.9</elevation>
    <locationLabels>
      <type>CNTRY</type>
      <id>FIPS:US</id>
      <displayName>United States</displayName>
    </locationLabels>
    <coverage>0.9865</coverage>
  </station>
  <station>
    <id>GHCND:US1ORBN0002</id>
    <displayName>ALBANY 3.6 NW, OR US</displayName>
    <minDate>2007-12-05</minDate>
    <maxDate>2013-01-16</maxDate>
    <latitude>44.6545</latitude>
    <longitude>-123.141</longitude>
    <elevation>92</elevation>
    <locationLabels>
      <type>CNTRY</type>
      <id>FIPS:US</id>
      <displayName>United States</displayName>
    </locationLabels>
    <coverage>0.8572</coverage>
  </station>
  <station>
    <id>GHCND:US1GADH0001</id>
    <displayName>ALBANY 3.7 NE, GA US</displayName>
    <minDate>2008-05-24</minDate>
    <maxDate>2013-01-16</maxDate>
    <latitude>31.618</latitude>
    <longitude>-84.1352</longitude>
    <elevation>60</elevation>
    <locationLabels>
      <type>CNTRY</type>
      <id>FIPS:US</id>
      <displayName>United States</displayName>
    </locationLabels>
    <coverage>0.9235</coverage>
  </station>
  <station>
    <id>GHCND:US1ORBN0035</id>
    <displayName>ALBANY 3.8 NW, OR US</displayName>
    <minDate>2008-01-09</minDate>
    <maxDate>2013-01-16</maxDate>
    <latitude>44.6593</latitude>
    <longitude>-123.1382</longitude>
    <elevation>89.3</elevation>
    <locationLabels>
      <type>CNTRY</type>
      <id>FIPS:US</id>
      <displayName>United States</displayName>
    </locationLabels>
    <coverage>0.521</coverage>
  </station>
  <station>
    <id>GHCND:US1ORBN0045</id>
    <displayName>ALBANY 3.8 NW, OR US</displayName>
    <minDate>2012-04-30</minDate>
    <maxDate>2013-01-12</maxDate>
    <latitude>44.6584</latitude>
    <longitude>-123.1418</longitude>
    <elevation>87.8</elevation>
    <locationLabels>
      <type>CNTRY</type>
      <id>FIPS:US</id>
      <displayName>United States</displayName>
    </locationLabels>
    <coverage>0.8876</coverage>
  </station>
  <station>
    <id>GHCND:US1MNSR0006</id>
    <displayName>ALBANY 4.0 N, MN US</displayName>
    <minDate>2009-12-20</minDate>
    <maxDate>2012-10-25</maxDate>
    <latitude>45.6852</latitude>
    <longitude>-94.5525</longitude>
    <elevation>381</elevation>
    <locationLabels>
      <type>CNTRY</type>
      <id>FIPS:US</id>
      <displayName>United States</displayName>
    </locationLabels>
    <coverage>0.2824</coverage>
  </station>
  <station>
    <id>GHCND:US1OHAT0006</id>
    <displayName>ALBANY 4.1 NW, OH US</displayName>
    <minDate>2009-05-25</minDate>
    <maxDate>2013-01-14</maxDate>
    <latitude>39.2728</latitude>
    <longitude>-82.243</longitude>
    <elevation>262.7</elevation>
    <locationLabels>
      <type>CNTRY</type>
      <id>FIPS:US</id>
      <displayName>United States</displayName>
    </locationLabels>
    <coverage>0.8866</coverage>
  </station>
  <station>
    <id>GHCND:US1GADH0002</id>
    <displayName>ALBANY 4.4 WNW, GA US</displayName>
    <minDate>2008-06-03</minDate>
    <maxDate>2013-01-16</maxDate>
    <latitude>31.6012</latitude>
    <longitude>-84.245</longitude>
    <elevation>64.9</elevation>
    <locationLabels>
      <type>CNTRY</type>
      <id>FIPS:US</id>
      <displayName>United States</displayName>
    </locationLabels>
    <coverage>0.9242</coverage>
  </station>
  <station>
    <id>GHCND:US1GALE0002</id>
    <displayName>ALBANY 4.6 NW, GA US</displayName>
    <minDate>2011-05-27</minDate>
    <maxDate>2013-01-16</maxDate>
    <latitude>31.6294</latitude>
    <longitude>-84.2253</longitude>
    <elevation>75.3</elevation>
    <locationLabels>
      <type>CNTRY</type>
      <id>FIPS:US</id>
      <displayName>United States</displayName>
    </locationLabels>
    <coverage>0.6589</coverage>
  </station>
  <station>
    <id>GHCND:US1KYCN0002</id>
    <displayName>ALBANY 5.3 W, KY US</displayName>
    <minDate>2008-08-08</minDate>
    <maxDate>2012-12-17</maxDate>
    <latitude>36.6802</latitude>
    <longitude>-85.2297</longitude>
    <elevation>289.6</elevation>
    <locationLabels>
      <type>CNTRY</type>
      <id>FIPS:US</id>
      <displayName>United States</displayName>
    </locationLabels>
    <coverage>0.5311</coverage>
  </station>
  <station>
    <id>GHCND:US1TXSF0010</id>
    <displayName>ALBANY 5.9 NW, TX US</displayName>
    <minDate>2009-08-11</minDate>
    <maxDate>2012-12-31</maxDate>
    <latitude>32.783</latitude>
    <longitude>-99.3712</longitude>
    <elevation>522.1</elevation>
    <locationLabels>
      <type>CNTRY</type>
      <id>FIPS:US</id>
      <displayName>United States</displayName>
    </locationLabels>
    <coverage>0.8345</coverage>
  </station>
  <station>
    <id>GHCND:US1TXSF0009</id>
    <displayName>ALBANY 6.5 N, TX US</displayName>
    <minDate>2009-08-11</minDate>
    <maxDate>2012-12-31</maxDate>
    <latitude>32.8197</latitude>
    <longitude>-99.317</longitude>
    <elevation>458.1</elevation>
    <locationLabels>
      <type>CNTRY</type>
      <id>FIPS:US</id>
      <displayName>United States</displayName>
    </locationLabels>
    <coverage>0.8249</coverage>
  </station>
  <station>
    <id>GHCND:US1TXSF0011</id>
    <displayName>ALBANY 6.8 SE, TX US</displayName>
    <minDate>2009-08-11</minDate>
    <maxDate>2012-12-31</maxDate>
    <latitude>32.6598</latitude>
    <longitude>-99.2103</longitude>
    <elevation>392.9</elevation>
    <locationLabels>
      <type>CNTRY</type>
      <id>FIPS:US</id>
      <displayName>United States</displayName>
    </locationLabels>
    <coverage>0.8305</coverage>
  </station>
  <station>
    <id>GHCND:US1TXSF0006</id>
    <displayName>ALBANY 7.2 NW, TX US</displayName>
    <minDate>2009-01-01</minDate>
    <maxDate>2012-12-31</maxDate>
    <latitude>32.7932</latitude>
    <longitude>-99.39</longitude>
    <elevation>545</elevation>
    <locationLabels>
      <type>CNTRY</type>
      <id>FIPS:US</id>
      <displayName>United States</displayName>
    </locationLabels>
    <coverage>0.6975</coverage>
  </station>
  <station>
    <id>GHCND:US1GADH0004</id>
    <displayName>ALBANY 8.0 SSE, GA US</displayName>
    <minDate>2008-05-24</minDate>
    <maxDate>2010-07-17</maxDate>
    <latitude>31.4687</latitude>
    <longitude>-84.1311</longitude>
    <elevation>55.2</elevation>
    <locationLabels>
      <type>CNTRY</type>
      <id>FIPS:US</id>
      <displayName>United States</displayName>
    </locationLabels>
    <coverage>0.2293</coverage>
  </station>
  <station>
    <id>GHCND:USW00014735</id>
    <displayName>ALBANY AIRPORT, NY US</displayName>
    <minDate>1938-06-01</minDate>
    <maxDate>2013-01-15</maxDate>
    <latitude>42.7431</latitude>
    <longitude>-73.8092</longitude>
    <elevation>95.1</elevation>
    <locationLabels>
      <type>CNTRY</type>
      <id>FIPS:US</id>
      <displayName>United States</displayName>
    </locationLabels>
    <coverage>0.9995</coverage>
  </station>
  <station>
    <id>GHCND:USW00013815</id>
    <displayName>ALBANY NAS, GA US</displayName>
    <minDate>1949-01-01</minDate>
    <maxDate>1974-04-15</maxDate>
    <latitude>31.58333</latitude>
    <longitude>-84.11667</longitude>
    <elevation>66.1</elevation>
    <locationLabels>
      <type>CNTRY</type>
      <id>FIPS:US</id>
      <displayName>United States</displayName>
    </locationLabels>
    <coverage>0.9637</coverage>
  </station>
  <station>
    <id>GHCND:USC00300048</id>
    <displayName>ALBANY NWFO UNIVERSITY, NY US</displayName>
    <minDate>1998-12-01</minDate>
    <maxDate>2010-02-28</maxDate>
    <latitude>42.6925</latitude>
    <longitude>-73.8308</longitude>
    <elevation>89.3</elevation>
    <locationLabels>
      <type>CNTRY</type>
      <id>FIPS:US</id>
      <displayName>United States</displayName>
    </locationLabels>
    <coverage>0.9922</coverage>
  </station>
  <station>
    <id>GHCND:USW00013869</id>
    <displayName>ALBANY SW GEORGIA REGIONAL AIRPORT, GA US</displayName>
    <minDate>1948-01-01</minDate>
    <maxDate>2013-01-15</maxDate>
    <latitude>31.53556</latitude>
    <longitude>-84.19444</longitude>
    <elevation>57.9</elevation>
    <locationLabels>
      <type>CNTRY</type>
      <id>FIPS:US</id>
      <displayName>United States</displayName>
    </locationLabels>
    <coverage>0.2844</coverage>
  </station>
  <station>
    <id>GHCND:USC00150063</id>
    <displayName>ALBANY, KY US</displayName>
    <minDate>1951-11-01</minDate>
    <maxDate>2013-01-15</maxDate>
    <latitude>36.6897</latitude>
    <longitude>-85.1411</longitude>
    <elevation>283.5</elevation>
    <locationLabels>
      <type>CNTRY</type>
      <id>FIPS:US</id>
      <displayName>United States</displayName>
    </locationLabels>
    <coverage>0.9326</coverage>
  </station>
  <station>
    <id>GHCND:USC00230051</id>
    <displayName>ALBANY, MO US</displayName>
    <minDate>1905-01-01</minDate>
    <maxDate>2013-01-16</maxDate>
    <latitude>40.2486</latitude>
    <longitude>-94.3308</longitude>
    <elevation>266.7</elevation>
    <locationLabels>
      <type>CNTRY</type>
      <id>FIPS:US</id>
      <displayName>United States</displayName>
    </locationLabels>
    <coverage>0.4695</coverage>
  </station>
  <station>
    <id>GHCND:USC00300047</id>
    <displayName>ALBANY, NY US</displayName>
    <minDate>1903-02-01</minDate>
    <maxDate>1970-12-31</maxDate>
    <latitude>42.64611</latitude>
    <longitude>-73.74722</longitude>
    <elevation>0</elevation>
    <locationLabels>
      <type>CNTRY</type>
      <id>FIPS:US</id>
      <displayName>United States</displayName>
    </locationLabels>
    <coverage>0.9891</coverage>
  </station>
  <station>
    <id>GHCND:USC00350078</id>
    <displayName>ALBANY, OR US</displayName>
    <minDate>1893-01-01</minDate>
    <maxDate>1963-01-31</maxDate>
    <latitude>44.65</latitude>
    <longitude>-123.1</longitude>
    <elevation>64</elevation>
    <locationLabels>
      <type>CNTRY</type>
      <id>FIPS:US</id>
      <displayName>United States</displayName>
    </locationLabels>
    <coverage>0.9053</coverage>
  </station>
  <station>
    <id>GHCND:USC00410120</id>
    <displayName>ALBANY, TX US</displayName>
    <minDate>1893-01-01</minDate>
    <maxDate>2013-01-16</maxDate>
    <latitude>32.7047</latitude>
    <longitude>-99.3011</longitude>
    <elevation>439.2</elevation>
    <locationLabels>
      <type>CNTRY</type>
      <id>FIPS:US</id>
      <displayName>United States</displayName>
    </locationLabels>
    <coverage>0.9211</coverage>
  </station>
  <station>
    <id>GHCND:USC00430134</id>
    <displayName>ALBANY, VT US</displayName>
    <minDate>1993-10-01</minDate>
    <maxDate>1999-04-30</maxDate>
    <latitude>44.7</latitude>
    <longitude>-72.38333</longitude>
    <elevation>267</elevation>
    <locationLabels>
      <type>CNTRY</type>
      <id>FIPS:US</id>
      <displayName>United States</displayName>
    </locationLabels>
    <coverage>0.9715</coverage>
  </station>
  <station>
    <id>GHCND:USC00350090</id>
    <displayName>ALBEE, OR US</displayName>
    <minDate>1905-05-01</minDate>
    <maxDate>1909-05-31</maxDate>
    <latitude>45.35</latitude>
    <longitude>-118.9</longitude>
    <elevation>1097.3</elevation>
    <locationLabels>
      <type>CNTRY</type>
      <id>FIPS:US</id>
      <displayName>United States</displayName>
    </locationLabels>
    <coverage>0.8633</coverage>
  </station>
  <station>
    <id>GHCND:USC00310090</id>
    <displayName>ALBEMARLE, NC US</displayName>
    <minDate>1911-06-20</minDate>
    <maxDate>2012-11-30</maxDate>
    <latitude>35.39917</latitude>
    <longitude>-80.19944</longitude>
    <elevation>185.9</elevation>
    <locationLabels>
      <type>CNTRY</type>
      <id>FIPS:US</id>
      <displayName>United States</displayName>
    </locationLabels>
    <coverage>0.9801</coverage>
  </station>
  <station>
    <id>GHCND:USC00110050</id>
    <displayName>ALBERS 1 W, IL US</displayName>
    <minDate>1977-09-01</minDate>
    <maxDate>2013-01-16</maxDate>
    <latitude>38.5411</latitude>
    <longitude>-89.6289</longitude>
    <elevation>131.1</elevation>
    <locationLabels>
      <type>CNTRY</type>
      <id>FIPS:US</id>
      <displayName>United States</displayName>
    </locationLabels>
    <coverage>0.7915</coverage>
  </station>
  <station>
    <id>GHCND:USC00140119</id>
    <displayName>ALBERT 5 SE, KS US</displayName>
    <minDate>2001-11-01</minDate>
    <maxDate>2013-01-11</maxDate>
    <latitude>38.3899</latitude>
    <longitude>-98.9504</longitude>
    <elevation>582.2</elevation>
    <locationLabels>
      <type>CNTRY</type>
      <id>FIPS:US</id>
      <displayName>United States</displayName>
    </locationLabels>
    <coverage>0.979</coverage>
  </station>
  <station>
    <id>GHCND:USC00210080</id>
    <displayName>ALBERT LEA 3 E, MN US</displayName>
    <minDate>1948-08-01</minDate>
    <maxDate>1951-09-29</maxDate>
    <latitude>43.66667</latitude>
    <longitude>-93.3</longitude>
    <elevation>374.9</elevation>
    <locationLabels>
      <type>CNTRY</type>
      <id>FIPS:US</id>
      <displayName>United States</displayName>
    </locationLabels>
    <coverage>0.8771</coverage>
  </station>
  <station>
    <id>GHCND:USC00210075</id>
    <displayName>ALBERT LEA 3 SE, MN US</displayName>
    <minDate>1893-01-01</minDate>
    <maxDate>2013-01-16</maxDate>
    <latitude>43.6064</latitude>
    <longitude>-93.3019</longitude>
    <elevation>374.9</elevation>
    <locationLabels>
      <type>CNTRY</type>
      <id>FIPS:US</id>
      <displayName>United States</displayName>
    </locationLabels>
    <coverage>0.974</coverage>
  </station>
  <station>
    <id>GHCND:USC00140117</id>
    <displayName>ALBERT, KS US</displayName>
    <minDate>1959-08-01</minDate>
    <maxDate>1994-12-31</maxDate>
    <latitude>38.46111</latitude>
    <longitude>-99.01389</longitude>
    <elevation>581.6</elevation>
    <locationLabels>
      <type>CNTRY</type>
      <id>FIPS:US</id>
      <displayName>United States</displayName>
    </locationLabels>
    <coverage>0.494</coverage>
  </station>
  <station>
    <id>GHCND:USC00290214</id>
    <displayName>ALBERT, NM US</displayName>
    <minDate>1893-01-01</minDate>
    <maxDate>1914-07-31</maxDate>
    <latitude>35.93333</latitude>
    <longitude>-103.86667</longitude>
    <elevation>1493.5</elevation>
    <locationLabels>
      <type>CNTRY</type>
      <id>FIPS:US</id>
      <displayName>United States</displayName>
    </locationLabels>
    <coverage>0.9876</coverage>
  </station>
  <station>
    <id>GHCND:USC00440079</id>
    <displayName>ALBERTA 5 N, VA US</displayName>
    <minDate>2004-11-01</minDate>
    <maxDate>2013-01-15</maxDate>
    <latitude>36.94</latitude>
    <longitude>-77.8981</longitude>
    <elevation>114.6</elevation>
    <locationLabels>
      <type>CNTRY</type>
      <id>FIPS:US</id>
      <displayName>United States</displayName>
    </locationLabels>
    <coverage>0.996</coverage>
  </station>
</stationCollection>
