<?xml version="1.0" encoding="UTF-8" standalone="yes"?>
<stationCollection totalCount="46020" pageCount="461" pageSize="100" page="341">
  <station>
    <id>GHCND:US1RIPR0011</id>
    <displayName>PROVIDENCE 3.0 ENE, RI US</displayName>
    <minDate>2008-08-09</minDate>
    <maxDate>2012-10-02</maxDate>
    <latitude>41.831</latitude>
    <longitude>-71.3636</longitude>
    <elevation>7.9</elevation>
    <locationLabels>
      <type>CNTRY</type>
      <id>FIPS:US</id>
      <displayName>United States</displayName>
    </locationLabels>
    <coverage>0.0917</coverage>
  </station>
  <station>
    <id>GHCND:USW00014765</id>
    <displayName>PROVIDENCE T F GREEN STATE AIRPORT, RI US</displayName>
    <minDate>1948-01-01</minDate>
    <maxDate>2013-01-15</maxDate>
    <latitude>41.7219</latitude>
    <longitude>-71.4325</longitude>
    <elevation>18.3</elevation>
    <locationLabels>
      <type>CNTRY</type>
      <id>FIPS:US</id>
      <displayName>United States</displayName>
    </locationLabels>
    <coverage>0.9997</coverage>
  </station>
  <station>
    <id>GHCND:USC00156595</id>
    <displayName>PROVIDENCE, KY US</displayName>
    <minDate>1979-01-01</minDate>
    <maxDate>2013-01-16</maxDate>
    <latitude>37.3997</latitude>
    <longitude>-87.7622</longitude>
    <elevation>124.7</elevation>
    <locationLabels>
      <type>CNTRY</type>
      <id>FIPS:US</id>
      <displayName>United States</displayName>
    </locationLabels>
    <coverage>0.9691</coverage>
  </station>
  <station>
    <id>GHCND:USC00376703</id>
    <displayName>PROVIDENCE, RI US</displayName>
    <minDate>1948-06-01</minDate>
    <maxDate>1953-04-30</maxDate>
    <latitude>41.83333</latitude>
    <longitude>-71.41667</longitude>
    <elevation>21</elevation>
    <locationLabels>
      <type>CNTRY</type>
      <id>FIPS:US</id>
      <displayName>United States</displayName>
    </locationLabels>
    <coverage>1</coverage>
  </station>
  <station>
    <id>GHCND:USC00407442</id>
    <displayName>PROVIDENCE, TN US</displayName>
    <minDate>1949-01-01</minDate>
    <maxDate>1962-03-31</maxDate>
    <latitude>35.85</latitude>
    <longitude>-83.78333</longitude>
    <elevation>335.9</elevation>
    <locationLabels>
      <type>CNTRY</type>
      <id>FIPS:US</id>
      <displayName>United States</displayName>
    </locationLabels>
    <coverage>0.9983</coverage>
  </station>
  <station>
    <id>GHCND:USC00417299</id>
    <displayName>PROVIDENT CITY, TX US</displayName>
    <minDate>1944-01-01</minDate>
    <maxDate>1966-08-31</maxDate>
    <latitude>29.28333</latitude>
    <longitude>-96.63333</longitude>
    <elevation>46</elevation>
    <locationLabels>
      <type>CNTRY</type>
      <id>FIPS:US</id>
      <displayName>United States</displayName>
    </locationLabels>
    <coverage>0.9861</coverage>
  </station>
  <station>
    <id>GHCND:USC00196676</id>
    <displayName>PROVINCETOWN 3 NW, MA US</displayName>
    <minDate>1893-01-01</minDate>
    <maxDate>1958-04-30</maxDate>
    <latitude>42.08333</latitude>
    <longitude>-70.21667</longitude>
    <elevation>11.9</elevation>
    <locationLabels>
      <type>CNTRY</type>
      <id>FIPS:US</id>
      <displayName>United States</displayName>
    </locationLabels>
    <coverage>0.9041</coverage>
  </station>
  <station>
    <id>GHCND:USC00196681</id>
    <displayName>PROVINCETOWN, MA US</displayName>
    <minDate>1958-05-01</minDate>
    <maxDate>1992-09-30</maxDate>
    <latitude>42.05</latitude>
    <longitude>-70.18333</longitude>
    <elevation>6.1</elevation>
    <locationLabels>
      <type>CNTRY</type>
      <id>FIPS:US</id>
      <displayName>United States</displayName>
    </locationLabels>
    <coverage>0.8365</coverage>
  </station>
  <station>
    <id>GHCND:USW00004143</id>
    <displayName>PROVO 22 E, UT US</displayName>
    <minDate>2010-08-01</minDate>
    <maxDate>2012-12-14</maxDate>
    <latitude>40.2816</latitude>
    <longitude>-111.2398</longitude>
    <elevation>2379.9</elevation>
    <locationLabels>
      <type>CNTRY</type>
      <id>FIPS:US</id>
      <displayName>United States</displayName>
    </locationLabels>
    <coverage>0.9988</coverage>
  </station>
  <station>
    <id>GHCND:US1UTUT0010</id>
    <displayName>PROVO 3.4 SSE, UT US</displayName>
    <minDate>2008-07-29</minDate>
    <maxDate>2010-05-29</maxDate>
    <latitude>40.2013</latitude>
    <longitude>-111.6201</longitude>
    <elevation>1397.2</elevation>
    <locationLabels>
      <type>CNTRY</type>
      <id>FIPS:US</id>
      <displayName>United States</displayName>
    </locationLabels>
    <coverage>0.5582</coverage>
  </station>
  <station>
    <id>GHCND:USC00427061</id>
    <displayName>PROVO AIRPORT, UT US</displayName>
    <minDate>1948-07-01</minDate>
    <maxDate>1953-12-31</maxDate>
    <latitude>40.21889</latitude>
    <longitude>-111.72333</longitude>
    <elevation>1370.7</elevation>
    <locationLabels>
      <type>CNTRY</type>
      <id>FIPS:US</id>
      <displayName>United States</displayName>
    </locationLabels>
    <coverage>1</coverage>
  </station>
  <station>
    <id>GHCND:USC00427064</id>
    <displayName>PROVO BYU, UT US</displayName>
    <minDate>1916-04-01</minDate>
    <maxDate>2013-01-15</maxDate>
    <latitude>40.2458</latitude>
    <longitude>-111.6508</longitude>
    <elevation>1392.9</elevation>
    <locationLabels>
      <type>CNTRY</type>
      <id>FIPS:US</id>
      <displayName>United States</displayName>
    </locationLabels>
    <coverage>0.4732</coverage>
  </station>
  <station>
    <id>GHCND:USC00427068</id>
    <displayName>PROVO RADIO KAYK, UT US</displayName>
    <minDate>1952-04-01</minDate>
    <maxDate>1977-02-08</maxDate>
    <latitude>40.21667</latitude>
    <longitude>-111.66667</longitude>
    <elevation>1363.1</elevation>
    <locationLabels>
      <type>CNTRY</type>
      <id>FIPS:US</id>
      <displayName>United States</displayName>
    </locationLabels>
    <coverage>0.948</coverage>
  </station>
  <station>
    <id>GHCND:USC00396812</id>
    <displayName>PROVO, SD US</displayName>
    <minDate>1948-11-01</minDate>
    <maxDate>1958-06-30</maxDate>
    <latitude>43.2</latitude>
    <longitude>-103.83333</longitude>
    <elevation>1132</elevation>
    <locationLabels>
      <type>CNTRY</type>
      <id>FIPS:US</id>
      <displayName>United States</displayName>
    </locationLabels>
    <coverage>0.9938</coverage>
  </station>
  <station>
    <id>GHCND:USR0000OPRO</id>
    <displayName>PROVOLT SEED ORCHARD OREGON, OR US</displayName>
    <minDate>1985-01-23</minDate>
    <maxDate>2012-08-31</maxDate>
    <latitude>42.2897</latitude>
    <longitude>-123.2303</longitude>
    <elevation>359.7</elevation>
    <locationLabels>
      <type>CNTRY</type>
      <id>FIPS:US</id>
      <displayName>United States</displayName>
    </locationLabels>
    <coverage>0.9547</coverage>
  </station>
  <station>
    <id>GHCND:USC00507780</id>
    <displayName>PRUDHOE BAY, AK US</displayName>
    <minDate>1986-04-01</minDate>
    <maxDate>1999-06-30</maxDate>
    <latitude>70.25</latitude>
    <longitude>-148.33333</longitude>
    <elevation>22.9</elevation>
    <locationLabels>
      <type>CNTRY</type>
      <id>FIPS:US</id>
      <displayName>United States</displayName>
    </locationLabels>
    <coverage>0.9996</coverage>
  </station>
  <station>
    <id>GHCND:US1COHF0020</id>
    <displayName>PRYOR 2.7 W, CO US</displayName>
    <minDate>2005-11-01</minDate>
    <maxDate>2006-02-28</maxDate>
    <latitude>37.5243</latitude>
    <longitude>-104.7697</longitude>
    <elevation>2048</elevation>
    <locationLabels>
      <type>CNTRY</type>
      <id>FIPS:US</id>
      <displayName>United States</displayName>
    </locationLabels>
    <coverage>1</coverage>
  </station>
  <station>
    <id>GHCND:USC00246759</id>
    <displayName>PRYOR 27 SE HILLSBOR, MT US</displayName>
    <minDate>1951-09-05</minDate>
    <maxDate>1952-12-31</maxDate>
    <latitude>45.1</latitude>
    <longitude>-108.23333</longitude>
    <elevation>1220.1</elevation>
    <locationLabels>
      <type>CNTRY</type>
      <id>FIPS:US</id>
      <displayName>United States</displayName>
    </locationLabels>
    <coverage>0.9008</coverage>
  </station>
  <station>
    <id>GHCND:US1OKMY0006</id>
    <displayName>PRYOR 6.9 ESE, OK US</displayName>
    <minDate>2012-04-03</minDate>
    <maxDate>2013-01-15</maxDate>
    <latitude>36.2788</latitude>
    <longitude>-95.1996</longitude>
    <elevation>206</elevation>
    <locationLabels>
      <type>CNTRY</type>
      <id>FIPS:US</id>
      <displayName>United States</displayName>
    </locationLabels>
    <coverage>0.8056</coverage>
  </station>
  <station>
    <id>GHCND:USR0000MPRY</id>
    <displayName>PRYOR MOUNTAIN MONTANA, MT US</displayName>
    <minDate>1991-08-05</minDate>
    <maxDate>2012-08-31</maxDate>
    <latitude>45.3375</latitude>
    <longitude>-108.4908</longitude>
    <elevation>1885.5</elevation>
    <locationLabels>
      <type>CNTRY</type>
      <id>FIPS:US</id>
      <displayName>United States</displayName>
    </locationLabels>
    <coverage>0.9315</coverage>
  </station>
  <station>
    <id>GHCND:USC00246747</id>
    <displayName>PRYOR, MT US</displayName>
    <minDate>1950-06-13</minDate>
    <maxDate>2012-11-30</maxDate>
    <latitude>45.4339</latitude>
    <longitude>-108.5365</longitude>
    <elevation>1227.1</elevation>
    <locationLabels>
      <type>CNTRY</type>
      <id>FIPS:US</id>
      <displayName>United States</displayName>
    </locationLabels>
    <coverage>0.9215</coverage>
  </station>
  <station>
    <id>GHCND:USC00347309</id>
    <displayName>PRYOR, OK US</displayName>
    <minDate>1926-04-19</minDate>
    <maxDate>2004-03-31</maxDate>
    <latitude>36.30917</latitude>
    <longitude>-95.32972</longitude>
    <elevation>190.5</elevation>
    <locationLabels>
      <type>CNTRY</type>
      <id>FIPS:US</id>
      <displayName>United States</displayName>
    </locationLabels>
    <coverage>0.9699</coverage>
  </station>
  <station>
    <id>GHCND:USR0000HPTA</id>
    <displayName>PTA EAST HAWAII, HI US</displayName>
    <minDate>1999-07-17</minDate>
    <maxDate>2005-07-22</maxDate>
    <latitude>19.6828</latitude>
    <longitude>-155.5453</longitude>
    <elevation>1959.9</elevation>
    <locationLabels>
      <type>CNTRY</type>
      <id>FIPS:US</id>
      <displayName>United States</displayName>
    </locationLabels>
    <coverage>0.8203</coverage>
  </station>
  <station>
    <id>GHCND:USR0000HPTK</id>
    <displayName>PTA KIPUKA ALALA HAWAII, HI US</displayName>
    <minDate>1999-08-04</minDate>
    <maxDate>2012-08-30</maxDate>
    <latitude>19.6669</latitude>
    <longitude>-155.7078</longitude>
    <elevation>1641.3</elevation>
    <locationLabels>
      <type>CNTRY</type>
      <id>FIPS:US</id>
      <displayName>United States</displayName>
    </locationLabels>
    <coverage>0.95</coverage>
  </station>
  <station>
    <id>GHCND:USR0000HPTP</id>
    <displayName>PTA PORTABLE HAWAII, HI US</displayName>
    <minDate>2000-05-19</minDate>
    <maxDate>2012-08-30</maxDate>
    <latitude>19.7456</latitude>
    <longitude>-155.6272</longitude>
    <elevation>1755.6</elevation>
    <locationLabels>
      <type>CNTRY</type>
      <id>FIPS:US</id>
      <displayName>United States</displayName>
    </locationLabels>
    <coverage>0.8478</coverage>
  </station>
  <station>
    <id>GHCND:USR0000HPTW</id>
    <displayName>PTA WEST HAWAII, HI US</displayName>
    <minDate>1999-08-04</minDate>
    <maxDate>2012-08-28</maxDate>
    <latitude>19.7717</latitude>
    <longitude>-155.7022</longitude>
    <elevation>1307.6</elevation>
    <locationLabels>
      <type>CNTRY</type>
      <id>FIPS:US</id>
      <displayName>United States</displayName>
    </locationLabels>
    <coverage>0.9478</coverage>
  </station>
  <station>
    <id>GHCND:USC00518181</id>
    <displayName>PUAKEA RANCH, HI US</displayName>
    <minDate>1905-01-01</minDate>
    <maxDate>1933-12-28</maxDate>
    <latitude>20.23333</latitude>
    <longitude>-155.86667</longitude>
    <elevation>182.9</elevation>
    <locationLabels>
      <type>CNTRY</type>
      <id>FIPS:US</id>
      <displayName>United States</displayName>
    </locationLabels>
    <coverage>0.9724</coverage>
  </station>
  <station>
    <id>GHCND:US1COPU0060</id>
    <displayName>PUEBLO 1.1 ENE, CO US</displayName>
    <minDate>2008-06-12</minDate>
    <maxDate>2013-01-15</maxDate>
    <latitude>38.27</latitude>
    <longitude>-104.61</longitude>
    <elevation>1421.9</elevation>
    <locationLabels>
      <type>CNTRY</type>
      <id>FIPS:US</id>
      <displayName>United States</displayName>
    </locationLabels>
    <coverage>0.8678</coverage>
  </station>
  <station>
    <id>GHCND:US1COPU0021</id>
    <displayName>PUEBLO 1.9 E, CO US</displayName>
    <minDate>2004-04-03</minDate>
    <maxDate>2013-01-16</maxDate>
    <latitude>38.2948</latitude>
    <longitude>-104.5848</longitude>
    <elevation>1481.9</elevation>
    <locationLabels>
      <type>CNTRY</type>
      <id>FIPS:US</id>
      <displayName>United States</displayName>
    </locationLabels>
    <coverage>0.9963</coverage>
  </station>
  <station>
    <id>GHCND:US1COPU0078</id>
    <displayName>PUEBLO 13.0 SSW, CO US</displayName>
    <minDate>2011-09-17</minDate>
    <maxDate>2012-10-28</maxDate>
    <latitude>38.0814</latitude>
    <longitude>-104.7066</longitude>
    <elevation>1633.4</elevation>
    <locationLabels>
      <type>CNTRY</type>
      <id>FIPS:US</id>
      <displayName>United States</displayName>
    </locationLabels>
    <coverage>0.8235</coverage>
  </station>
  <station>
    <id>GHCND:US1COPU0014</id>
    <displayName>PUEBLO 17 W, CO US</displayName>
    <minDate>2004-03-27</minDate>
    <maxDate>2013-01-16</maxDate>
    <latitude>38.233</latitude>
    <longitude>-104.919</longitude>
    <elevation>1634</elevation>
    <locationLabels>
      <type>CNTRY</type>
      <id>FIPS:US</id>
      <displayName>United States</displayName>
    </locationLabels>
    <coverage>0.8661</coverage>
  </station>
  <station>
    <id>GHCND:US1COEP0010</id>
    <displayName>PUEBLO 18.7 N, CO US</displayName>
    <minDate>2003-11-05</minDate>
    <maxDate>2012-12-09</maxDate>
    <latitude>38.5238</latitude>
    <longitude>-104.6478</longitude>
    <elevation>1628.9</elevation>
    <locationLabels>
      <type>CNTRY</type>
      <id>FIPS:US</id>
      <displayName>United States</displayName>
    </locationLabels>
    <coverage>0.5576</coverage>
  </station>
  <station>
    <id>GHCND:US1COPU0054</id>
    <displayName>PUEBLO 2.3 SSE, CO US</displayName>
    <minDate>2007-08-16</minDate>
    <maxDate>2012-10-06</maxDate>
    <latitude>38.2656</latitude>
    <longitude>-104.6067</longitude>
    <elevation>1427.1</elevation>
    <locationLabels>
      <type>CNTRY</type>
      <id>FIPS:US</id>
      <displayName>United States</displayName>
    </locationLabels>
    <coverage>0.4353</coverage>
  </station>
  <station>
    <id>GHCND:US1COPU0056</id>
    <displayName>PUEBLO 2.4 ESE, CO US</displayName>
    <minDate>2008-01-13</minDate>
    <maxDate>2008-12-15</maxDate>
    <latitude>38.2866</latitude>
    <longitude>-104.5773</longitude>
    <elevation>1453</elevation>
    <locationLabels>
      <type>CNTRY</type>
      <id>FIPS:US</id>
      <displayName>United States</displayName>
    </locationLabels>
    <coverage>0.8314</coverage>
  </station>
  <station>
    <id>GHCND:US1COPU0031</id>
    <displayName>PUEBLO 2.5 N, CO US</displayName>
    <minDate>2004-06-26</minDate>
    <maxDate>2012-10-26</maxDate>
    <latitude>38.2906</latitude>
    <longitude>-104.5998</longitude>
    <elevation>1449.9</elevation>
    <locationLabels>
      <type>CNTRY</type>
      <id>FIPS:US</id>
      <displayName>United States</displayName>
    </locationLabels>
    <coverage>0.1432</coverage>
  </station>
  <station>
    <id>GHCND:US1COPU0051</id>
    <displayName>PUEBLO 2.5 NNE, CO US</displayName>
    <minDate>2007-04-16</minDate>
    <maxDate>2012-04-18</maxDate>
    <latitude>38.1956</latitude>
    <longitude>-104.3614</longitude>
    <elevation>1463.3</elevation>
    <locationLabels>
      <type>CNTRY</type>
      <id>FIPS:US</id>
      <displayName>United States</displayName>
    </locationLabels>
    <coverage>0.8831</coverage>
  </station>
  <station>
    <id>GHCND:US1COPU0020</id>
    <displayName>PUEBLO 2.5 WSW, CO US</displayName>
    <minDate>2004-04-03</minDate>
    <maxDate>2005-12-01</maxDate>
    <latitude>38.2417</latitude>
    <longitude>-104.6525</longitude>
    <elevation>1481</elevation>
    <locationLabels>
      <type>CNTRY</type>
      <id>FIPS:US</id>
      <displayName>United States</displayName>
    </locationLabels>
    <coverage>0.8355</coverage>
  </station>
  <station>
    <id>GHCND:US1COPU0016</id>
    <displayName>PUEBLO 2.6 WSW, CO US</displayName>
    <minDate>2004-03-27</minDate>
    <maxDate>2009-04-18</maxDate>
    <latitude>38.2426</latitude>
    <longitude>-104.656</longitude>
    <elevation>1480.1</elevation>
    <locationLabels>
      <type>CNTRY</type>
      <id>FIPS:US</id>
      <displayName>United States</displayName>
    </locationLabels>
    <coverage>0.9405</coverage>
  </station>
  <station>
    <id>GHCND:US1COPU0013</id>
    <displayName>PUEBLO 2.7 NE, CO US</displayName>
    <minDate>2004-03-12</minDate>
    <maxDate>2007-12-30</maxDate>
    <latitude>38.2863</latitude>
    <longitude>-104.5789</longitude>
    <elevation>1456.9</elevation>
    <locationLabels>
      <type>CNTRY</type>
      <id>FIPS:US</id>
      <displayName>United States</displayName>
    </locationLabels>
    <coverage>0.9554</coverage>
  </station>
  <station>
    <id>GHCND:US1COPU0005</id>
    <displayName>PUEBLO 3.0 SW, CO US</displayName>
    <minDate>2003-11-03</minDate>
    <maxDate>2006-03-29</maxDate>
    <latitude>38.2201</latitude>
    <longitude>-104.6435</longitude>
    <elevation>1483.2</elevation>
    <locationLabels>
      <type>CNTRY</type>
      <id>FIPS:US</id>
      <displayName>United States</displayName>
    </locationLabels>
    <coverage>0.9499</coverage>
  </station>
  <station>
    <id>GHCND:US1COPU0017</id>
    <displayName>PUEBLO 3.1 N, CO US</displayName>
    <minDate>2004-04-03</minDate>
    <maxDate>2005-10-04</maxDate>
    <latitude>38.299</latitude>
    <longitude>-104.6018</longitude>
    <elevation>1452.1</elevation>
    <locationLabels>
      <type>CNTRY</type>
      <id>FIPS:US</id>
      <displayName>United States</displayName>
    </locationLabels>
    <coverage>0.7836</coverage>
  </station>
  <station>
    <id>GHCND:US1COPU0028</id>
    <displayName>PUEBLO 3.1 WSW, CO US</displayName>
    <minDate>2004-04-03</minDate>
    <maxDate>2013-01-14</maxDate>
    <latitude>38.2357</latitude>
    <longitude>-104.6621</longitude>
    <elevation>1488</elevation>
    <locationLabels>
      <type>CNTRY</type>
      <id>FIPS:US</id>
      <displayName>United States</displayName>
    </locationLabels>
    <coverage>0.718</coverage>
  </station>
  <station>
    <id>GHCND:US1COPU0029</id>
    <displayName>PUEBLO 3.5 NNE, CO US</displayName>
    <minDate>2004-04-06</minDate>
    <maxDate>2005-01-28</maxDate>
    <latitude>38.3025</latitude>
    <longitude>-104.5855</longitude>
    <elevation>1491.1</elevation>
    <locationLabels>
      <type>CNTRY</type>
      <id>FIPS:US</id>
      <displayName>United States</displayName>
    </locationLabels>
    <coverage>0.4463</coverage>
  </station>
  <station>
    <id>GHCND:US1COPU0047</id>
    <displayName>PUEBLO 4.1 SSW, CO US</displayName>
    <minDate>2006-07-08</minDate>
    <maxDate>2012-09-30</maxDate>
    <latitude>38.2399</latitude>
    <longitude>-104.6347</longitude>
    <elevation>1463</elevation>
    <locationLabels>
      <type>CNTRY</type>
      <id>FIPS:US</id>
      <displayName>United States</displayName>
    </locationLabels>
    <coverage>0.8322</coverage>
  </station>
  <station>
    <id>GHCND:US1COPU0015</id>
    <displayName>PUEBLO 4.3 N, CO US</displayName>
    <minDate>2004-03-29</minDate>
    <maxDate>2013-01-16</maxDate>
    <latitude>38.3162</latitude>
    <longitude>-104.5963</longitude>
    <elevation>1460</elevation>
    <locationLabels>
      <type>CNTRY</type>
      <id>FIPS:US</id>
      <displayName>United States</displayName>
    </locationLabels>
    <coverage>0.9845</coverage>
  </station>
  <station>
    <id>GHCND:US1COPU0071</id>
    <displayName>PUEBLO 4.8 SSW, CO US</displayName>
    <minDate>2010-07-12</minDate>
    <maxDate>2010-12-15</maxDate>
    <latitude>38.2305</latitude>
    <longitude>-104.6436</longitude>
    <elevation>1473.1</elevation>
    <locationLabels>
      <type>CNTRY</type>
      <id>FIPS:US</id>
      <displayName>United States</displayName>
    </locationLabels>
    <coverage>0.9427</coverage>
  </station>
  <station>
    <id>GHCND:USC00056767</id>
    <displayName>PUEBLO 6 SSW, CO US</displayName>
    <minDate>1971-07-01</minDate>
    <maxDate>1985-05-31</maxDate>
    <latitude>38.18333</latitude>
    <longitude>-104.65</longitude>
    <elevation>1498.1</elevation>
    <locationLabels>
      <type>CNTRY</type>
      <id>FIPS:US</id>
      <displayName>United States</displayName>
    </locationLabels>
    <coverage>0.9797</coverage>
  </station>
  <station>
    <id>GHCND:US1COPU0037</id>
    <displayName>PUEBLO AIRPORT, CO US</displayName>
    <minDate>2003-10-05</minDate>
    <maxDate>2006-03-31</maxDate>
    <latitude>38.2833</latitude>
    <longitude>-104.4999</longitude>
    <elevation>1417</elevation>
    <locationLabels>
      <type>CNTRY</type>
      <id>FIPS:US</id>
      <displayName>United States</displayName>
    </locationLabels>
    <coverage>0.4972</coverage>
  </station>
  <station>
    <id>GHCND:USC00056763</id>
    <displayName>PUEBLO ARMY DEPOT, CO US</displayName>
    <minDate>1957-01-01</minDate>
    <maxDate>1977-10-31</maxDate>
    <latitude>38.31667</latitude>
    <longitude>-104.35</longitude>
    <elevation>1427.1</elevation>
    <locationLabels>
      <type>CNTRY</type>
      <id>FIPS:US</id>
      <displayName>United States</displayName>
    </locationLabels>
    <coverage>0.9334</coverage>
  </station>
  <station>
    <id>GHCND:USC00056743</id>
    <displayName>PUEBLO CITY RESERVOIR, CO US</displayName>
    <minDate>1905-05-01</minDate>
    <maxDate>1971-03-31</maxDate>
    <latitude>38.28333</latitude>
    <longitude>-104.65</longitude>
    <elevation>1430.1</elevation>
    <locationLabels>
      <type>CNTRY</type>
      <id>FIPS:US</id>
      <displayName>United States</displayName>
    </locationLabels>
    <coverage>0.8528</coverage>
  </station>
  <station>
    <id>GHCND:USC00056748</id>
    <displayName>PUEBLO FIRE STATION NUMBER 2, CO US</displayName>
    <minDate>1945-05-01</minDate>
    <maxDate>1954-07-03</maxDate>
    <latitude>38.26667</latitude>
    <longitude>-104.6</longitude>
    <elevation>1434.1</elevation>
    <locationLabels>
      <type>CNTRY</type>
      <id>FIPS:US</id>
      <displayName>United States</displayName>
    </locationLabels>
    <coverage>0.9899</coverage>
  </station>
  <station>
    <id>GHCND:USC00056753</id>
    <displayName>PUEBLO FIRE STATION NUMBER 5, CO US</displayName>
    <minDate>1948-08-01</minDate>
    <maxDate>1950-02-17</maxDate>
    <latitude>38.28333</latitude>
    <longitude>-104.61667</longitude>
    <elevation>1464</elevation>
    <locationLabels>
      <type>CNTRY</type>
      <id>FIPS:US</id>
      <displayName>United States</displayName>
    </locationLabels>
    <coverage>1</coverage>
  </station>
  <station>
    <id>GHCND:USW00093058</id>
    <displayName>PUEBLO MEMORIAL AIRPORT, CO US</displayName>
    <minDate>1954-06-16</minDate>
    <maxDate>2013-01-15</maxDate>
    <latitude>38.2901</latitude>
    <longitude>-104.4983</longitude>
    <elevation>1438.7</elevation>
    <locationLabels>
      <type>CNTRY</type>
      <id>FIPS:US</id>
      <displayName>United States</displayName>
    </locationLabels>
    <coverage>0.9998</coverage>
  </station>
  <station>
    <id>GHCND:USC00056765</id>
    <displayName>PUEBLO RESERVOIR, CO US</displayName>
    <minDate>1975-07-01</minDate>
    <maxDate>2013-01-16</maxDate>
    <latitude>38.2597</latitude>
    <longitude>-104.717</longitude>
    <elevation>1479.8</elevation>
    <locationLabels>
      <type>CNTRY</type>
      <id>FIPS:US</id>
      <displayName>United States</displayName>
    </locationLabels>
    <coverage>0.9856</coverage>
  </station>
  <station>
    <id>GHCND:USW00023068</id>
    <displayName>PUEBLO WEATHER BUREAU AIRPORT, CO US</displayName>
    <minDate>1872-09-01</minDate>
    <maxDate>1954-06-30</maxDate>
    <latitude>38.23333</latitude>
    <longitude>-104.63333</longitude>
    <elevation>1464.9</elevation>
    <locationLabels>
      <type>CNTRY</type>
      <id>FIPS:US</id>
      <displayName>United States</displayName>
    </locationLabels>
    <coverage>0.2223</coverage>
  </station>
  <station>
    <id>GHCND:US1COPU0074</id>
    <displayName>PUEBLO WEST 1.7 S, CO US</displayName>
    <minDate>2010-07-31</minDate>
    <maxDate>2012-09-27</maxDate>
    <latitude>38.3248</latitude>
    <longitude>-104.721</longitude>
    <elevation>1535.9</elevation>
    <locationLabels>
      <type>CNTRY</type>
      <id>FIPS:US</id>
      <displayName>United States</displayName>
    </locationLabels>
    <coverage>0.5658</coverage>
  </station>
  <station>
    <id>GHCND:US1COPU0081</id>
    <displayName>PUEBLO WEST 11.0 SW, CO US</displayName>
    <minDate>2012-04-27</minDate>
    <maxDate>2013-01-16</maxDate>
    <latitude>38.2469</latitude>
    <longitude>-104.8766</longitude>
    <elevation>1620.9</elevation>
    <locationLabels>
      <type>CNTRY</type>
      <id>FIPS:US</id>
      <displayName>United States</displayName>
    </locationLabels>
    <coverage>0.7094</coverage>
  </station>
  <station>
    <id>GHCND:US1COPU0070</id>
    <displayName>PUEBLO WEST 2.1 SE, CO US</displayName>
    <minDate>2009-12-20</minDate>
    <maxDate>2012-12-07</maxDate>
    <latitude>38.3268</latitude>
    <longitude>-104.6959</longitude>
    <elevation>1523.7</elevation>
    <locationLabels>
      <type>CNTRY</type>
      <id>FIPS:US</id>
      <displayName>United States</displayName>
    </locationLabels>
    <coverage>0.703</coverage>
  </station>
  <station>
    <id>GHCND:US1COPU0041</id>
    <displayName>PUEBLO WEST 2.3 WSW, CO US</displayName>
    <minDate>2005-05-01</minDate>
    <maxDate>2013-01-16</maxDate>
    <latitude>38.3357</latitude>
    <longitude>-104.7593</longitude>
    <elevation>1553</elevation>
    <locationLabels>
      <type>CNTRY</type>
      <id>FIPS:US</id>
      <displayName>United States</displayName>
    </locationLabels>
    <coverage>0.9436</coverage>
  </station>
  <station>
    <id>GHCND:US1COPU0069</id>
    <displayName>PUEBLO WEST 2.5 S, CO US</displayName>
    <minDate>2009-12-20</minDate>
    <maxDate>2011-01-10</maxDate>
    <latitude>38.3131</latitude>
    <longitude>-104.723</longitude>
    <elevation>1555.7</elevation>
    <locationLabels>
      <type>CNTRY</type>
      <id>FIPS:US</id>
      <displayName>United States</displayName>
    </locationLabels>
    <coverage>0.8656</coverage>
  </station>
  <station>
    <id>GHCND:US1COPU0073</id>
    <displayName>PUEBLO WEST 3.1 SW, CO US</displayName>
    <minDate>2010-07-01</minDate>
    <maxDate>2013-01-16</maxDate>
    <latitude>38.3135</latitude>
    <longitude>-104.7568</longitude>
    <elevation>1542.9</elevation>
    <locationLabels>
      <type>CNTRY</type>
      <id>FIPS:US</id>
      <displayName>United States</displayName>
    </locationLabels>
    <coverage>0.9678</coverage>
  </station>
  <station>
    <id>GHCND:US1COPU0065</id>
    <displayName>PUEBLO WEST 3.4 SSW, CO US</displayName>
    <minDate>2009-08-01</minDate>
    <maxDate>2013-01-16</maxDate>
    <latitude>38.3042</latitude>
    <longitude>-104.744</longitude>
    <elevation>1560.9</elevation>
    <locationLabels>
      <type>CNTRY</type>
      <id>FIPS:US</id>
      <displayName>United States</displayName>
    </locationLabels>
    <coverage>0.9968</coverage>
  </station>
  <station>
    <id>GHCND:US1COPU0036</id>
    <displayName>PUEBLO WEST 3.6 WSW, CO US</displayName>
    <minDate>2004-07-29</minDate>
    <maxDate>2013-01-16</maxDate>
    <latitude>38.32</latitude>
    <longitude>-104.8148</longitude>
    <elevation>1524</elevation>
    <locationLabels>
      <type>CNTRY</type>
      <id>FIPS:US</id>
      <displayName>United States</displayName>
    </locationLabels>
    <coverage>0.6622</coverage>
  </station>
  <station>
    <id>GHCND:US1COPU0067</id>
    <displayName>PUEBLO WEST 3.8 SSW, CO US</displayName>
    <minDate>2009-10-22</minDate>
    <maxDate>2013-01-16</maxDate>
    <latitude>38.2991</latitude>
    <longitude>-104.7471</longitude>
    <elevation>1545</elevation>
    <locationLabels>
      <type>CNTRY</type>
      <id>FIPS:US</id>
      <displayName>United States</displayName>
    </locationLabels>
    <coverage>0.967</coverage>
  </station>
  <station>
    <id>GHCND:US1COPU0018</id>
    <displayName>PUEBLO WEST 4.3 W, CO US</displayName>
    <minDate>2004-05-07</minDate>
    <maxDate>2013-01-16</maxDate>
    <latitude>38.3327</latitude>
    <longitude>-104.83</longitude>
    <elevation>1544.1</elevation>
    <locationLabels>
      <type>CNTRY</type>
      <id>FIPS:US</id>
      <displayName>United States</displayName>
    </locationLabels>
    <coverage>0.7258</coverage>
  </station>
  <station>
    <id>GHCND:US1COPU0040</id>
    <displayName>PUEBLO WEST 4.7 SW, CO US</displayName>
    <minDate>2005-04-24</minDate>
    <maxDate>2006-10-04</maxDate>
    <latitude>38.296</latitude>
    <longitude>-104.7761</longitude>
    <elevation>1516.1</elevation>
    <locationLabels>
      <type>CNTRY</type>
      <id>FIPS:US</id>
      <displayName>United States</displayName>
    </locationLabels>
    <coverage>0.8771</coverage>
  </station>
  <station>
    <id>GHCND:US1COPU0080</id>
    <displayName>PUEBLO WEST 4.9 SW, CO US</displayName>
    <minDate>2012-04-25</minDate>
    <maxDate>2013-01-15</maxDate>
    <latitude>38.3029</latitude>
    <longitude>-104.791</longitude>
    <elevation>1516.7</elevation>
    <locationLabels>
      <type>CNTRY</type>
      <id>FIPS:US</id>
      <displayName>United States</displayName>
    </locationLabels>
    <coverage>0.9511</coverage>
  </station>
  <station>
    <id>GHCND:US1COPU0075</id>
    <displayName>PUEBLO WEST 4.9 WSW, CO US</displayName>
    <minDate>2010-11-15</minDate>
    <maxDate>2012-09-30</maxDate>
    <latitude>38.3197</latitude>
    <longitude>-104.8041</longitude>
    <elevation>1529.5</elevation>
    <locationLabels>
      <type>CNTRY</type>
      <id>FIPS:US</id>
      <displayName>United States</displayName>
    </locationLabels>
    <coverage>0.5466</coverage>
  </station>
  <station>
    <id>GHCND:US1COPU0058</id>
    <displayName>PUEBLO WEST 5.8 WSW, CO US</displayName>
    <minDate>2008-04-17</minDate>
    <maxDate>2013-01-15</maxDate>
    <latitude>38.3307</latitude>
    <longitude>-104.826</longitude>
    <elevation>1530.7</elevation>
    <locationLabels>
      <type>CNTRY</type>
      <id>FIPS:US</id>
      <displayName>United States</displayName>
    </locationLabels>
    <coverage>0.9504</coverage>
  </station>
  <station>
    <id>GHCND:US1COPU0055</id>
    <displayName>PUEBLO WEST 6.0 W, CO US</displayName>
    <minDate>2007-11-27</minDate>
    <maxDate>2013-01-16</maxDate>
    <latitude>38.3344</latitude>
    <longitude>-104.8305</longitude>
    <elevation>1547.2</elevation>
    <locationLabels>
      <type>CNTRY</type>
      <id>FIPS:US</id>
      <displayName>United States</displayName>
    </locationLabels>
    <coverage>0.8296</coverage>
  </station>
  <station>
    <id>GHCND:USC00518205</id>
    <displayName>PUEHU RIDGE 1040, HI US</displayName>
    <minDate>1939-08-01</minDate>
    <maxDate>2000-10-31</maxDate>
    <latitude>22.03222</latitude>
    <longitude>-159.69278</longitude>
    <elevation>487.7</elevation>
    <locationLabels>
      <type>CNTRY</type>
      <id>FIPS:US</id>
      <displayName>United States</displayName>
    </locationLabels>
    <coverage>0.9456</coverage>
  </station>
  <station>
    <id>GHCND:USC00297097</id>
    <displayName>PUERTO DE LUNA, NM US</displayName>
    <minDate>1895-04-01</minDate>
    <maxDate>1899-06-30</maxDate>
    <latitude>34.83333</latitude>
    <longitude>-104.61667</longitude>
    <elevation>1371.6</elevation>
    <locationLabels>
      <type>CNTRY</type>
      <id>FIPS:US</id>
      <displayName>United States</displayName>
    </locationLabels>
    <coverage>0.9543</coverage>
  </station>
  <station>
    <id>GHCND:RQC00667492</id>
    <displayName>PUERTO REAL, PR US</displayName>
    <minDate>1955-01-01</minDate>
    <maxDate>2001-08-31</maxDate>
    <latitude>18.07889</latitude>
    <longitude>-67.17694</longitude>
    <elevation>10.1</elevation>
    <locationLabels>
      <type>CNTRY</type>
      <id>FIPS:US</id>
      <displayName>United States</displayName>
    </locationLabels>
    <coverage>0.9265</coverage>
  </station>
  <station>
    <id>GHCND:USC00518217</id>
    <displayName>PUHI 1013, HI US</displayName>
    <minDate>1935-05-01</minDate>
    <maxDate>2013-01-15</maxDate>
    <latitude>21.96556</latitude>
    <longitude>-159.39639</longitude>
    <elevation>100.3</elevation>
    <locationLabels>
      <type>CNTRY</type>
      <id>FIPS:US</id>
      <displayName>United States</displayName>
    </locationLabels>
    <coverage>0.8401</coverage>
  </station>
  <station>
    <id>GHCND:USC00396832</id>
    <displayName>PUKWANA 3 W, SD US</displayName>
    <minDate>1919-07-01</minDate>
    <maxDate>1964-09-30</maxDate>
    <latitude>43.78333</latitude>
    <longitude>-99.23333</longitude>
    <elevation>484.9</elevation>
    <locationLabels>
      <type>CNTRY</type>
      <id>FIPS:US</id>
      <displayName>United States</displayName>
    </locationLabels>
    <coverage>0.8833</coverage>
  </station>
  <station>
    <id>GHCND:US1NYOS0021</id>
    <displayName>PULASKI 0.5 NE, NY US</displayName>
    <minDate>2010-04-15</minDate>
    <maxDate>2012-09-05</maxDate>
    <latitude>43.57</latitude>
    <longitude>-76.1195</longitude>
    <elevation>87.5</elevation>
    <locationLabels>
      <type>CNTRY</type>
      <id>FIPS:US</id>
      <displayName>United States</displayName>
    </locationLabels>
    <coverage>0.1406</coverage>
  </station>
  <station>
    <id>GHCND:USC00306867</id>
    <displayName>PULASKI 1 N, NY US</displayName>
    <minDate>1948-05-02</minDate>
    <maxDate>1990-03-31</maxDate>
    <latitude>43.58333</latitude>
    <longitude>-76.11667</longitude>
    <elevation>121.9</elevation>
    <locationLabels>
      <type>CNTRY</type>
      <id>FIPS:US</id>
      <displayName>United States</displayName>
    </locationLabels>
    <coverage>0.6132</coverage>
  </station>
  <station>
    <id>GHCND:US1TNGL0005</id>
    <displayName>PULASKI 1.3 ENE, TN US</displayName>
    <minDate>2007-10-19</minDate>
    <maxDate>2013-01-14</maxDate>
    <latitude>35.2005</latitude>
    <longitude>-87.0116</longitude>
    <elevation>249</elevation>
    <locationLabels>
      <type>CNTRY</type>
      <id>FIPS:US</id>
      <displayName>United States</displayName>
    </locationLabels>
    <coverage>0.3368</coverage>
  </station>
  <station>
    <id>GHCND:US1TNGL0006</id>
    <displayName>PULASKI 4.9 ENE, TN US</displayName>
    <minDate>2007-11-26</minDate>
    <maxDate>2012-08-05</maxDate>
    <latitude>35.2127</latitude>
    <longitude>-86.9504</longitude>
    <elevation>263</elevation>
    <locationLabels>
      <type>CNTRY</type>
      <id>FIPS:US</id>
      <displayName>United States</displayName>
    </locationLabels>
    <coverage>0.6781</coverage>
  </station>
  <station>
    <id>GHCND:US1TNGL0003</id>
    <displayName>PULASKI 5.4 SW, TN US</displayName>
    <minDate>2007-07-24</minDate>
    <maxDate>2013-01-16</maxDate>
    <latitude>35.2319</latitude>
    <longitude>-87.1647</longitude>
    <elevation>221</elevation>
    <locationLabels>
      <type>CNTRY</type>
      <id>FIPS:US</id>
      <displayName>United States</displayName>
    </locationLabels>
    <coverage>0.8862</coverage>
  </station>
  <station>
    <id>GHCND:US1TNGL0013</id>
    <displayName>PULASKI 7.5 WSW, TN US</displayName>
    <minDate>2012-06-29</minDate>
    <maxDate>2013-01-16</maxDate>
    <latitude>35.1403</latitude>
    <longitude>-87.149</longitude>
    <elevation>301.1</elevation>
    <locationLabels>
      <type>CNTRY</type>
      <id>FIPS:US</id>
      <displayName>United States</displayName>
    </locationLabels>
    <coverage>0.9752</coverage>
  </station>
  <station>
    <id>GHCND:US1TNGL0011</id>
    <displayName>PULASKI 7.9 ENE, TN US</displayName>
    <minDate>2009-04-03</minDate>
    <maxDate>2013-01-16</maxDate>
    <latitude>35.2539</latitude>
    <longitude>-86.9133</longitude>
    <elevation>299</elevation>
    <locationLabels>
      <type>CNTRY</type>
      <id>FIPS:US</id>
      <displayName>United States</displayName>
    </locationLabels>
    <coverage>0.6527</coverage>
  </station>
  <station>
    <id>GHCND:USC00407459</id>
    <displayName>PULASKI WATER PLANT, TN US</displayName>
    <minDate>1957-06-06</minDate>
    <maxDate>2013-01-16</maxDate>
    <latitude>35.18417</latitude>
    <longitude>-87.04222</longitude>
    <elevation>196.3</elevation>
    <locationLabels>
      <type>CNTRY</type>
      <id>FIPS:US</id>
      <displayName>United States</displayName>
    </locationLabels>
    <coverage>0.9837</coverage>
  </station>
  <station>
    <id>GHCND:USC00476874</id>
    <displayName>PULASKI WWTP, WI US</displayName>
    <minDate>2006-06-01</minDate>
    <maxDate>2013-01-16</maxDate>
    <latitude>44.6774</latitude>
    <longitude>-88.2275</longitude>
    <elevation>240.5</elevation>
    <locationLabels>
      <type>CNTRY</type>
      <id>FIPS:US</id>
      <displayName>United States</displayName>
    </locationLabels>
    <coverage>0.9979</coverage>
  </station>
  <station>
    <id>GHCND:USC00407454</id>
    <displayName>PULASKI, TN US</displayName>
    <minDate>1949-01-01</minDate>
    <maxDate>1962-03-31</maxDate>
    <latitude>35.2</latitude>
    <longitude>-87.01667</longitude>
    <elevation>232</elevation>
    <locationLabels>
      <type>CNTRY</type>
      <id>FIPS:US</id>
      <displayName>United States</displayName>
    </locationLabels>
    <coverage>0.9928</coverage>
  </station>
  <station>
    <id>GHCND:USW00013868</id>
    <displayName>PULASKI, VA US</displayName>
    <minDate>1948-08-01</minDate>
    <maxDate>1959-08-23</maxDate>
    <latitude>37.13333</latitude>
    <longitude>-80.68333</longitude>
    <elevation>641.6</elevation>
    <locationLabels>
      <type>CNTRY</type>
      <id>FIPS:US</id>
      <displayName>United States</displayName>
    </locationLabels>
    <coverage>1</coverage>
  </station>
  <station>
    <id>GHCND:USC00446955</id>
    <displayName>PULASKI, VA US</displayName>
    <minDate>1920-05-01</minDate>
    <maxDate>2013-01-16</maxDate>
    <latitude>37.0556</latitude>
    <longitude>-80.7842</longitude>
    <elevation>563.9</elevation>
    <locationLabels>
      <type>CNTRY</type>
      <id>FIPS:US</id>
      <displayName>United States</displayName>
    </locationLabels>
    <coverage>0.7882</coverage>
  </station>
  <station>
    <id>GHCND:USC00518275</id>
    <displayName>PULEHU 315, HI US</displayName>
    <minDate>1949-10-04</minDate>
    <maxDate>1963-04-30</maxDate>
    <latitude>20.83333</latitude>
    <longitude>-156.41667</longitude>
    <elevation>136.9</elevation>
    <locationLabels>
      <type>CNTRY</type>
      <id>FIPS:US</id>
      <displayName>United States</displayName>
    </locationLabels>
    <coverage>0.9921</coverage>
  </station>
  <station>
    <id>GHCND:USR0000CPUL</id>
    <displayName>PULGAS CALIFORNIA, CA US</displayName>
    <minDate>1997-05-29</minDate>
    <maxDate>2012-08-31</maxDate>
    <latitude>37.475</latitude>
    <longitude>-122.2981</longitude>
    <elevation>196.3</elevation>
    <locationLabels>
      <type>CNTRY</type>
      <id>FIPS:US</id>
      <displayName>United States</displayName>
    </locationLabels>
    <coverage>0.8719</coverage>
  </station>
  <station>
    <id>GHCND:US1WAWM0004</id>
    <displayName>PULLMAN 0.9 WSW, WA US</displayName>
    <minDate>2008-11-09</minDate>
    <maxDate>2011-03-29</maxDate>
    <latitude>46.7276</latitude>
    <longitude>-117.1798</longitude>
    <elevation>737</elevation>
    <locationLabels>
      <type>CNTRY</type>
      <id>FIPS:US</id>
      <displayName>United States</displayName>
    </locationLabels>
    <coverage>0.9506</coverage>
  </station>
  <station>
    <id>GHCND:US1WAWM0007</id>
    <displayName>PULLMAN 1.5 NW, WA US</displayName>
    <minDate>2011-03-04</minDate>
    <maxDate>2013-01-06</maxDate>
    <latitude>46.7497</latitude>
    <longitude>-117.183</longitude>
    <elevation>788.2</elevation>
    <locationLabels>
      <type>CNTRY</type>
      <id>FIPS:US</id>
      <displayName>United States</displayName>
    </locationLabels>
    <coverage>0.717</coverage>
  </station>
  <station>
    <id>GHCND:USC00456789</id>
    <displayName>PULLMAN 2 NW, WA US</displayName>
    <minDate>1940-10-21</minDate>
    <maxDate>2013-01-16</maxDate>
    <latitude>46.7602</latitude>
    <longitude>-117.1861</longitude>
    <elevation>766.6</elevation>
    <locationLabels>
      <type>CNTRY</type>
      <id>FIPS:US</id>
      <displayName>United States</displayName>
    </locationLabels>
    <coverage>0.9901</coverage>
  </station>
  <station>
    <id>GHCND:USC00456784</id>
    <displayName>PULLMAN EXPERIMENTAL STATION, WA US</displayName>
    <minDate>1893-01-01</minDate>
    <maxDate>1954-02-28</maxDate>
    <latitude>46.73333</latitude>
    <longitude>-117.16667</longitude>
    <elevation>787</elevation>
    <locationLabels>
      <type>CNTRY</type>
      <id>FIPS:US</id>
      <displayName>United States</displayName>
    </locationLabels>
    <coverage>0.9563</coverage>
  </station>
  <station>
    <id>GHCND:USW00094129</id>
    <displayName>PULLMAN MOSCOW REGIONAL AIRPORT, WA US</displayName>
    <minDate>1998-06-07</minDate>
    <maxDate>2013-01-14</maxDate>
    <latitude>46.74389</latitude>
    <longitude>-117.10861</longitude>
    <elevation>777.5</elevation>
    <locationLabels>
      <type>CNTRY</type>
      <id>FIPS:US</id>
      <displayName>United States</displayName>
    </locationLabels>
    <coverage>0.9921</coverage>
  </station>
  <station>
    <id>GHCND:USC00336872</id>
    <displayName>PULSE, OH US</displayName>
    <minDate>1899-01-01</minDate>
    <maxDate>1907-11-30</maxDate>
    <latitude>39.233333</latitude>
    <longitude>-83.85</longitude>
    <elevation>304.8</elevation>
    <locationLabels>
      <type>CNTRY</type>
      <id>FIPS:US</id>
      <displayName>United States</displayName>
    </locationLabels>
    <coverage>0.9456</coverage>
  </station>
  <station>
    <id>GHCND:USC00367214</id>
    <displayName>PUMP STATION TOWER, PA US</displayName>
    <minDate>1940-10-23</minDate>
    <maxDate>1942-12-31</maxDate>
    <latitude>41.458667</latitude>
    <longitude>-77.5705</longitude>
    <elevation>641</elevation>
    <locationLabels>
      <type>CNTRY</type>
      <id>FIPS:US</id>
      <displayName>United States</displayName>
    </locationLabels>
    <coverage>0.9825</coverage>
  </station>
  <station>
    <id>GHCND:USC00518315</id>
    <displayName>PUNA MACADAMIA 91.11, HI US</displayName>
    <minDate>1992-01-01</minDate>
    <maxDate>2013-01-15</maxDate>
    <latitude>19.6158</latitude>
    <longitude>-155.0838</longitude>
    <elevation>243.8</elevation>
    <locationLabels>
      <type>CNTRY</type>
      <id>FIPS:US</id>
      <displayName>United States</displayName>
    </locationLabels>
    <coverage>0.9029</coverage>
  </station>
  <station>
    <id>GHCND:USC00518310</id>
    <displayName>PUNALUU PUMP 905.2, HI US</displayName>
    <minDate>1913-01-01</minDate>
    <maxDate>2013-01-15</maxDate>
    <latitude>21.58444</latitude>
    <longitude>-157.89139</longitude>
    <elevation>4</elevation>
    <locationLabels>
      <type>CNTRY</type>
      <id>FIPS:US</id>
      <displayName>United States</displayName>
    </locationLabels>
    <coverage>0.437</coverage>
  </station>
  <station>
    <id>GHCND:USC00518316</id>
    <displayName>PUNCHBOWL CRATER 709, HI US</displayName>
    <minDate>1950-02-01</minDate>
    <maxDate>2013-01-15</maxDate>
    <latitude>21.3103</latitude>
    <longitude>-157.8458</longitude>
    <elevation>103</elevation>
    <locationLabels>
      <type>CNTRY</type>
      <id>FIPS:US</id>
      <displayName>United States</displayName>
    </locationLabels>
    <coverage>0.9666</coverage>
  </station>
  <station>
    <id>GHCND:US1COEL0062</id>
    <displayName>PUNKIN CENTER 7.2 NNW, CO US</displayName>
    <minDate>2010-08-17</minDate>
    <maxDate>2013-01-16</maxDate>
    <latitude>38.9469</latitude>
    <longitude>-103.758</longitude>
    <elevation>1665.7</elevation>
    <locationLabels>
      <type>CNTRY</type>
      <id>FIPS:US</id>
      <displayName>United States</displayName>
    </locationLabels>
    <coverage>0.8122</coverage>
  </station>
</stationCollection>
