<?xml version="1.0" encoding="UTF-8" standalone="yes"?>
<stationCollection totalCount="46020" pageCount="461" pageSize="100" page="274">
  <station>
    <id>GHCND:USC00365731</id>
    <displayName>MILAN 1 N, PA US</displayName>
    <minDate>1948-05-01</minDate>
    <maxDate>1951-09-30</maxDate>
    <latitude>41.928</latitude>
    <longitude>-76.5475</longitude>
    <elevation>259.1</elevation>
    <locationLabels>
      <type>CNTRY</type>
      <id>FIPS:US</id>
      <displayName>United States</displayName>
    </locationLabels>
    <coverage>0.9455</coverage>
  </station>
  <station>
    <id>GHCND:USC00215400</id>
    <displayName>MILAN 1 NW, MN US</displayName>
    <minDate>1893-08-01</minDate>
    <maxDate>2013-01-15</maxDate>
    <latitude>45.1219</latitude>
    <longitude>-95.9269</longitude>
    <elevation>310.9</elevation>
    <locationLabels>
      <type>CNTRY</type>
      <id>FIPS:US</id>
      <displayName>United States</displayName>
    </locationLabels>
    <coverage>0.9958</coverage>
  </station>
  <station>
    <id>GHCND:US1TNGB0001</id>
    <displayName>MILAN 1.1 NW, TN US</displayName>
    <minDate>2011-04-24</minDate>
    <maxDate>2012-12-13</maxDate>
    <latitude>35.931</latitude>
    <longitude>-88.7674</longitude>
    <elevation>129.8</elevation>
    <locationLabels>
      <type>CNTRY</type>
      <id>FIPS:US</id>
      <displayName>United States</displayName>
    </locationLabels>
    <coverage>0.9367</coverage>
  </station>
  <station>
    <id>GHCND:US1OHER0024</id>
    <displayName>MILAN 1.2 NE, OH US</displayName>
    <minDate>2012-05-09</minDate>
    <maxDate>2012-11-02</maxDate>
    <latitude>41.2999</latitude>
    <longitude>-82.5836</longitude>
    <elevation>199.9</elevation>
    <locationLabels>
      <type>CNTRY</type>
      <id>FIPS:US</id>
      <displayName>United States</displayName>
    </locationLabels>
    <coverage>0.7865</coverage>
  </station>
  <station>
    <id>GHCND:US1MOFSA211</id>
    <displayName>MILAN 1.2 SW, MO US</displayName>
    <minDate>2006-05-01</minDate>
    <maxDate>2013-01-14</maxDate>
    <latitude>40.1893</latitude>
    <longitude>-93.1378</longitude>
    <elevation>296.9</elevation>
    <locationLabels>
      <type>CNTRY</type>
      <id>FIPS:US</id>
      <displayName>United States</displayName>
    </locationLabels>
    <coverage>0.9951</coverage>
  </station>
  <station>
    <id>GHCND:US1NMCB0001</id>
    <displayName>MILAN 2.2 N, NM US</displayName>
    <minDate>2005-04-24</minDate>
    <maxDate>2013-01-15</maxDate>
    <latitude>35.2206</latitude>
    <longitude>-107.8897</longitude>
    <elevation>1993.1</elevation>
    <locationLabels>
      <type>CNTRY</type>
      <id>FIPS:US</id>
      <displayName>United States</displayName>
    </locationLabels>
    <coverage>0.8977</coverage>
  </station>
  <station>
    <id>GHCND:US1OHER0002</id>
    <displayName>MILAN 3.2 ENE, OH US</displayName>
    <minDate>2009-02-08</minDate>
    <maxDate>2012-12-06</maxDate>
    <latitude>41.3036</latitude>
    <longitude>-82.5429</longitude>
    <elevation>209.1</elevation>
    <locationLabels>
      <type>CNTRY</type>
      <id>FIPS:US</id>
      <displayName>United States</displayName>
    </locationLabels>
    <coverage>0.5136</coverage>
  </station>
  <station>
    <id>GHCND:USC00205450</id>
    <displayName>MILAN 4 ESE, MI US</displayName>
    <minDate>1984-08-01</minDate>
    <maxDate>2006-11-30</maxDate>
    <latitude>42.06639</latitude>
    <longitude>-83.61861</longitude>
    <elevation>204.2</elevation>
    <locationLabels>
      <type>CNTRY</type>
      <id>FIPS:US</id>
      <displayName>United States</displayName>
    </locationLabels>
    <coverage>0.9692</coverage>
  </station>
  <station>
    <id>GHCND:USC00125658</id>
    <displayName>MILAN 5 NE, IN US</displayName>
    <minDate>1989-05-01</minDate>
    <maxDate>2002-08-31</maxDate>
    <latitude>39.16194</latitude>
    <longitude>-85.05167</longitude>
    <elevation>297.2</elevation>
    <locationLabels>
      <type>CNTRY</type>
      <id>FIPS:US</id>
      <displayName>United States</displayName>
    </locationLabels>
    <coverage>0.9889</coverage>
  </station>
  <station>
    <id>GHCND:US1MIWS0001</id>
    <displayName>MILAN 5.1 N, MI US</displayName>
    <minDate>2008-06-22</minDate>
    <maxDate>2012-03-25</maxDate>
    <latitude>42.1568</latitude>
    <longitude>-83.6701</longitude>
    <elevation>240.8</elevation>
    <locationLabels>
      <type>CNTRY</type>
      <id>FIPS:US</id>
      <displayName>United States</displayName>
    </locationLabels>
    <coverage>0.1442</coverage>
  </station>
  <station>
    <id>GHCND:USC00275400</id>
    <displayName>MILAN 7 NNW, NH US</displayName>
    <minDate>1926-05-02</minDate>
    <maxDate>1981-12-31</maxDate>
    <latitude>44.66667</latitude>
    <longitude>-71.21667</longitude>
    <elevation>360</elevation>
    <locationLabels>
      <type>CNTRY</type>
      <id>FIPS:US</id>
      <displayName>United States</displayName>
    </locationLabels>
    <coverage>0.971</coverage>
  </station>
  <station>
    <id>GHCND:USC00406012</id>
    <displayName>MILAN EXPERIMENTAL STATION, TN US</displayName>
    <minDate>1883-03-01</minDate>
    <maxDate>2013-01-15</maxDate>
    <latitude>35.9327</latitude>
    <longitude>-88.7268</longitude>
    <elevation>126.5</elevation>
    <locationLabels>
      <type>CNTRY</type>
      <id>FIPS:US</id>
      <displayName>United States</displayName>
    </locationLabels>
    <coverage>0.8277</coverage>
  </station>
  <station>
    <id>GHCND:USC00125656</id>
    <displayName>MILAN WATERWORKS, IN US</displayName>
    <minDate>1955-05-01</minDate>
    <maxDate>1961-11-30</maxDate>
    <latitude>39.11667</latitude>
    <longitude>-85.13333</longitude>
    <elevation>302.1</elevation>
    <locationLabels>
      <type>CNTRY</type>
      <id>FIPS:US</id>
      <displayName>United States</displayName>
    </locationLabels>
    <coverage>0.9593</coverage>
  </station>
  <station>
    <id>GHCND:USC00205451</id>
    <displayName>MILAN WWTP, MI US</displayName>
    <minDate>2003-12-01</minDate>
    <maxDate>2013-01-16</maxDate>
    <latitude>42.0811</latitude>
    <longitude>-83.6769</longitude>
    <elevation>207.3</elevation>
    <locationLabels>
      <type>CNTRY</type>
      <id>FIPS:US</id>
      <displayName>United States</displayName>
    </locationLabels>
    <coverage>0.9865</coverage>
  </station>
  <station>
    <id>GHCND:USC00235578</id>
    <displayName>MILAN, MO US</displayName>
    <minDate>1923-04-23</minDate>
    <maxDate>2013-01-12</maxDate>
    <latitude>40.221</latitude>
    <longitude>-93.1097</longitude>
    <elevation>256</elevation>
    <locationLabels>
      <type>CNTRY</type>
      <id>FIPS:US</id>
      <displayName>United States</displayName>
    </locationLabels>
    <coverage>0.9732</coverage>
  </station>
  <station>
    <id>GHCND:US1PAWN0008</id>
    <displayName>MILANVILLE 1.5 SE, PA US</displayName>
    <minDate>2004-01-01</minDate>
    <maxDate>2013-01-16</maxDate>
    <latitude>41.6333</latitude>
    <longitude>-75.05</longitude>
    <elevation>217</elevation>
    <locationLabels>
      <type>CNTRY</type>
      <id>FIPS:US</id>
      <displayName>United States</displayName>
    </locationLabels>
    <coverage>0.9855</coverage>
  </station>
  <station>
    <id>GHCND:USC00365738</id>
    <displayName>MILANVILLE, PA US</displayName>
    <minDate>1945-08-01</minDate>
    <maxDate>2013-01-15</maxDate>
    <latitude>41.6725</latitude>
    <longitude>-75.0641</longitude>
    <elevation>231.6</elevation>
    <locationLabels>
      <type>CNTRY</type>
      <id>FIPS:US</id>
      <displayName>United States</displayName>
    </locationLabels>
    <coverage>0.4981</coverage>
  </station>
  <station>
    <id>GHCND:US1SDGT0004</id>
    <displayName>MILBANK 0.9 NNW, SD US</displayName>
    <minDate>2012-06-20</minDate>
    <maxDate>2013-01-16</maxDate>
    <latitude>45.2315</latitude>
    <longitude>-96.6442</longitude>
    <elevation>350.8</elevation>
    <locationLabels>
      <type>CNTRY</type>
      <id>FIPS:US</id>
      <displayName>United States</displayName>
    </locationLabels>
    <coverage>0.9005</coverage>
  </station>
  <station>
    <id>GHCND:USC00395536</id>
    <displayName>MILBANK 2 SSW, SD US</displayName>
    <minDate>1893-01-01</minDate>
    <maxDate>2009-08-31</maxDate>
    <latitude>45.2837</latitude>
    <longitude>-96.6689</longitude>
    <elevation>349</elevation>
    <locationLabels>
      <type>CNTRY</type>
      <id>FIPS:US</id>
      <displayName>United States</displayName>
    </locationLabels>
    <coverage>0.9352</coverage>
  </station>
  <station>
    <id>GHCND:US1SDGT0001</id>
    <displayName>MILBANK 3.9 SSW, SD US</displayName>
    <minDate>2007-06-02</minDate>
    <maxDate>2012-11-11</maxDate>
    <latitude>45.1654</latitude>
    <longitude>-96.6532</longitude>
    <elevation>384.4</elevation>
    <locationLabels>
      <type>CNTRY</type>
      <id>FIPS:US</id>
      <displayName>United States</displayName>
    </locationLabels>
    <coverage>0.6025</coverage>
  </station>
  <station>
    <id>GHCND:USC00395531</id>
    <displayName>MILBANK, SD US</displayName>
    <minDate>2009-10-01</minDate>
    <maxDate>2013-01-16</maxDate>
    <latitude>45.22028</latitude>
    <longitude>-96.62528</longitude>
    <elevation>352</elevation>
    <locationLabels>
      <type>CNTRY</type>
      <id>FIPS:US</id>
      <displayName>United States</displayName>
    </locationLabels>
    <coverage>0.9892</coverage>
  </station>
  <station>
    <id>GHCND:US1KSRS0028</id>
    <displayName>MILBERGER 0.5 N, KS US</displayName>
    <minDate>2008-11-10</minDate>
    <maxDate>2012-12-15</maxDate>
    <latitude>38.7204</latitude>
    <longitude>-98.9115</longitude>
    <elevation>559</elevation>
    <locationLabels>
      <type>CNTRY</type>
      <id>FIPS:US</id>
      <displayName>United States</displayName>
    </locationLabels>
    <coverage>0.5625</coverage>
  </station>
  <station>
    <id>GHCND:US1KSRS0011</id>
    <displayName>MILBERGER 5.0 NW, KS US</displayName>
    <minDate>2008-03-07</minDate>
    <maxDate>2013-01-16</maxDate>
    <latitude>38.7716</latitude>
    <longitude>-98.9851</longitude>
    <elevation>555</elevation>
    <locationLabels>
      <type>CNTRY</type>
      <id>FIPS:US</id>
      <displayName>United States</displayName>
    </locationLabels>
    <coverage>0.9871</coverage>
  </station>
  <station>
    <id>GHCND:USC00155415</id>
    <displayName>MILBURN 1 E, KY US</displayName>
    <minDate>1962-03-17</minDate>
    <maxDate>1963-10-31</maxDate>
    <latitude>36.8</latitude>
    <longitude>-88.88333</longitude>
    <elevation>107</elevation>
    <locationLabels>
      <type>CNTRY</type>
      <id>FIPS:US</id>
      <displayName>United States</displayName>
    </locationLabels>
    <coverage>0.9495</coverage>
  </station>
  <station>
    <id>GHCND:US10cust027</id>
    <displayName>MILBURN 1.9 ENE, NE US</displayName>
    <minDate>2007-04-22</minDate>
    <maxDate>2007-12-01</maxDate>
    <latitude>41.7346</latitude>
    <longitude>-99.6987</longitude>
    <elevation>835.2</elevation>
    <locationLabels>
      <type>CNTRY</type>
      <id>FIPS:US</id>
      <displayName>United States</displayName>
    </locationLabels>
    <coverage>1</coverage>
  </station>
  <station>
    <id>GHCND:US10loup006</id>
    <displayName>MILBURN 11.1 NNE, NE US</displayName>
    <minDate>2007-03-30</minDate>
    <maxDate>2012-09-15</maxDate>
    <latitude>41.8713</latitude>
    <longitude>-99.6604</longitude>
    <elevation>762.9</elevation>
    <locationLabels>
      <type>CNTRY</type>
      <id>FIPS:US</id>
      <displayName>United States</displayName>
    </locationLabels>
    <coverage>0.8007</coverage>
  </station>
  <station>
    <id>GHCND:USC00245668</id>
    <displayName>MILDRED 5 N, MT US</displayName>
    <minDate>1979-08-01</minDate>
    <maxDate>2012-11-30</maxDate>
    <latitude>46.7615</latitude>
    <longitude>-104.962</longitude>
    <elevation>757.1</elevation>
    <locationLabels>
      <type>CNTRY</type>
      <id>FIPS:US</id>
      <displayName>United States</displayName>
    </locationLabels>
    <coverage>0.9857</coverage>
  </station>
  <station>
    <id>GHCND:USC00055573</id>
    <displayName>MILDRED, CO US</displayName>
    <minDate>1952-04-12</minDate>
    <maxDate>1953-06-30</maxDate>
    <latitude>39.83333</latitude>
    <longitude>-102.46667</longitude>
    <elevation>1250.9</elevation>
    <locationLabels>
      <type>CNTRY</type>
      <id>FIPS:US</id>
      <displayName>United States</displayName>
    </locationLabels>
    <coverage>0.9978</coverage>
  </station>
  <station>
    <id>GHCND:USC00245666</id>
    <displayName>MILDRED, MT US</displayName>
    <minDate>1909-04-01</minDate>
    <maxDate>1978-07-31</maxDate>
    <latitude>46.68333</latitude>
    <longitude>-104.95</longitude>
    <elevation>734.9</elevation>
    <locationLabels>
      <type>CNTRY</type>
      <id>FIPS:US</id>
      <displayName>United States</displayName>
    </locationLabels>
    <coverage>0.9706</coverage>
  </station>
  <station>
    <id>GHCND:USC00505875</id>
    <displayName>MILE 101 STEESE, AK US</displayName>
    <minDate>1987-11-01</minDate>
    <maxDate>1990-05-31</maxDate>
    <latitude>65.51667</latitude>
    <longitude>-145.33333</longitude>
    <elevation>691.9</elevation>
    <locationLabels>
      <type>CNTRY</type>
      <id>FIPS:US</id>
      <displayName>United States</displayName>
    </locationLabels>
    <coverage>1</coverage>
  </station>
  <station>
    <id>GHCND:USC00505873</id>
    <displayName>MILE 39 STEESE, AK US</displayName>
    <minDate>1998-02-01</minDate>
    <maxDate>2012-04-09</maxDate>
    <latitude>65.19056</latitude>
    <longitude>-147.25417</longitude>
    <elevation>228.6</elevation>
    <locationLabels>
      <type>CNTRY</type>
      <id>FIPS:US</id>
      <displayName>United States</displayName>
    </locationLabels>
    <coverage>0.4137</coverage>
  </station>
  <station>
    <id>GHCND:USC00505879</id>
    <displayName>MILE 41 STEESE, AK US</displayName>
    <minDate>1972-09-01</minDate>
    <maxDate>1977-04-30</maxDate>
    <latitude>65.2</latitude>
    <longitude>-147.2</longitude>
    <elevation>267.9</elevation>
    <locationLabels>
      <type>CNTRY</type>
      <id>FIPS:US</id>
      <displayName>United States</displayName>
    </locationLabels>
    <coverage>0.6036</coverage>
  </station>
  <station>
    <id>GHCND:USC00505880</id>
    <displayName>MILE 42 STEESE, AK US</displayName>
    <minDate>1996-08-01</minDate>
    <maxDate>2013-01-15</maxDate>
    <latitude>65.22222</latitude>
    <longitude>-147.16667</longitude>
    <elevation>292.6</elevation>
    <locationLabels>
      <type>CNTRY</type>
      <id>FIPS:US</id>
      <displayName>United States</displayName>
    </locationLabels>
    <coverage>0.7631</coverage>
  </station>
  <station>
    <id>GHCND:USC00505878</id>
    <displayName>MILE 47 CAMP, AK US</displayName>
    <minDate>1959-10-01</minDate>
    <maxDate>1964-04-30</maxDate>
    <latitude>61.26667</latitude>
    <longitude>-145.26667</longitude>
    <elevation>351.1</elevation>
    <locationLabels>
      <type>CNTRY</type>
      <id>FIPS:US</id>
      <displayName>United States</displayName>
    </locationLabels>
    <coverage>0.5723</coverage>
  </station>
  <station>
    <id>GHCND:USC00504210</id>
    <displayName>MILE 50 KANDIK RIVER, AK US</displayName>
    <minDate>2011-07-27</minDate>
    <maxDate>2012-11-30</maxDate>
    <latitude>65.5663</latitude>
    <longitude>-141.5205</longitude>
    <elevation>374.9</elevation>
    <locationLabels>
      <type>CNTRY</type>
      <id>FIPS:US</id>
      <displayName>United States</displayName>
    </locationLabels>
    <coverage>0.5903</coverage>
  </station>
  <station>
    <id>GHCND:US1MTCS0008</id>
    <displayName>MILES CITY 0.4 E, MT US</displayName>
    <minDate>2011-05-23</minDate>
    <maxDate>2013-01-15</maxDate>
    <latitude>46.4074</latitude>
    <longitude>-105.8302</longitude>
    <elevation>719.9</elevation>
    <locationLabels>
      <type>CNTRY</type>
      <id>FIPS:US</id>
      <displayName>United States</displayName>
    </locationLabels>
    <coverage>0.202</coverage>
  </station>
  <station>
    <id>GHCND:US1MTCS0003</id>
    <displayName>MILES CITY 0.7 NNE, MT US</displayName>
    <minDate>2009-11-01</minDate>
    <maxDate>2012-10-30</maxDate>
    <latitude>46.4162</latitude>
    <longitude>-105.8328</longitude>
    <elevation>732.4</elevation>
    <locationLabels>
      <type>CNTRY</type>
      <id>FIPS:US</id>
      <displayName>United States</displayName>
    </locationLabels>
    <coverage>0.1653</coverage>
  </station>
  <station>
    <id>GHCND:US1MTCS0004</id>
    <displayName>MILES CITY 8.5 E, MT US</displayName>
    <minDate>2009-11-01</minDate>
    <maxDate>2010-08-08</maxDate>
    <latitude>46.3938</latitude>
    <longitude>-105.6633</longitude>
    <elevation>950.7</elevation>
    <locationLabels>
      <type>CNTRY</type>
      <id>FIPS:US</id>
      <displayName>United States</displayName>
    </locationLabels>
    <coverage>0.8826</coverage>
  </station>
  <station>
    <id>GHCND:US1MTCS0001</id>
    <displayName>MILES CITY 8.7 E, MT US</displayName>
    <minDate>2009-10-26</minDate>
    <maxDate>2012-12-29</maxDate>
    <latitude>46.3913</latitude>
    <longitude>-105.6575</longitude>
    <elevation>933</elevation>
    <locationLabels>
      <type>CNTRY</type>
      <id>FIPS:US</id>
      <displayName>United States</displayName>
    </locationLabels>
    <coverage>0.963</coverage>
  </station>
  <station>
    <id>GHCND:USW00024037</id>
    <displayName>MILES CITY F WILEY FIELD, MT US</displayName>
    <minDate>1937-01-16</minDate>
    <maxDate>2013-01-14</maxDate>
    <latitude>46.4266</latitude>
    <longitude>-105.8825</longitude>
    <elevation>799.8</elevation>
    <locationLabels>
      <type>CNTRY</type>
      <id>FIPS:US</id>
      <displayName>United States</displayName>
    </locationLabels>
    <coverage>0.9986</coverage>
  </station>
  <station>
    <id>GHCND:USR0000FMIL</id>
    <displayName>MILES CITY FLORIDA, FL US</displayName>
    <minDate>1987-04-20</minDate>
    <maxDate>2012-08-31</maxDate>
    <latitude>26.2483</latitude>
    <longitude>-81.2967</longitude>
    <elevation>4.6</elevation>
    <locationLabels>
      <type>CNTRY</type>
      <id>FIPS:US</id>
      <displayName>United States</displayName>
    </locationLabels>
    <coverage>0.9415</coverage>
  </station>
  <station>
    <id>GHCND:USC00085719</id>
    <displayName>MILES CITY TOWER, FL US</displayName>
    <minDate>1956-07-01</minDate>
    <maxDate>1969-12-31</maxDate>
    <latitude>26.18333</latitude>
    <longitude>-81.35</longitude>
    <elevation>46</elevation>
    <locationLabels>
      <type>CNTRY</type>
      <id>FIPS:US</id>
      <displayName>United States</displayName>
    </locationLabels>
    <coverage>0.9319</coverage>
  </station>
  <station>
    <id>GHCND:USC00245685</id>
    <displayName>MILES CITY, MT US</displayName>
    <minDate>1893-01-01</minDate>
    <maxDate>1982-07-31</maxDate>
    <latitude>46.4</latitude>
    <longitude>-105.81667</longitude>
    <elevation>719.9</elevation>
    <locationLabels>
      <type>CNTRY</type>
      <id>FIPS:US</id>
      <displayName>United States</displayName>
    </locationLabels>
    <coverage>0.9107</coverage>
  </station>
  <station>
    <id>GHCND:USC00395544</id>
    <displayName>MILESVILLE 5 NE, SD US</displayName>
    <minDate>1911-08-18</minDate>
    <maxDate>2013-01-14</maxDate>
    <latitude>44.5208</latitude>
    <longitude>-101.6192</longitude>
    <elevation>681.8</elevation>
    <locationLabels>
      <type>CNTRY</type>
      <id>FIPS:US</id>
      <displayName>United States</displayName>
    </locationLabels>
    <coverage>0.7192</coverage>
  </station>
  <station>
    <id>GHCND:US1SDHK0006</id>
    <displayName>MILESVILLE 6.1 NW, SD US</displayName>
    <minDate>2007-06-05</minDate>
    <maxDate>2011-02-03</maxDate>
    <latitude>44.5236</latitude>
    <longitude>-101.5979</longitude>
    <elevation>680</elevation>
    <locationLabels>
      <type>CNTRY</type>
      <id>FIPS:US</id>
      <displayName>United States</displayName>
    </locationLabels>
    <coverage>0.8425</coverage>
  </station>
  <station>
    <id>GHCND:USC00395547</id>
    <displayName>MILESVILLE 9 N, SD US</displayName>
    <minDate>1998-07-01</minDate>
    <maxDate>2003-07-31</maxDate>
    <latitude>44.58056</latitude>
    <longitude>-101.74056</longitude>
    <elevation>563.9</elevation>
    <locationLabels>
      <type>CNTRY</type>
      <id>FIPS:US</id>
      <displayName>United States</displayName>
    </locationLabels>
    <coverage>0.9995</coverage>
  </station>
  <station>
    <id>GHCND:USC00385858</id>
    <displayName>MILEY, SC US</displayName>
    <minDate>1939-02-01</minDate>
    <maxDate>1950-07-31</maxDate>
    <latitude>32.95</latitude>
    <longitude>-81.03333</longitude>
    <elevation>24.1</elevation>
    <locationLabels>
      <type>CNTRY</type>
      <id>FIPS:US</id>
      <displayName>United States</displayName>
    </locationLabels>
    <coverage>0.9612</coverage>
  </station>
  <station>
    <id>GHCND:US10sewa017</id>
    <displayName>MILFORD 0.4 WSW, NE US</displayName>
    <minDate>2009-10-10</minDate>
    <maxDate>2012-08-26</maxDate>
    <latitude>40.7722</latitude>
    <longitude>-97.0583</longitude>
    <elevation>0</elevation>
    <locationLabels>
      <type>CNTRY</type>
      <id>FIPS:US</id>
      <displayName>United States</displayName>
    </locationLabels>
    <coverage>0.4582</coverage>
  </station>
  <station>
    <id>GHCND:US1MAWR0007</id>
    <displayName>MILFORD 0.5 W, MA US</displayName>
    <minDate>2010-08-08</minDate>
    <maxDate>2011-10-27</maxDate>
    <latitude>42.149</latitude>
    <longitude>-71.525</longitude>
    <elevation>119.5</elevation>
    <locationLabels>
      <type>CNTRY</type>
      <id>FIPS:US</id>
      <displayName>United States</displayName>
    </locationLabels>
    <coverage>0.4753</coverage>
  </station>
  <station>
    <id>GHCND:US1IADK0004</id>
    <displayName>MILFORD 0.5 WSW, IA US</displayName>
    <minDate>2010-04-14</minDate>
    <maxDate>2012-06-02</maxDate>
    <latitude>43.3252</latitude>
    <longitude>-95.1605</longitude>
    <elevation>436.5</elevation>
    <locationLabels>
      <type>CNTRY</type>
      <id>FIPS:US</id>
      <displayName>United States</displayName>
    </locationLabels>
    <coverage>0.242</coverage>
  </station>
  <station>
    <id>GHCND:US1MIOK0032</id>
    <displayName>MILFORD 1.4 NE, MI US</displayName>
    <minDate>2009-04-10</minDate>
    <maxDate>2010-10-31</maxDate>
    <latitude>42.6025</latitude>
    <longitude>-83.5854</longitude>
    <elevation>302.4</elevation>
    <locationLabels>
      <type>CNTRY</type>
      <id>FIPS:US</id>
      <displayName>United States</displayName>
    </locationLabels>
    <coverage>0.6561</coverage>
  </station>
  <station>
    <id>GHCND:USC00075915</id>
    <displayName>MILFORD 2 SE, DE US</displayName>
    <minDate>1893-05-01</minDate>
    <maxDate>2004-04-30</maxDate>
    <latitude>38.8983</latitude>
    <longitude>-75.425</longitude>
    <elevation>10.7</elevation>
    <locationLabels>
      <type>CNTRY</type>
      <id>FIPS:US</id>
      <displayName>United States</displayName>
    </locationLabels>
    <coverage>0.8443</coverage>
  </station>
  <station>
    <id>GHCND:US1MAWR0001</id>
    <displayName>MILFORD 2.3 NNW, MA US</displayName>
    <minDate>2009-02-01</minDate>
    <maxDate>2013-01-15</maxDate>
    <latitude>42.179</latitude>
    <longitude>-71.5339</longitude>
    <elevation>121</elevation>
    <locationLabels>
      <type>CNTRY</type>
      <id>FIPS:US</id>
      <displayName>United States</displayName>
    </locationLabels>
    <coverage>0.9176</coverage>
  </station>
  <station>
    <id>GHCND:US1INEL0029</id>
    <displayName>MILFORD 2.6 NNW, IN US</displayName>
    <minDate>2008-06-20</minDate>
    <maxDate>2011-10-24</maxDate>
    <latitude>41.4472</latitude>
    <longitude>-85.8595</longitude>
    <elevation>249.9</elevation>
    <locationLabels>
      <type>CNTRY</type>
      <id>FIPS:US</id>
      <displayName>United States</displayName>
    </locationLabels>
    <coverage>0.5205</coverage>
  </station>
  <station>
    <id>GHCND:US1NHHL0038</id>
    <displayName>MILFORD 2.7 SE, NH US</displayName>
    <minDate>2010-11-04</minDate>
    <maxDate>2013-01-16</maxDate>
    <latitude>42.8055</latitude>
    <longitude>-71.6252</longitude>
    <elevation>149.7</elevation>
    <locationLabels>
      <type>CNTRY</type>
      <id>FIPS:US</id>
      <displayName>United States</displayName>
    </locationLabels>
    <coverage>0.6857</coverage>
  </station>
  <station>
    <id>GHCND:US1CTNH0009</id>
    <displayName>MILFORD 2.9 ESE, CT US</displayName>
    <minDate>2009-07-24</minDate>
    <maxDate>2013-01-16</maxDate>
    <latitude>41.2057</latitude>
    <longitude>-73.0138</longitude>
    <elevation>2.4</elevation>
    <locationLabels>
      <type>CNTRY</type>
      <id>FIPS:US</id>
      <displayName>United States</displayName>
    </locationLabels>
    <coverage>0.9246</coverage>
  </station>
  <station>
    <id>GHCND:US1NHHL0039</id>
    <displayName>MILFORD 3.2 W, NH US</displayName>
    <minDate>2010-11-24</minDate>
    <maxDate>2012-08-24</maxDate>
    <latitude>42.8415</latitude>
    <longitude>-71.7245</longitude>
    <elevation>108.8</elevation>
    <locationLabels>
      <type>CNTRY</type>
      <id>FIPS:US</id>
      <displayName>United States</displayName>
    </locationLabels>
    <coverage>0.5172</coverage>
  </station>
  <station>
    <id>GHCND:USC00135493</id>
    <displayName>MILFORD 4 NW, IA US</displayName>
    <minDate>1919-10-01</minDate>
    <maxDate>2012-11-30</maxDate>
    <latitude>43.3827</latitude>
    <longitude>-95.1841</longitude>
    <elevation>427.3</elevation>
    <locationLabels>
      <type>CNTRY</type>
      <id>FIPS:US</id>
      <displayName>United States</displayName>
    </locationLabels>
    <coverage>0.8166</coverage>
  </station>
  <station>
    <id>GHCND:US1MIOK0026</id>
    <displayName>MILFORD 4.1 SW, MI US</displayName>
    <minDate>2008-11-02</minDate>
    <maxDate>2013-01-16</maxDate>
    <latitude>42.5486</latitude>
    <longitude>-83.6649</longitude>
    <elevation>295</elevation>
    <locationLabels>
      <type>CNTRY</type>
      <id>FIPS:US</id>
      <displayName>United States</displayName>
    </locationLabels>
    <coverage>0.5615</coverage>
  </station>
  <station>
    <id>GHCND:US1MIOK0044</id>
    <displayName>MILFORD 4.3 ESE, MI US</displayName>
    <minDate>2010-08-05</minDate>
    <maxDate>2012-07-19</maxDate>
    <latitude>42.5727</latitude>
    <longitude>-83.5176</longitude>
    <elevation>283.8</elevation>
    <locationLabels>
      <type>CNTRY</type>
      <id>FIPS:US</id>
      <displayName>United States</displayName>
    </locationLabels>
    <coverage>0.4783</coverage>
  </station>
  <station>
    <id>GHCND:USW00053171</id>
    <displayName>MILFORD 42 WNW, UT US</displayName>
    <minDate>2010-08-03</minDate>
    <maxDate>2013-01-15</maxDate>
    <latitude>38.5943</latitude>
    <longitude>-113.7511</longitude>
    <elevation>1601.7</elevation>
    <locationLabels>
      <type>CNTRY</type>
      <id>FIPS:US</id>
      <displayName>United States</displayName>
    </locationLabels>
    <coverage>0.9933</coverage>
  </station>
  <station>
    <id>GHCND:USC00115646</id>
    <displayName>MILFORD 5 NW, IL US</displayName>
    <minDate>1999-05-01</minDate>
    <maxDate>2013-01-16</maxDate>
    <latitude>40.6828</latitude>
    <longitude>-87.7575</longitude>
    <elevation>182.9</elevation>
    <locationLabels>
      <type>CNTRY</type>
      <id>FIPS:US</id>
      <displayName>United States</displayName>
    </locationLabels>
    <coverage>0.9878</coverage>
  </station>
  <station>
    <id>GHCND:US10sali002</id>
    <displayName>MILFORD 5.9 SSE, NE US</displayName>
    <minDate>2007-01-01</minDate>
    <maxDate>2013-01-14</maxDate>
    <latitude>40.6908</latitude>
    <longitude>-97.0265</longitude>
    <elevation>421.8</elevation>
    <locationLabels>
      <type>CNTRY</type>
      <id>FIPS:US</id>
      <displayName>United States</displayName>
    </locationLabels>
    <coverage>0.9483</coverage>
  </station>
  <station>
    <id>GHCND:US1PAPK0007</id>
    <displayName>MILFORD 7.7 W, PA US</displayName>
    <minDate>2005-12-01</minDate>
    <maxDate>2008-04-06</maxDate>
    <latitude>41.33</latitude>
    <longitude>-74.95</longitude>
    <elevation>429.8</elevation>
    <locationLabels>
      <type>CNTRY</type>
      <id>FIPS:US</id>
      <displayName>United States</displayName>
    </locationLabels>
    <coverage>0.7704</coverage>
  </station>
  <station>
    <id>GHCND:US1PAPK0008</id>
    <displayName>MILFORD 7.9 WSW, PA US</displayName>
    <minDate>2007-09-09</minDate>
    <maxDate>2012-10-11</maxDate>
    <latitude>41.3</latitude>
    <longitude>-74.95</longitude>
    <elevation>423.1</elevation>
    <locationLabels>
      <type>CNTRY</type>
      <id>FIPS:US</id>
      <displayName>United States</displayName>
    </locationLabels>
    <coverage>0.5672</coverage>
  </station>
  <station>
    <id>GHCND:USC00205452</id>
    <displayName>MILFORD GM PROVING GROUND, MI US</displayName>
    <minDate>1928-01-01</minDate>
    <maxDate>2013-01-16</maxDate>
    <latitude>42.5794</latitude>
    <longitude>-83.6844</longitude>
    <elevation>301.8</elevation>
    <locationLabels>
      <type>CNTRY</type>
      <id>FIPS:US</id>
      <displayName>United States</displayName>
    </locationLabels>
    <coverage>0.9585</coverage>
  </station>
  <station>
    <id>GHCND:USC00145306</id>
    <displayName>MILFORD LAKE, KS US</displayName>
    <minDate>1965-10-01</minDate>
    <maxDate>2013-01-16</maxDate>
    <latitude>39.07444</latitude>
    <longitude>-96.89833</longitude>
    <elevation>368.8</elevation>
    <locationLabels>
      <type>CNTRY</type>
      <id>FIPS:US</id>
      <displayName>United States</displayName>
    </locationLabels>
    <coverage>0.9874</coverage>
  </station>
  <station>
    <id>GHCND:USC00045623</id>
    <displayName>MILFORD LAUFMAN RANGER STATION, CA US</displayName>
    <minDate>1948-07-01</minDate>
    <maxDate>1951-09-30</maxDate>
    <latitude>40.1414</latitude>
    <longitude>-120.3533</longitude>
    <elevation>1481.3</elevation>
    <locationLabels>
      <type>CNTRY</type>
      <id>FIPS:US</id>
      <displayName>United States</displayName>
    </locationLabels>
    <coverage>0.9655</coverage>
  </station>
  <station>
    <id>GHCND:USC00064790</id>
    <displayName>MILFORD, CT US</displayName>
    <minDate>1930-04-01</minDate>
    <maxDate>1975-09-30</maxDate>
    <latitude>41.2</latitude>
    <longitude>-73.08333</longitude>
    <elevation>9.1</elevation>
    <locationLabels>
      <type>CNTRY</type>
      <id>FIPS:US</id>
      <displayName>United States</displayName>
    </locationLabels>
    <coverage>0.5703</coverage>
  </station>
  <station>
    <id>GHCND:USC00194760</id>
    <displayName>MILFORD, MA US</displayName>
    <minDate>1885-01-01</minDate>
    <maxDate>2013-01-16</maxDate>
    <latitude>42.1619</latitude>
    <longitude>-71.5117</longitude>
    <elevation>82.3</elevation>
    <locationLabels>
      <type>CNTRY</type>
      <id>FIPS:US</id>
      <displayName>United States</displayName>
    </locationLabels>
    <coverage>0.6213</coverage>
  </station>
  <station>
    <id>GHCND:USC00255500</id>
    <displayName>MILFORD, NE US</displayName>
    <minDate>1895-11-01</minDate>
    <maxDate>1897-03-31</maxDate>
    <latitude>40.766667</latitude>
    <longitude>-97.016667</longitude>
    <locationLabels>
      <type>CNTRY</type>
      <id>FIPS:US</id>
      <displayName>United States</displayName>
    </locationLabels>
    <coverage>0.8878</coverage>
  </station>
  <station>
    <id>GHCND:USC00275412</id>
    <displayName>MILFORD, NH US</displayName>
    <minDate>1944-10-21</minDate>
    <maxDate>2008-05-31</maxDate>
    <latitude>42.83944</latitude>
    <longitude>-71.64861</longitude>
    <elevation>97.5</elevation>
    <locationLabels>
      <type>CNTRY</type>
      <id>FIPS:US</id>
      <displayName>United States</displayName>
    </locationLabels>
    <coverage>0.9523</coverage>
  </station>
  <station>
    <id>GHCND:USC00335265</id>
    <displayName>MILFORD, OH US</displayName>
    <minDate>1916-03-13</minDate>
    <maxDate>1969-02-28</maxDate>
    <latitude>39.16667</latitude>
    <longitude>-84.3</longitude>
    <elevation>174</elevation>
    <locationLabels>
      <type>CNTRY</type>
      <id>FIPS:US</id>
      <displayName>United States</displayName>
    </locationLabels>
    <coverage>0.3604</coverage>
  </station>
  <station>
    <id>GHCND:USC00335268</id>
    <displayName>MILFORD, OH US</displayName>
    <minDate>1969-04-01</minDate>
    <maxDate>2004-07-31</maxDate>
    <latitude>39.18139</latitude>
    <longitude>-84.28667</longitude>
    <elevation>158.5</elevation>
    <locationLabels>
      <type>CNTRY</type>
      <id>FIPS:US</id>
      <displayName>United States</displayName>
    </locationLabels>
    <coverage>0.9707</coverage>
  </station>
  <station>
    <id>GHCND:USC00365752</id>
    <displayName>MILFORD, PA US</displayName>
    <minDate>1903-01-01</minDate>
    <maxDate>1921-09-30</maxDate>
    <latitude>41.316667</latitude>
    <longitude>-74.8</longitude>
    <elevation>152.4</elevation>
    <locationLabels>
      <type>CNTRY</type>
      <id>FIPS:US</id>
      <displayName>United States</displayName>
    </locationLabels>
    <coverage>0.9794</coverage>
  </station>
  <station>
    <id>GHCND:USW00023176</id>
    <displayName>MILFORD, UT US</displayName>
    <minDate>1928-01-01</minDate>
    <maxDate>2013-01-14</maxDate>
    <latitude>38.4017</latitude>
    <longitude>-113.0161</longitude>
    <elevation>1526.7</elevation>
    <locationLabels>
      <type>CNTRY</type>
      <id>FIPS:US</id>
      <displayName>United States</displayName>
    </locationLabels>
    <coverage>0.9584</coverage>
  </station>
  <station>
    <id>GHCND:US1ORLN0028</id>
    <displayName>MILL CITY 0.4 WSW, OR US</displayName>
    <minDate>2009-04-17</minDate>
    <maxDate>2012-12-25</maxDate>
    <latitude>44.7485</latitude>
    <longitude>-122.4837</longitude>
    <elevation>259.4</elevation>
    <locationLabels>
      <type>CNTRY</type>
      <id>FIPS:US</id>
      <displayName>United States</displayName>
    </locationLabels>
    <coverage>0.8006</coverage>
  </station>
  <station>
    <id>GHCND:USC00265150</id>
    <displayName>MILL CITY, NV US</displayName>
    <minDate>1892-02-01</minDate>
    <maxDate>1913-11-04</maxDate>
    <latitude>40.683333</latitude>
    <longitude>-118.066667</longitude>
    <elevation>1289.6</elevation>
    <locationLabels>
      <type>CNTRY</type>
      <id>FIPS:US</id>
      <displayName>United States</displayName>
    </locationLabels>
    <coverage>0.6217</coverage>
  </station>
  <station>
    <id>GHCND:USC00355556</id>
    <displayName>MILL CITY, OR US</displayName>
    <minDate>1905-03-01</minDate>
    <maxDate>1907-08-31</maxDate>
    <latitude>44.75</latitude>
    <longitude>-122.25</longitude>
    <elevation>256</elevation>
    <locationLabels>
      <type>CNTRY</type>
      <id>FIPS:US</id>
      <displayName>United States</displayName>
    </locationLabels>
    <coverage>0.8556</coverage>
  </station>
  <station>
    <id>GHCND:US1WASN0058</id>
    <displayName>MILL CREEK 1.8 NE, WA US</displayName>
    <minDate>2010-11-22</minDate>
    <maxDate>2013-01-15</maxDate>
    <latitude>47.8756</latitude>
    <longitude>-122.1761</longitude>
    <elevation>137.2</elevation>
    <locationLabels>
      <type>CNTRY</type>
      <id>FIPS:US</id>
      <displayName>United States</displayName>
    </locationLabels>
    <coverage>0.444</coverage>
  </station>
  <station>
    <id>GHCND:USC00045629</id>
    <displayName>MILL CREEK 2, CA US</displayName>
    <minDate>1904-01-17</minDate>
    <maxDate>1967-08-31</maxDate>
    <latitude>34.08333</latitude>
    <longitude>-117.03333</longitude>
    <elevation>897</elevation>
    <locationLabels>
      <type>CNTRY</type>
      <id>FIPS:US</id>
      <displayName>United States</displayName>
    </locationLabels>
    <coverage>0.9105</coverage>
  </station>
  <station>
    <id>GHCND:USR0000CMIL</id>
    <displayName>MILL CREEK ANF CALIFORNIA, CA US</displayName>
    <minDate>1989-04-05</minDate>
    <maxDate>2012-08-30</maxDate>
    <latitude>34.3903</latitude>
    <longitude>-118.0825</longitude>
    <elevation>1530.4</elevation>
    <locationLabels>
      <type>CNTRY</type>
      <id>FIPS:US</id>
      <displayName>United States</displayName>
    </locationLabels>
    <coverage>0.8703</coverage>
  </station>
  <station>
    <id>GHCND:USR0000CMCB</id>
    <displayName>MILL CREEK BDF CALIFORNIA, CA US</displayName>
    <minDate>1998-02-11</minDate>
    <maxDate>2012-08-30</maxDate>
    <latitude>34.0836</latitude>
    <longitude>-117.0347</longitude>
    <elevation>899.2</elevation>
    <locationLabels>
      <type>CNTRY</type>
      <id>FIPS:US</id>
      <displayName>United States</displayName>
    </locationLabels>
    <coverage>0.9541</coverage>
  </station>
  <station>
    <id>GHCND:USC00455387</id>
    <displayName>MILL CREEK DAM, WA US</displayName>
    <minDate>1948-07-01</minDate>
    <maxDate>2013-01-14</maxDate>
    <latitude>46.0756</latitude>
    <longitude>-118.2742</longitude>
    <elevation>358.1</elevation>
    <locationLabels>
      <type>CNTRY</type>
      <id>FIPS:US</id>
      <displayName>United States</displayName>
    </locationLabels>
    <coverage>0.9499</coverage>
  </station>
  <station>
    <id>GHCND:USC00045632</id>
    <displayName>MILL CREEK INTAKE, CA US</displayName>
    <minDate>1948-07-01</minDate>
    <maxDate>1951-09-30</maxDate>
    <latitude>34.09139</latitude>
    <longitude>-116.93639</longitude>
    <elevation>1507.2</elevation>
    <locationLabels>
      <type>CNTRY</type>
      <id>FIPS:US</id>
      <displayName>United States</displayName>
    </locationLabels>
    <coverage>0.9907</coverage>
  </station>
  <station>
    <id>GHCND:USS0014E01S</id>
    <displayName>MILL CREEK SUMMIT, ID US</displayName>
    <minDate>1981-10-01</minDate>
    <maxDate>2013-01-13</maxDate>
    <latitude>44.4667</latitude>
    <longitude>-114.4667</longitude>
    <elevation>2682.2</elevation>
    <locationLabels>
      <type>CNTRY</type>
      <id>FIPS:US</id>
      <displayName>United States</displayName>
    </locationLabels>
    <coverage>0.8583</coverage>
  </station>
  <station>
    <id>GHCND:USC00245703</id>
    <displayName>MILL CREEK, MT US</displayName>
    <minDate>1909-02-01</minDate>
    <maxDate>1910-04-30</maxDate>
    <latitude>45.333333</latitude>
    <longitude>-110.666667</longitude>
    <elevation>1676.4</elevation>
    <locationLabels>
      <type>CNTRY</type>
      <id>FIPS:US</id>
      <displayName>United States</displayName>
    </locationLabels>
    <coverage>0.9405</coverage>
  </station>
  <station>
    <id>GHCND:USC00455377</id>
    <displayName>MILL CREEK, WA US</displayName>
    <minDate>1915-10-01</minDate>
    <maxDate>1973-09-30</maxDate>
    <latitude>46.01667</latitude>
    <longitude>-118.11667</longitude>
    <elevation>609.9</elevation>
    <locationLabels>
      <type>CNTRY</type>
      <id>FIPS:US</id>
      <displayName>United States</displayName>
    </locationLabels>
    <coverage>0.9763</coverage>
  </station>
  <station>
    <id>GHCND:USS0011J65S</id>
    <displayName>MILL D NORTH, UT US</displayName>
    <minDate>1988-10-01</minDate>
    <maxDate>2013-01-13</maxDate>
    <latitude>40.65</latitude>
    <longitude>-111.6333</longitude>
    <elevation>2731</elevation>
    <locationLabels>
      <type>CNTRY</type>
      <id>FIPS:US</id>
      <displayName>United States</displayName>
    </locationLabels>
    <coverage>0.9519</coverage>
  </station>
  <station>
    <id>GHCND:US1NYNS0009</id>
    <displayName>MILL NECK 1.1 SW, NY US</displayName>
    <minDate>2009-07-19</minDate>
    <maxDate>2010-03-29</maxDate>
    <latitude>40.8704</latitude>
    <longitude>-73.5717</longitude>
    <elevation>34.1</elevation>
    <locationLabels>
      <type>CNTRY</type>
      <id>FIPS:US</id>
      <displayName>United States</displayName>
    </locationLabels>
    <coverage>0.4173</coverage>
  </station>
  <station>
    <id>GHCND:USC00445599</id>
    <displayName>MILL RUN FARM, VA US</displayName>
    <minDate>1977-07-01</minDate>
    <maxDate>1979-09-30</maxDate>
    <latitude>38.21667</latitude>
    <longitude>-79.73333</longitude>
    <elevation>634</elevation>
    <locationLabels>
      <type>CNTRY</type>
      <id>FIPS:US</id>
      <displayName>United States</displayName>
    </locationLabels>
    <coverage>0.5584</coverage>
  </station>
  <station>
    <id>GHCND:US1NCPK0011</id>
    <displayName>MILL SPRING 1.9 NW, NC US</displayName>
    <minDate>2008-11-18</minDate>
    <maxDate>2012-05-15</maxDate>
    <latitude>35.3195</latitude>
    <longitude>-82.1826</longitude>
    <elevation>345.9</elevation>
    <locationLabels>
      <type>CNTRY</type>
      <id>FIPS:US</id>
      <displayName>United States</displayName>
    </locationLabels>
    <coverage>0.3122</coverage>
  </station>
  <station>
    <id>GHCND:US1CAMR0013</id>
    <displayName>MILL VALLEY 1.5 S, CA US</displayName>
    <minDate>2010-10-18</minDate>
    <maxDate>2013-01-16</maxDate>
    <latitude>37.8863</latitude>
    <longitude>-122.544</longitude>
    <elevation>63.7</elevation>
    <locationLabels>
      <type>CNTRY</type>
      <id>FIPS:US</id>
      <displayName>United States</displayName>
    </locationLabels>
    <coverage>0.8796</coverage>
  </station>
  <station>
    <id>GHCND:US1ALEL0024</id>
    <displayName>MILLBROOK 1.7 NW, AL US</displayName>
    <minDate>2010-06-01</minDate>
    <maxDate>2013-01-16</maxDate>
    <latitude>32.5149</latitude>
    <longitude>-86.3851</longitude>
    <elevation>117</elevation>
    <locationLabels>
      <type>CNTRY</type>
      <id>FIPS:US</id>
      <displayName>United States</displayName>
    </locationLabels>
    <coverage>0.9646</coverage>
  </station>
  <station>
    <id>GHCND:US1ALEL0014</id>
    <displayName>MILLBROOK 2.2 NW, AL US</displayName>
    <minDate>2008-05-16</minDate>
    <maxDate>2013-01-16</maxDate>
    <latitude>32.5127</latitude>
    <longitude>-86.3996</longitude>
    <elevation>124.7</elevation>
    <locationLabels>
      <type>CNTRY</type>
      <id>FIPS:US</id>
      <displayName>United States</displayName>
    </locationLabels>
    <coverage>0.7001</coverage>
  </station>
  <station>
    <id>GHCND:US1ALEL0006</id>
    <displayName>MILLBROOK 2.3 NW, AL US</displayName>
    <minDate>2007-12-04</minDate>
    <maxDate>2011-08-09</maxDate>
    <latitude>32.5161</latitude>
    <longitude>-86.3972</longitude>
    <elevation>115.2</elevation>
    <locationLabels>
      <type>CNTRY</type>
      <id>FIPS:US</id>
      <displayName>United States</displayName>
    </locationLabels>
    <coverage>0.1613</coverage>
  </station>
  <station>
    <id>GHCND:USW00064756</id>
    <displayName>MILLBROOK 3 W, NY US</displayName>
    <minDate>2004-11-02</minDate>
    <maxDate>2013-01-15</maxDate>
    <latitude>41.7857</latitude>
    <longitude>-73.7422</longitude>
    <elevation>125.9</elevation>
    <locationLabels>
      <type>CNTRY</type>
      <id>FIPS:US</id>
      <displayName>United States</displayName>
    </locationLabels>
    <coverage>0.9917</coverage>
  </station>
  <station>
    <id>GHCND:US1NYDT0008</id>
    <displayName>MILLBROOK 3.2 SE, NY US</displayName>
    <minDate>2011-11-01</minDate>
    <maxDate>2013-01-16</maxDate>
    <latitude>41.7523</latitude>
    <longitude>-73.6488</longitude>
    <elevation>312.1</elevation>
    <locationLabels>
      <type>CNTRY</type>
      <id>FIPS:US</id>
      <displayName>United States</displayName>
    </locationLabels>
    <coverage>0.9481</coverage>
  </station>
  <station>
    <id>GHCND:US1ALEL0005</id>
    <displayName>MILLBROOK 3.3 N, AL US</displayName>
    <minDate>2007-11-01</minDate>
    <maxDate>2013-01-16</maxDate>
    <latitude>32.5422</latitude>
    <longitude>-86.3783</longitude>
    <elevation>100</elevation>
    <locationLabels>
      <type>CNTRY</type>
      <id>FIPS:US</id>
      <displayName>United States</displayName>
    </locationLabels>
    <coverage>0.8403</coverage>
  </station>
  <station>
    <id>GHCND:US1ALEL0004</id>
    <displayName>MILLBROOK 4.0 NNW, AL US</displayName>
    <minDate>2007-11-05</minDate>
    <maxDate>2013-01-16</maxDate>
    <latitude>32.5504</latitude>
    <longitude>-86.3845</longitude>
    <elevation>120.1</elevation>
    <locationLabels>
      <type>CNTRY</type>
      <id>FIPS:US</id>
      <displayName>United States</displayName>
    </locationLabels>
    <coverage>0.8611</coverage>
  </station>
</stationCollection>
