<?xml version="1.0" encoding="UTF-8" standalone="yes"?>
<stationCollection totalCount="46020" pageCount="461" pageSize="100" page="388">
  <station>
    <id>GHCND:US1NYST0003</id>
    <displayName>SOUTH CORNING 4.7 S, NY US</displayName>
    <minDate>2007-11-01</minDate>
    <maxDate>2013-01-16</maxDate>
    <latitude>42.0567</latitude>
    <longitude>-77.0485</longitude>
    <elevation>527.3</elevation>
    <locationLabels>
      <type>CNTRY</type>
      <id>FIPS:US</id>
      <displayName>United States</displayName>
    </locationLabels>
    <coverage>0.9154</coverage>
  </station>
  <station>
    <id>GHCND:USC00408158</id>
    <displayName>SOUTH CUMBERLAND STATE PARK, TN US</displayName>
    <minDate>2004-08-01</minDate>
    <maxDate>2005-12-31</maxDate>
    <latitude>35.25694</latitude>
    <longitude>-85.79083</longitude>
    <elevation>548.6</elevation>
    <locationLabels>
      <type>CNTRY</type>
      <id>FIPS:US</id>
      <displayName>United States</displayName>
    </locationLabels>
    <coverage>0.9324</coverage>
  </station>
  <station>
    <id>GHCND:USC00277967</id>
    <displayName>SOUTH DANBURY, NH US</displayName>
    <minDate>1942-08-01</minDate>
    <maxDate>1981-10-31</maxDate>
    <latitude>43.5</latitude>
    <longitude>-71.9</longitude>
    <elevation>284.1</elevation>
    <locationLabels>
      <type>CNTRY</type>
      <id>FIPS:US</id>
      <displayName>United States</displayName>
    </locationLabels>
    <coverage>0.9883</coverage>
  </station>
  <station>
    <id>GHCND:USC00357940</id>
    <displayName>SOUTH DEER CREEK, OR US</displayName>
    <minDate>1978-03-01</minDate>
    <maxDate>2012-10-31</maxDate>
    <latitude>43.1708</latitude>
    <longitude>-123.2247</longitude>
    <elevation>210.3</elevation>
    <locationLabels>
      <type>CNTRY</type>
      <id>FIPS:US</id>
      <displayName>United States</displayName>
    </locationLabels>
    <coverage>0.996</coverage>
  </station>
  <station>
    <id>GHCND:USC00197667</id>
    <displayName>SOUTH DENNIS, MA US</displayName>
    <minDate>1892-08-04</minDate>
    <maxDate>1894-09-30</maxDate>
    <latitude>41.689555</latitude>
    <longitude>-70.156408</longitude>
    <elevation>10.1</elevation>
    <locationLabels>
      <type>CNTRY</type>
      <id>FIPS:US</id>
      <displayName>United States</displayName>
    </locationLabels>
    <coverage>0.9454</coverage>
  </station>
  <station>
    <id>GHCND:USC00368303</id>
    <displayName>SOUTH EATON, PA US</displayName>
    <minDate>1893-12-01</minDate>
    <maxDate>1908-06-30</maxDate>
    <latitude>40.5</latitude>
    <longitude>-76.916667</longitude>
    <elevation>201.2</elevation>
    <locationLabels>
      <type>CNTRY</type>
      <id>FIPS:US</id>
      <displayName>United States</displayName>
    </locationLabels>
    <coverage>0.9854</coverage>
  </station>
  <station>
    <id>GHCND:USC00307940</id>
    <displayName>SOUTH EDMESTON, NY US</displayName>
    <minDate>1911-11-01</minDate>
    <maxDate>1916-02-29</maxDate>
    <latitude>42.683333</latitude>
    <longitude>-75.316667</longitude>
    <elevation>404.5</elevation>
    <locationLabels>
      <type>CNTRY</type>
      <id>FIPS:US</id>
      <displayName>United States</displayName>
    </locationLabels>
    <coverage>0.9987</coverage>
  </station>
  <station>
    <id>GHCND:USC00307944</id>
    <displayName>SOUTH EDWARDS 1 E, NY US</displayName>
    <minDate>1927-08-01</minDate>
    <maxDate>1978-02-28</maxDate>
    <latitude>44.26667</latitude>
    <longitude>-75.2</longitude>
    <elevation>244.1</elevation>
    <locationLabels>
      <type>CNTRY</type>
      <id>FIPS:US</id>
      <displayName>United States</displayName>
    </locationLabels>
    <coverage>0.9774</coverage>
  </station>
  <station>
    <id>GHCND:USC00197692</id>
    <displayName>SOUTH EGREMONT, MA US</displayName>
    <minDate>1902-03-01</minDate>
    <maxDate>1973-11-08</maxDate>
    <latitude>42.15</latitude>
    <longitude>-73.45</longitude>
    <elevation>256</elevation>
    <locationLabels>
      <type>CNTRY</type>
      <id>FIPS:US</id>
      <displayName>United States</displayName>
    </locationLabels>
    <coverage>0.7556</coverage>
  </station>
  <station>
    <id>GHCND:US1MEYK0020</id>
    <displayName>SOUTH ELIOT 0.7 WSW, ME US</displayName>
    <minDate>2009-12-18</minDate>
    <maxDate>2013-01-16</maxDate>
    <latitude>43.1234</latitude>
    <longitude>-70.8105</longitude>
    <elevation>5.5</elevation>
    <locationLabels>
      <type>CNTRY</type>
      <id>FIPS:US</id>
      <displayName>United States</displayName>
    </locationLabels>
    <coverage>0.7984</coverage>
  </station>
  <station>
    <id>GHCND:US1MEYK0014</id>
    <displayName>SOUTH ELIOT 3.1 NE, ME US</displayName>
    <minDate>2009-11-06</minDate>
    <maxDate>2013-01-09</maxDate>
    <latitude>43.1594</latitude>
    <longitude>-70.7546</longitude>
    <elevation>5.8</elevation>
    <locationLabels>
      <type>CNTRY</type>
      <id>FIPS:US</id>
      <displayName>United States</displayName>
    </locationLabels>
    <coverage>0.6503</coverage>
  </station>
  <station>
    <id>GHCND:USC00048380</id>
    <displayName>SOUTH ENTRANCE YOSEMITE NATIONAL PARK, CA US</displayName>
    <minDate>1941-07-01</minDate>
    <maxDate>2012-12-31</maxDate>
    <latitude>37.50722</latitude>
    <longitude>-119.63306</longitude>
    <elevation>1538.3</elevation>
    <locationLabels>
      <type>CNTRY</type>
      <id>FIPS:US</id>
      <displayName>United States</displayName>
    </locationLabels>
    <coverage>0.9446</coverage>
  </station>
  <station>
    <id>GHCND:US1PAAL0003</id>
    <displayName>SOUTH FAYETTE 2 SE, PA US</displayName>
    <minDate>2007-11-08</minDate>
    <maxDate>2012-12-23</maxDate>
    <latitude>40.3381</latitude>
    <longitude>-80.1159</longitude>
    <elevation>335.3</elevation>
    <locationLabels>
      <type>CNTRY</type>
      <id>FIPS:US</id>
      <displayName>United States</displayName>
    </locationLabels>
    <coverage>0.582</coverage>
  </station>
  <station>
    <id>GHCND:US1TXZV0012</id>
    <displayName>SOUTH FLOWING WELLS, TX US</displayName>
    <minDate>2008-07-24</minDate>
    <maxDate>2013-01-16</maxDate>
    <latitude>28.8062</latitude>
    <longitude>-99.9967</longitude>
    <elevation>185.9</elevation>
    <locationLabels>
      <type>CNTRY</type>
      <id>FIPS:US</id>
      <displayName>United States</displayName>
    </locationLabels>
    <coverage>0.9267</coverage>
  </station>
  <station>
    <id>GHCND:US1CORG0008</id>
    <displayName>SOUTH FORK 3.1 SW, CO US</displayName>
    <minDate>2005-07-18</minDate>
    <maxDate>2009-09-24</maxDate>
    <latitude>37.6258</latitude>
    <longitude>-106.6708</longitude>
    <elevation>2587.1</elevation>
    <locationLabels>
      <type>CNTRY</type>
      <id>FIPS:US</id>
      <displayName>United States</displayName>
    </locationLabels>
    <coverage>0.3392</coverage>
  </station>
  <station>
    <id>GHCND:US1CORG0005</id>
    <displayName>SOUTH FORK 4.1 SW, CO US</displayName>
    <minDate>2004-05-26</minDate>
    <maxDate>2011-07-12</maxDate>
    <latitude>37.6282</latitude>
    <longitude>-106.6728</longitude>
    <elevation>2575.9</elevation>
    <locationLabels>
      <type>CNTRY</type>
      <id>FIPS:US</id>
      <displayName>United States</displayName>
    </locationLabels>
    <coverage>0.8099</coverage>
  </station>
  <station>
    <id>GHCND:USS0022D03S</id>
    <displayName>SOUTH FORK BULL RUN, OR US</displayName>
    <minDate>1997-09-30</minDate>
    <maxDate>2013-01-13</maxDate>
    <latitude>45.45</latitude>
    <longitude>-122.0333</longitude>
    <elevation>801.6</elevation>
    <locationLabels>
      <type>CNTRY</type>
      <id>FIPS:US</id>
      <displayName>United States</displayName>
    </locationLabels>
    <coverage>0.9601</coverage>
  </station>
  <station>
    <id>GHCND:USC00047279</id>
    <displayName>SOUTH FORK CABIN, CA US</displayName>
    <minDate>1919-01-01</minDate>
    <maxDate>1959-12-31</maxDate>
    <latitude>34.06667</latitude>
    <longitude>-116.81667</longitude>
    <elevation>2172</elevation>
    <locationLabels>
      <type>CNTRY</type>
      <id>FIPS:US</id>
      <displayName>United States</displayName>
    </locationLabels>
    <coverage>0.8877</coverage>
  </station>
  <station>
    <id>GHCND:USC00048390</id>
    <displayName>SOUTH FORK CABIN, CA US</displayName>
    <minDate>1960-06-01</minDate>
    <maxDate>1963-12-31</maxDate>
    <latitude>34.06667</latitude>
    <longitude>-116.81667</longitude>
    <elevation>2172</elevation>
    <locationLabels>
      <type>CNTRY</type>
      <id>FIPS:US</id>
      <displayName>United States</displayName>
    </locationLabels>
    <coverage>0.9862</coverage>
  </station>
  <station>
    <id>GHCND:USR0000ISFK</id>
    <displayName>SOUTH FORK IDAHO, ID US</displayName>
    <minDate>1985-06-28</minDate>
    <maxDate>1990-10-16</maxDate>
    <latitude>45.2625</latitude>
    <longitude>-115.5083</longitude>
    <elevation>1645.9</elevation>
    <locationLabels>
      <type>CNTRY</type>
      <id>FIPS:US</id>
      <displayName>United States</displayName>
    </locationLabels>
    <coverage>0.445</coverage>
  </station>
  <station>
    <id>GHCND:USR0000MPRT</id>
    <displayName>SOUTH FORK MONTANA, MT US</displayName>
    <minDate>1989-03-13</minDate>
    <maxDate>1999-02-03</maxDate>
    <latitude>47.4111</latitude>
    <longitude>-107.6686</longitude>
    <elevation>876.3</elevation>
    <locationLabels>
      <type>CNTRY</type>
      <id>FIPS:US</id>
      <displayName>United States</displayName>
    </locationLabels>
    <coverage>0.992</coverage>
  </station>
  <station>
    <id>GHCND:USR0000OSFK</id>
    <displayName>SOUTH FORK OREGON, OR US</displayName>
    <minDate>1996-10-17</minDate>
    <maxDate>2012-08-31</maxDate>
    <latitude>45.5906</latitude>
    <longitude>-123.4761</longitude>
    <elevation>682.8</elevation>
    <locationLabels>
      <type>CNTRY</type>
      <id>FIPS:US</id>
      <displayName>United States</displayName>
    </locationLabels>
    <coverage>0.8512</coverage>
  </station>
  <station>
    <id>GHCND:USC00428070</id>
    <displayName>SOUTH FORK RANGER STATION, UT US</displayName>
    <minDate>1916-07-01</minDate>
    <maxDate>1928-08-14</maxDate>
    <latitude>40.45</latitude>
    <longitude>-111.666667</longitude>
    <elevation>1866.9</elevation>
    <locationLabels>
      <type>CNTRY</type>
      <id>FIPS:US</id>
      <displayName>United States</displayName>
    </locationLabels>
    <coverage>0.2019</coverage>
  </station>
  <station>
    <id>GHCND:USC00267690</id>
    <displayName>SOUTH FORK ST PARK, NV US</displayName>
    <minDate>1993-08-01</minDate>
    <maxDate>2012-12-31</maxDate>
    <latitude>40.6764</latitude>
    <longitude>-115.7451</longitude>
    <elevation>1606.3</elevation>
    <locationLabels>
      <type>CNTRY</type>
      <id>FIPS:US</id>
      <displayName>United States</displayName>
    </locationLabels>
    <coverage>0.9284</coverage>
  </station>
  <station>
    <id>GHCND:USC00508648</id>
    <displayName>SOUTH FORK, AK US</displayName>
    <minDate>1964-07-01</minDate>
    <maxDate>1971-11-30</maxDate>
    <latitude>61.28333</latitude>
    <longitude>-149.46667</longitude>
    <elevation>335.9</elevation>
    <locationLabels>
      <type>CNTRY</type>
      <id>FIPS:US</id>
      <displayName>United States</displayName>
    </locationLabels>
    <coverage>0.6582</coverage>
  </station>
  <station>
    <id>GHCND:USC00157547</id>
    <displayName>SOUTH FORK, KY US</displayName>
    <minDate>1893-01-01</minDate>
    <maxDate>1898-05-31</maxDate>
    <latitude>37.41667</latitude>
    <longitude>-83.66667</longitude>
    <elevation>299</elevation>
    <locationLabels>
      <type>CNTRY</type>
      <id>FIPS:US</id>
      <displayName>United States</displayName>
    </locationLabels>
    <coverage>0.9565</coverage>
  </station>
  <station>
    <id>GHCND:USC00298435</id>
    <displayName>SOUTH FORK, NM US</displayName>
    <minDate>1909-07-01</minDate>
    <maxDate>1913-08-31</maxDate>
    <latitude>36.583333</latitude>
    <longitude>-105.5</longitude>
    <elevation>2561.8</elevation>
    <locationLabels>
      <type>CNTRY</type>
      <id>FIPS:US</id>
      <displayName>United States</displayName>
    </locationLabels>
    <coverage>0.3802</coverage>
  </station>
  <station>
    <id>GHCND:US1MDAA0026</id>
    <displayName>SOUTH GATE 1.0 SW, MD US</displayName>
    <minDate>2008-04-26</minDate>
    <maxDate>2011-01-02</maxDate>
    <latitude>39.1184</latitude>
    <longitude>-76.6422</longitude>
    <elevation>36.6</elevation>
    <locationLabels>
      <type>CNTRY</type>
      <id>FIPS:US</id>
      <displayName>United States</displayName>
    </locationLabels>
    <coverage>0.9134</coverage>
  </station>
  <station>
    <id>GHCND:US1MDAA0012</id>
    <displayName>SOUTH GATE 1.1 SW, MD US</displayName>
    <minDate>2006-10-17</minDate>
    <maxDate>2007-12-28</maxDate>
    <latitude>39.1171</latitude>
    <longitude>-76.6403</longitude>
    <elevation>28</elevation>
    <locationLabels>
      <type>CNTRY</type>
      <id>FIPS:US</id>
      <displayName>United States</displayName>
    </locationLabels>
    <coverage>0.79</coverage>
  </station>
  <station>
    <id>GHCND:US1CALA0013</id>
    <displayName>SOUTH GATE 1.1 WNW, CA US</displayName>
    <minDate>2009-09-27</minDate>
    <maxDate>2012-04-26</maxDate>
    <latitude>33.9506</latitude>
    <longitude>-118.2089</longitude>
    <elevation>32.9</elevation>
    <locationLabels>
      <type>CNTRY</type>
      <id>FIPS:US</id>
      <displayName>United States</displayName>
    </locationLabels>
    <coverage>0.1145</coverage>
  </station>
  <station>
    <id>GHCND:US1MDAA0007</id>
    <displayName>SOUTH GATE 3.0 SSW, MD US</displayName>
    <minDate>2006-01-22</minDate>
    <maxDate>2013-01-16</maxDate>
    <latitude>39.0889</latitude>
    <longitude>-76.6492</longitude>
    <elevation>26.2</elevation>
    <locationLabels>
      <type>CNTRY</type>
      <id>FIPS:US</id>
      <displayName>United States</displayName>
    </locationLabels>
    <coverage>0.9871</coverage>
  </station>
  <station>
    <id>GHCND:US1FLSS0020</id>
    <displayName>SOUTH GATE RIDGE 0.5 E, FL US</displayName>
    <minDate>2008-01-24</minDate>
    <maxDate>2010-01-31</maxDate>
    <latitude>27.2856</latitude>
    <longitude>-82.4882</longitude>
    <elevation>13.1</elevation>
    <locationLabels>
      <type>CNTRY</type>
      <id>FIPS:US</id>
      <displayName>United States</displayName>
    </locationLabels>
    <coverage>0.9729</coverage>
  </station>
  <station>
    <id>GHCND:USC00348335</id>
    <displayName>SOUTH GRAND LAKE, OK US</displayName>
    <minDate>1942-04-01</minDate>
    <maxDate>1954-05-31</maxDate>
    <latitude>36.55</latitude>
    <longitude>-94.9</longitude>
    <elevation>232</elevation>
    <locationLabels>
      <type>CNTRY</type>
      <id>FIPS:US</id>
      <displayName>United States</displayName>
    </locationLabels>
    <coverage>0.9592</coverage>
  </station>
  <station>
    <id>GHCND:US1WYLM0054</id>
    <displayName>SOUTH GREELEY 6.2 SW, WY US</displayName>
    <minDate>2006-02-22</minDate>
    <maxDate>2013-01-16</maxDate>
    <latitude>41.0342</latitude>
    <longitude>-104.8907</longitude>
    <elevation>1904.1</elevation>
    <locationLabels>
      <type>CNTRY</type>
      <id>FIPS:US</id>
      <displayName>United States</displayName>
    </locationLabels>
    <coverage>0.8382</coverage>
  </station>
  <station>
    <id>GHCND:USC00197750</id>
    <displayName>SOUTH HANSON, MA US</displayName>
    <minDate>1919-05-09</minDate>
    <maxDate>1936-10-15</maxDate>
    <latitude>42.05</latitude>
    <longitude>-70.883333</longitude>
    <elevation>24.4</elevation>
    <locationLabels>
      <type>CNTRY</type>
      <id>FIPS:US</id>
      <displayName>United States</displayName>
    </locationLabels>
    <coverage>0.3452</coverage>
  </station>
  <station>
    <id>GHCND:US1INPT0036</id>
    <displayName>SOUTH HAVEN 0.4 ESE, IN US</displayName>
    <minDate>2006-09-09</minDate>
    <maxDate>2008-02-01</maxDate>
    <latitude>41.5408</latitude>
    <longitude>-87.127</longitude>
    <elevation>199.9</elevation>
    <locationLabels>
      <type>CNTRY</type>
      <id>FIPS:US</id>
      <displayName>United States</displayName>
    </locationLabels>
    <coverage>0.1996</coverage>
  </station>
  <station>
    <id>GHCND:US1INPT0009</id>
    <displayName>SOUTH HAVEN 1.6 E, IN US</displayName>
    <minDate>2006-08-31</minDate>
    <maxDate>2007-01-15</maxDate>
    <latitude>41.5442</latitude>
    <longitude>-87.1039</longitude>
    <elevation>203.9</elevation>
    <locationLabels>
      <type>CNTRY</type>
      <id>FIPS:US</id>
      <displayName>United States</displayName>
    </locationLabels>
    <coverage>0.9928</coverage>
  </station>
  <station>
    <id>GHCND:US1INPT0011</id>
    <displayName>SOUTH HAVEN 1.7 NNE, IN US</displayName>
    <minDate>2006-08-31</minDate>
    <maxDate>2007-10-15</maxDate>
    <latitude>41.5661</latitude>
    <longitude>-87.121</longitude>
    <elevation>192</elevation>
    <locationLabels>
      <type>CNTRY</type>
      <id>FIPS:US</id>
      <displayName>United States</displayName>
    </locationLabels>
    <coverage>0.8127</coverage>
  </station>
  <station>
    <id>GHCND:US1INPT0040</id>
    <displayName>SOUTH HAVEN 5.1 SSW, IN US</displayName>
    <minDate>2006-09-14</minDate>
    <maxDate>2008-09-11</maxDate>
    <latitude>41.4782</latitude>
    <longitude>-87.1813</longitude>
    <elevation>217.9</elevation>
    <locationLabels>
      <type>CNTRY</type>
      <id>FIPS:US</id>
      <displayName>United States</displayName>
    </locationLabels>
    <coverage>0.1893</coverage>
  </station>
  <station>
    <id>GHCND:USC00207688</id>
    <displayName>SOUTH HAVEN NUMBER 1, MI US</displayName>
    <minDate>1925-01-01</minDate>
    <maxDate>1927-12-31</maxDate>
    <latitude>42.51667</latitude>
    <longitude>-86.23333</longitude>
    <locationLabels>
      <type>CNTRY</type>
      <id>FIPS:US</id>
      <displayName>United States</displayName>
    </locationLabels>
    <coverage>0.2228</coverage>
  </station>
  <station>
    <id>GHCND:USC00207689</id>
    <displayName>SOUTH HAVEN NUMBER 2, MI US</displayName>
    <minDate>1924-05-01</minDate>
    <maxDate>1924-12-31</maxDate>
    <latitude>42.416667</latitude>
    <longitude>-86.183333</longitude>
    <locationLabels>
      <type>CNTRY</type>
      <id>FIPS:US</id>
      <displayName>United States</displayName>
    </locationLabels>
    <coverage>0.7469</coverage>
  </station>
  <station>
    <id>GHCND:USC00207690</id>
    <displayName>SOUTH HAVEN, MI US</displayName>
    <minDate>1895-09-01</minDate>
    <maxDate>2013-01-15</maxDate>
    <latitude>42.4013</latitude>
    <longitude>-86.2832</longitude>
    <elevation>189</elevation>
    <locationLabels>
      <type>CNTRY</type>
      <id>FIPS:US</id>
      <displayName>United States</displayName>
    </locationLabels>
    <coverage>0.9483</coverage>
  </station>
  <station>
    <id>GHCND:US1NDSK0003</id>
    <displayName>SOUTH HEART 4.9 WNW, ND US</displayName>
    <minDate>2011-06-17</minDate>
    <maxDate>2012-12-12</maxDate>
    <latitude>46.8904</latitude>
    <longitude>-103.0886</longitude>
    <elevation>774.2</elevation>
    <locationLabels>
      <type>CNTRY</type>
      <id>FIPS:US</id>
      <displayName>United States</displayName>
    </locationLabels>
    <coverage>0.6404</coverage>
  </station>
  <station>
    <id>GHCND:US1PAAL0012</id>
    <displayName>SOUTH HEIGHTS 1.5 S, PA US</displayName>
    <minDate>2008-12-19</minDate>
    <maxDate>2010-04-30</maxDate>
    <latitude>40.5533</latitude>
    <longitude>-80.2379</longitude>
    <elevation>324</elevation>
    <locationLabels>
      <type>CNTRY</type>
      <id>FIPS:US</id>
      <displayName>United States</displayName>
    </locationLabels>
    <coverage>0.5884</coverage>
  </station>
  <station>
    <id>GHCND:USC00437607</id>
    <displayName>SOUTH HERO, VT US</displayName>
    <minDate>1969-07-01</minDate>
    <maxDate>2012-11-30</maxDate>
    <latitude>44.6264</latitude>
    <longitude>-73.303</longitude>
    <elevation>33.5</elevation>
    <locationLabels>
      <type>CNTRY</type>
      <id>FIPS:US</id>
      <displayName>United States</displayName>
    </locationLabels>
    <coverage>0.9939</coverage>
  </station>
  <station>
    <id>GHCND:US1NYTM0012</id>
    <displayName>SOUTH HILL 0.4 ESE, NY US</displayName>
    <minDate>2008-04-14</minDate>
    <maxDate>2013-01-16</maxDate>
    <latitude>42.4087</latitude>
    <longitude>-76.4835</longitude>
    <elevation>362.1</elevation>
    <locationLabels>
      <type>CNTRY</type>
      <id>FIPS:US</id>
      <displayName>United States</displayName>
    </locationLabels>
    <coverage>0.6159</coverage>
  </station>
  <station>
    <id>GHCND:US1WAPR0027</id>
    <displayName>SOUTH HILL 3.3 WSW, WA US</displayName>
    <minDate>2008-06-01</minDate>
    <maxDate>2013-01-16</maxDate>
    <latitude>47.1303</latitude>
    <longitude>-122.3367</longitude>
    <elevation>144.2</elevation>
    <locationLabels>
      <type>CNTRY</type>
      <id>FIPS:US</id>
      <displayName>United States</displayName>
    </locationLabels>
    <coverage>0.7469</coverage>
  </station>
  <station>
    <id>GHCND:USC00017671</id>
    <displayName>SOUTH HILL, AL US</displayName>
    <minDate>1935-10-01</minDate>
    <maxDate>1962-03-31</maxDate>
    <latitude>34.4</latitude>
    <longitude>-86.03333</longitude>
    <elevation>342</elevation>
    <locationLabels>
      <type>CNTRY</type>
      <id>FIPS:US</id>
      <displayName>United States</displayName>
    </locationLabels>
    <coverage>0.9903</coverage>
  </station>
  <station>
    <id>GHCND:USC00408491</id>
    <displayName>SOUTH HOLSTON DAM, TN US</displayName>
    <minDate>1949-01-01</minDate>
    <maxDate>1962-03-31</maxDate>
    <latitude>36.51667</latitude>
    <longitude>-82.08333</longitude>
    <elevation>463.9</elevation>
    <locationLabels>
      <type>CNTRY</type>
      <id>FIPS:US</id>
      <displayName>United States</displayName>
    </locationLabels>
    <coverage>0.9872</coverage>
  </station>
  <station>
    <id>GHCND:US1TXHRR032</id>
    <displayName>SOUTH HOUSTON 4.0 SSW, TX US</displayName>
    <minDate>2008-10-13</minDate>
    <maxDate>2013-01-15</maxDate>
    <latitude>29.6077</latitude>
    <longitude>-95.2561</longitude>
    <elevation>14.6</elevation>
    <locationLabels>
      <type>CNTRY</type>
      <id>FIPS:US</id>
      <displayName>United States</displayName>
    </locationLabels>
    <coverage>0.9364</coverage>
  </station>
  <station>
    <id>GHCND:US1KSRN0016</id>
    <displayName>SOUTH HUTCHINSON .7 NNE, KS US</displayName>
    <minDate>2007-01-21</minDate>
    <maxDate>2012-12-31</maxDate>
    <latitude>38.037</latitude>
    <longitude>-97.9392</longitude>
    <elevation>481</elevation>
    <locationLabels>
      <type>CNTRY</type>
      <id>FIPS:US</id>
      <displayName>United States</displayName>
    </locationLabels>
    <coverage>0.9517</coverage>
  </station>
  <station>
    <id>GHCND:US1KSRN0011</id>
    <displayName>SOUTH HUTCHINSON 10.5 S, KS US</displayName>
    <minDate>2006-04-05</minDate>
    <maxDate>2012-11-30</maxDate>
    <latitude>37.8787</latitude>
    <longitude>-97.9772</longitude>
    <elevation>456.9</elevation>
    <locationLabels>
      <type>CNTRY</type>
      <id>FIPS:US</id>
      <displayName>United States</displayName>
    </locationLabels>
    <coverage>0.889</coverage>
  </station>
  <station>
    <id>GHCND:US1KSRN0023</id>
    <displayName>SOUTH HUTCHINSON 8.5 SSW, KS US</displayName>
    <minDate>1998-06-17</minDate>
    <maxDate>2008-07-31</maxDate>
    <latitude>37.9196</latitude>
    <longitude>-98.0149</longitude>
    <elevation>466</elevation>
    <locationLabels>
      <type>CNTRY</type>
      <id>FIPS:US</id>
      <displayName>United States</displayName>
    </locationLabels>
    <coverage>0.1455</coverage>
  </station>
  <station>
    <id>GHCND:US1ILMG0005</id>
    <displayName>SOUTH JACKSONVILLE 0.6 NW, IL US</displayName>
    <minDate>2008-04-01</minDate>
    <maxDate>2011-11-12</maxDate>
    <latitude>39.713</latitude>
    <longitude>-90.238</longitude>
    <elevation>192.9</elevation>
    <locationLabels>
      <type>CNTRY</type>
      <id>FIPS:US</id>
      <displayName>United States</displayName>
    </locationLabels>
    <coverage>0.7237</coverage>
  </station>
  <station>
    <id>GHCND:USC00518652</id>
    <displayName>SOUTH KONA 2 2.32, HI US</displayName>
    <minDate>1989-06-01</minDate>
    <maxDate>2013-01-14</maxDate>
    <latitude>19.0826</latitude>
    <longitude>-155.7532</longitude>
    <elevation>646.5</elevation>
    <locationLabels>
      <type>CNTRY</type>
      <id>FIPS:US</id>
      <displayName>United States</displayName>
    </locationLabels>
    <coverage>0.9735</coverage>
  </station>
  <station>
    <id>GHCND:USC00518650</id>
    <displayName>SOUTH KONA 2.31, HI US</displayName>
    <minDate>1977-01-01</minDate>
    <maxDate>1989-04-30</maxDate>
    <latitude>19.1</latitude>
    <longitude>-155.75</longitude>
    <elevation>823.3</elevation>
    <locationLabels>
      <type>CNTRY</type>
      <id>FIPS:US</id>
      <displayName>United States</displayName>
    </locationLabels>
    <coverage>0.9933</coverage>
  </station>
  <station>
    <id>GHCND:US1NYDL0022</id>
    <displayName>SOUTH KORTRIGHT 0.8 W, NY US</displayName>
    <minDate>2011-07-03</minDate>
    <maxDate>2013-01-16</maxDate>
    <latitude>42.3442</latitude>
    <longitude>-74.7317</longitude>
    <elevation>457.2</elevation>
    <locationLabels>
      <type>CNTRY</type>
      <id>FIPS:US</id>
      <displayName>United States</displayName>
    </locationLabels>
    <coverage>0.9823</coverage>
  </station>
  <station>
    <id>GHCND:USC00178010</id>
    <displayName>SOUTH LAGRANGE, ME US</displayName>
    <minDate>1903-03-01</minDate>
    <maxDate>1905-03-31</maxDate>
    <latitude>45.116667</latitude>
    <longitude>-68.816667</longitude>
    <elevation>57</elevation>
    <locationLabels>
      <type>CNTRY</type>
      <id>FIPS:US</id>
      <displayName>United States</displayName>
    </locationLabels>
    <coverage>0.8018</coverage>
  </station>
  <station>
    <id>GHCND:USW00093230</id>
    <displayName>SOUTH LAKE TAHOE AIRPORT, CA US</displayName>
    <minDate>1968-05-01</minDate>
    <maxDate>2013-01-15</maxDate>
    <latitude>38.8983</latitude>
    <longitude>-119.9947</longitude>
    <elevation>1924.5</elevation>
    <locationLabels>
      <type>CNTRY</type>
      <id>FIPS:US</id>
      <displayName>United States</displayName>
    </locationLabels>
    <coverage>0.9645</coverage>
  </station>
  <station>
    <id>GHCND:USC00048406</id>
    <displayName>SOUTH LAKE, CA US</displayName>
    <minDate>1924-12-01</minDate>
    <maxDate>2010-12-31</maxDate>
    <latitude>37.1683</latitude>
    <longitude>-118.5705</longitude>
    <elevation>2920</elevation>
    <locationLabels>
      <type>CNTRY</type>
      <id>FIPS:US</id>
      <displayName>United States</displayName>
    </locationLabels>
    <coverage>0.6089</coverage>
  </station>
  <station>
    <id>GHCND:US1MDPG0010</id>
    <displayName>SOUTH LAUREL 0.7 SSE, MD US</displayName>
    <minDate>2006-05-01</minDate>
    <maxDate>2006-08-31</maxDate>
    <latitude>39.0596</latitude>
    <longitude>-76.8462</longitude>
    <elevation>68</elevation>
    <locationLabels>
      <type>CNTRY</type>
      <id>FIPS:US</id>
      <displayName>United States</displayName>
    </locationLabels>
    <coverage>0.8943</coverage>
  </station>
  <station>
    <id>GHCND:USC00437612</id>
    <displayName>SOUTH LINCOLN, VT US</displayName>
    <minDate>1981-03-01</minDate>
    <maxDate>2013-01-16</maxDate>
    <latitude>44.0725</latitude>
    <longitude>-72.9736</longitude>
    <elevation>408.7</elevation>
    <locationLabels>
      <type>CNTRY</type>
      <id>FIPS:US</id>
      <displayName>United States</displayName>
    </locationLabels>
    <coverage>0.9275</coverage>
  </station>
  <station>
    <id>GHCND:USC00437617</id>
    <displayName>SOUTH LONDONDERRY, VT US</displayName>
    <minDate>1930-05-01</minDate>
    <maxDate>1984-03-31</maxDate>
    <latitude>43.18333</latitude>
    <longitude>-72.81667</longitude>
    <elevation>320</elevation>
    <locationLabels>
      <type>CNTRY</type>
      <id>FIPS:US</id>
      <displayName>United States</displayName>
    </locationLabels>
    <coverage>0.7809</coverage>
  </station>
  <station>
    <id>GHCND:USC00278081</id>
    <displayName>SOUTH LYNDEBORO, NH US</displayName>
    <minDate>1944-11-01</minDate>
    <maxDate>1999-01-31</maxDate>
    <latitude>42.88333</latitude>
    <longitude>-71.78333</longitude>
    <elevation>198.1</elevation>
    <locationLabels>
      <type>CNTRY</type>
      <id>FIPS:US</id>
      <displayName>United States</displayName>
    </locationLabels>
    <coverage>0.9328</coverage>
  </station>
  <station>
    <id>GHCND:US1FLMD0030</id>
    <displayName>SOUTH MIAMI 0.5 N, FL US</displayName>
    <minDate>2011-01-01</minDate>
    <maxDate>2013-01-14</maxDate>
    <latitude>25.7156</latitude>
    <longitude>-80.2968</longitude>
    <elevation>1.2</elevation>
    <locationLabels>
      <type>CNTRY</type>
      <id>FIPS:US</id>
      <displayName>United States</displayName>
    </locationLabels>
    <coverage>0.9638</coverage>
  </station>
  <station>
    <id>GHCND:USC00088396</id>
    <displayName>SOUTH MIAMI 5 W, FL US</displayName>
    <minDate>1954-07-01</minDate>
    <maxDate>1974-12-31</maxDate>
    <latitude>25.7</latitude>
    <longitude>-80.35</longitude>
    <elevation>24.1</elevation>
    <locationLabels>
      <type>CNTRY</type>
      <id>FIPS:US</id>
      <displayName>United States</displayName>
    </locationLabels>
    <coverage>0.951</coverage>
  </station>
  <station>
    <id>GHCND:US1FLMD0010</id>
    <displayName>SOUTH MIAMI HEIGHTS 1.3 SSW, FL US</displayName>
    <minDate>2007-12-07</minDate>
    <maxDate>2010-04-29</maxDate>
    <latitude>25.5715</latitude>
    <longitude>-80.3948</longitude>
    <elevation>7</elevation>
    <locationLabels>
      <type>CNTRY</type>
      <id>FIPS:US</id>
      <displayName>United States</displayName>
    </locationLabels>
    <coverage>0.3349</coverage>
  </station>
  <station>
    <id>GHCND:USC00477964</id>
    <displayName>SOUTH MILWAUKEE WWTP, WI US</displayName>
    <minDate>2006-08-01</minDate>
    <maxDate>2013-01-16</maxDate>
    <latitude>42.9011</latitude>
    <longitude>-87.8494</longitude>
    <elevation>198.1</elevation>
    <locationLabels>
      <type>CNTRY</type>
      <id>FIPS:US</id>
      <displayName>United States</displayName>
    </locationLabels>
    <coverage>0.9881</coverage>
  </station>
  <station>
    <id>GHCND:USS0016G01S</id>
    <displayName>SOUTH MOUNTAIN, ID US</displayName>
    <minDate>1980-10-01</minDate>
    <maxDate>2013-01-13</maxDate>
    <latitude>42.7667</latitude>
    <longitude>-116.9</longitude>
    <elevation>1981.2</elevation>
    <locationLabels>
      <type>CNTRY</type>
      <id>FIPS:US</id>
      <displayName>United States</displayName>
    </locationLabels>
    <coverage>0.8656</coverage>
  </station>
  <station>
    <id>GHCND:USC00368308</id>
    <displayName>SOUTH MOUNTAIN, PA US</displayName>
    <minDate>1940-05-23</minDate>
    <maxDate>2013-01-16</maxDate>
    <latitude>39.8582</latitude>
    <longitude>-77.4774</longitude>
    <elevation>463.3</elevation>
    <locationLabels>
      <type>CNTRY</type>
      <id>FIPS:US</id>
      <displayName>United States</displayName>
    </locationLabels>
    <coverage>0.9835</coverage>
  </station>
  <station>
    <id>GHCND:USC00408506</id>
    <displayName>SOUTH NASHVILLE, TN US</displayName>
    <minDate>1949-01-01</minDate>
    <maxDate>1962-03-31</maxDate>
    <latitude>36.16667</latitude>
    <longitude>-86.71667</longitude>
    <elevation>131.1</elevation>
    <locationLabels>
      <type>CNTRY</type>
      <id>FIPS:US</id>
      <displayName>United States</displayName>
    </locationLabels>
    <coverage>0.987</coverage>
  </station>
  <station>
    <id>GHCND:USC00308006</id>
    <displayName>SOUTH NEW BERLIN 5 N, NY US</displayName>
    <minDate>1956-04-01</minDate>
    <maxDate>1957-09-30</maxDate>
    <latitude>42.6</latitude>
    <longitude>-75.43333</longitude>
    <elevation>537.1</elevation>
    <locationLabels>
      <type>CNTRY</type>
      <id>FIPS:US</id>
      <displayName>United States</displayName>
    </locationLabels>
    <coverage>0.9453</coverage>
  </station>
  <station>
    <id>GHCND:USC00307998</id>
    <displayName>SOUTH NEW BERLIN, NY US</displayName>
    <minDate>1948-05-02</minDate>
    <maxDate>1951-09-30</maxDate>
    <latitude>42.53333</latitude>
    <longitude>-75.43333</longitude>
    <elevation>430.1</elevation>
    <locationLabels>
      <type>CNTRY</type>
      <id>FIPS:US</id>
      <displayName>United States</displayName>
    </locationLabels>
    <coverage>0.923</coverage>
  </station>
  <station>
    <id>GHCND:USC00337854</id>
    <displayName>SOUTH NEW LYME, OH US</displayName>
    <minDate>1950-10-01</minDate>
    <maxDate>1951-09-30</maxDate>
    <latitude>41.58333</latitude>
    <longitude>-80.8</longitude>
    <elevation>274.9</elevation>
    <locationLabels>
      <type>CNTRY</type>
      <id>FIPS:US</id>
      <displayName>United States</displayName>
    </locationLabels>
    <coverage>0.7014</coverage>
  </station>
  <station>
    <id>GHCND:USC00437646</id>
    <displayName>SOUTH NEWBURY, VT US</displayName>
    <minDate>1936-10-01</minDate>
    <maxDate>2012-03-31</maxDate>
    <latitude>44.0503</latitude>
    <longitude>-72.0753</longitude>
    <elevation>143.3</elevation>
    <locationLabels>
      <type>CNTRY</type>
      <id>FIPS:US</id>
      <displayName>United States</displayName>
    </locationLabels>
    <coverage>0.9079</coverage>
  </station>
  <station>
    <id>GHCND:US1UTWB0008</id>
    <displayName>SOUTH OGDEN 1.2 ESE, UT US</displayName>
    <minDate>2009-09-15</minDate>
    <maxDate>2012-12-27</maxDate>
    <latitude>41.1682</latitude>
    <longitude>-111.9364</longitude>
    <elevation>1487.4</elevation>
    <locationLabels>
      <type>CNTRY</type>
      <id>FIPS:US</id>
      <displayName>United States</displayName>
    </locationLabels>
    <coverage>0.125</coverage>
  </station>
  <station>
    <id>GHCND:US1UTWB0005</id>
    <displayName>SOUTH OGDEN 1.4 SSE, UT US</displayName>
    <minDate>2008-07-01</minDate>
    <maxDate>2011-11-19</maxDate>
    <latitude>41.1549</latitude>
    <longitude>-111.9485</longitude>
    <elevation>1456.6</elevation>
    <locationLabels>
      <type>CNTRY</type>
      <id>FIPS:US</id>
      <displayName>United States</displayName>
    </locationLabels>
    <coverage>0.0841</coverage>
  </station>
  <station>
    <id>GHCND:US1UTWB0009</id>
    <displayName>SOUTH OGDEN 1.5 SSE, UT US</displayName>
    <minDate>2010-01-17</minDate>
    <maxDate>2011-12-01</maxDate>
    <latitude>41.1555</latitude>
    <longitude>-111.9429</longitude>
    <elevation>1455.4</elevation>
    <locationLabels>
      <type>CNTRY</type>
      <id>FIPS:US</id>
      <displayName>United States</displayName>
    </locationLabels>
    <coverage>0.4664</coverage>
  </station>
  <station>
    <id>GHCND:USC00457871</id>
    <displayName>SOUTH OLYMPIC TREE F, WA US</displayName>
    <minDate>1945-01-01</minDate>
    <maxDate>1956-08-31</maxDate>
    <latitude>47.23333</latitude>
    <longitude>-123.58333</longitude>
    <elevation>177.1</elevation>
    <locationLabels>
      <type>CNTRY</type>
      <id>FIPS:US</id>
      <displayName>United States</displayName>
    </locationLabels>
    <coverage>0.9998</coverage>
  </station>
  <station>
    <id>GHCND:USC00418487</id>
    <displayName>SOUTH PADRE ISLAND, TX US</displayName>
    <minDate>1992-02-01</minDate>
    <maxDate>2013-01-16</maxDate>
    <latitude>26.0815</latitude>
    <longitude>-97.1034</longitude>
    <elevation>1.5</elevation>
    <locationLabels>
      <type>CNTRY</type>
      <id>FIPS:US</id>
      <displayName>United States</displayName>
    </locationLabels>
    <coverage>0.9189</coverage>
  </station>
  <station>
    <id>GHCND:US1PAAL0023</id>
    <displayName>SOUTH PARK TOWNSHIP 0.2 NW, PA US</displayName>
    <minDate>2011-08-11</minDate>
    <maxDate>2012-02-25</maxDate>
    <latitude>40.2989</latitude>
    <longitude>-79.997</longitude>
    <elevation>313.3</elevation>
    <locationLabels>
      <type>CNTRY</type>
      <id>FIPS:US</id>
      <displayName>United States</displayName>
    </locationLabels>
    <coverage>0.6633</coverage>
  </station>
  <station>
    <id>GHCND:US1FLPN0017</id>
    <displayName>SOUTH PASADENA 0.6 E, FL US</displayName>
    <minDate>2007-10-18</minDate>
    <maxDate>2013-01-08</maxDate>
    <latitude>27.7532</latitude>
    <longitude>-82.7309</longitude>
    <elevation>0.6</elevation>
    <locationLabels>
      <type>CNTRY</type>
      <id>FIPS:US</id>
      <displayName>United States</displayName>
    </locationLabels>
    <coverage>0.9586</coverage>
  </station>
  <station>
    <id>GHCND:US1FLPN0006</id>
    <displayName>SOUTH PASADENA 1.0 NE, FL US</displayName>
    <minDate>2007-09-27</minDate>
    <maxDate>2013-01-16</maxDate>
    <latitude>27.7635</latitude>
    <longitude>-82.7315</longitude>
    <elevation>3.7</elevation>
    <locationLabels>
      <type>CNTRY</type>
      <id>FIPS:US</id>
      <displayName>United States</displayName>
    </locationLabels>
    <coverage>0.9938</coverage>
  </station>
  <station>
    <id>GHCND:USC00488410</id>
    <displayName>SOUTH PASS CITY 2 NW, WY US</displayName>
    <minDate>1988-05-01</minDate>
    <maxDate>1990-10-31</maxDate>
    <latitude>42.48333</latitude>
    <longitude>-108.81667</longitude>
    <elevation>2465.8</elevation>
    <locationLabels>
      <type>CNTRY</type>
      <id>FIPS:US</id>
      <displayName>United States</displayName>
    </locationLabels>
    <coverage>0.9923</coverage>
  </station>
  <station>
    <id>GHCND:USC00488385</id>
    <displayName>SOUTH PASS CITY, WY US</displayName>
    <minDate>1900-03-11</minDate>
    <maxDate>2012-09-30</maxDate>
    <latitude>42.46667</latitude>
    <longitude>-108.8</longitude>
    <elevation>2389.6</elevation>
    <locationLabels>
      <type>CNTRY</type>
      <id>FIPS:US</id>
      <displayName>United States</displayName>
    </locationLabels>
    <coverage>0.8078</coverage>
  </station>
  <station>
    <id>GHCND:USC00488423</id>
    <displayName>SOUTH PASS, WY US</displayName>
    <minDate>1986-07-01</minDate>
    <maxDate>1988-04-30</maxDate>
    <latitude>42.53333</latitude>
    <longitude>-108.76667</longitude>
    <elevation>2499.4</elevation>
    <locationLabels>
      <type>CNTRY</type>
      <id>FIPS:US</id>
      <displayName>United States</displayName>
    </locationLabels>
    <coverage>0.9254</coverage>
  </station>
  <station>
    <id>GHCND:USS0008G03S</id>
    <displayName>SOUTH PASS, WY US</displayName>
    <minDate>1985-10-01</minDate>
    <maxDate>2013-01-13</maxDate>
    <latitude>42.5667</latitude>
    <longitude>-108.8333</longitude>
    <elevation>2755.4</elevation>
    <locationLabels>
      <type>CNTRY</type>
      <id>FIPS:US</id>
      <displayName>United States</displayName>
    </locationLabels>
    <coverage>0.9719</coverage>
  </station>
  <station>
    <id>GHCND:USC00118091</id>
    <displayName>SOUTH PEKIN 2 E, IL US</displayName>
    <minDate>1999-10-01</minDate>
    <maxDate>2007-02-16</maxDate>
    <latitude>40.4918</latitude>
    <longitude>-89.598</longitude>
    <elevation>182.9</elevation>
    <locationLabels>
      <type>CNTRY</type>
      <id>FIPS:US</id>
      <displayName>United States</displayName>
    </locationLabels>
    <coverage>0.3349</coverage>
  </station>
  <station>
    <id>GHCND:USC00477980</id>
    <displayName>SOUTH PELICAN, WI US</displayName>
    <minDate>1948-01-01</minDate>
    <maxDate>1997-09-30</maxDate>
    <latitude>45.51778</latitude>
    <longitude>-89.20278</longitude>
    <elevation>487.7</elevation>
    <locationLabels>
      <type>CNTRY</type>
      <id>FIPS:US</id>
      <displayName>United States</displayName>
    </locationLabels>
    <coverage>0.9856</coverage>
  </station>
  <station>
    <id>GHCND:USC00023573</id>
    <displayName>SOUTH PHOENIX, AZ US</displayName>
    <minDate>1915-01-01</minDate>
    <maxDate>1960-08-31</maxDate>
    <latitude>33.3814</latitude>
    <longitude>-112.07</longitude>
    <elevation>352</elevation>
    <locationLabels>
      <type>CNTRY</type>
      <id>FIPS:US</id>
      <displayName>United States</displayName>
    </locationLabels>
    <coverage>0.9391</coverage>
  </station>
  <station>
    <id>GHCND:USC00028112</id>
    <displayName>SOUTH PHOENIX, AZ US</displayName>
    <minDate>1961-01-01</minDate>
    <maxDate>2007-05-31</maxDate>
    <latitude>33.3814</latitude>
    <longitude>-112.07</longitude>
    <elevation>352</elevation>
    <locationLabels>
      <type>CNTRY</type>
      <id>FIPS:US</id>
      <displayName>United States</displayName>
    </locationLabels>
    <coverage>0.9914</coverage>
  </station>
  <station>
    <id>GHCND:US1NJMD0044</id>
    <displayName>SOUTH PLAINFIELD 0.7 NNW, NJ US</displayName>
    <minDate>2012-07-06</minDate>
    <maxDate>2012-11-27</maxDate>
    <latitude>40.5836</latitude>
    <longitude>-74.4201</longitude>
    <elevation>18</elevation>
    <locationLabels>
      <type>CNTRY</type>
      <id>FIPS:US</id>
      <displayName>United States</displayName>
    </locationLabels>
    <coverage>1</coverage>
  </station>
  <station>
    <id>GHCND:US1NJMD0023</id>
    <displayName>SOUTH PLAINFIELD 0.8 ENE, NJ US</displayName>
    <minDate>2009-10-26</minDate>
    <maxDate>2013-01-10</maxDate>
    <latitude>40.5789</latitude>
    <longitude>-74.4014</longitude>
    <elevation>22.3</elevation>
    <locationLabels>
      <type>CNTRY</type>
      <id>FIPS:US</id>
      <displayName>United States</displayName>
    </locationLabels>
    <coverage>0.6786</coverage>
  </station>
  <station>
    <id>GHCND:US1NJMD0033</id>
    <displayName>SOUTH PLAINFIELD 0.9 NW, NJ US</displayName>
    <minDate>2011-10-16</minDate>
    <maxDate>2012-12-31</maxDate>
    <latitude>40.5835</latitude>
    <longitude>-74.4284</longitude>
    <elevation>18.9</elevation>
    <locationLabels>
      <type>CNTRY</type>
      <id>FIPS:US</id>
      <displayName>United States</displayName>
    </locationLabels>
    <coverage>0.9391</coverage>
  </station>
  <station>
    <id>GHCND:US1TXFL0002</id>
    <displayName>SOUTH PLAINS 2.0 ENE, TX US</displayName>
    <minDate>2010-08-19</minDate>
    <maxDate>2013-01-16</maxDate>
    <latitude>34.232</latitude>
    <longitude>-101.276</longitude>
    <elevation>972.6</elevation>
    <locationLabels>
      <type>CNTRY</type>
      <id>FIPS:US</id>
      <displayName>United States</displayName>
    </locationLabels>
    <coverage>0.2744</coverage>
  </station>
  <station>
    <id>GHCND:USC00057816</id>
    <displayName>SOUTH PLATTE, CO US</displayName>
    <minDate>1978-05-01</minDate>
    <maxDate>1995-05-31</maxDate>
    <latitude>39.4</latitude>
    <longitude>-105.18333</longitude>
    <elevation>1888.8</elevation>
    <locationLabels>
      <type>CNTRY</type>
      <id>FIPS:US</id>
      <displayName>United States</displayName>
    </locationLabels>
    <coverage>0.9534</coverage>
  </station>
  <station>
    <id>GHCND:USC00518675</id>
    <displayName>SOUTH POINT CORRAL 3, HI US</displayName>
    <minDate>1950-01-01</minDate>
    <maxDate>1978-04-30</maxDate>
    <latitude>18.95</latitude>
    <longitude>-155.68333</longitude>
    <elevation>153</elevation>
    <locationLabels>
      <type>CNTRY</type>
      <id>FIPS:US</id>
      <displayName>United States</displayName>
    </locationLabels>
    <coverage>0.9812</coverage>
  </station>
  <station>
    <id>GHCND:USC00337857</id>
    <displayName>SOUTH POINT, OH US</displayName>
    <minDate>1990-08-01</minDate>
    <maxDate>2013-01-16</maxDate>
    <latitude>38.4239</latitude>
    <longitude>-82.5936</longitude>
    <elevation>168.6</elevation>
    <locationLabels>
      <type>CNTRY</type>
      <id>FIPS:US</id>
      <displayName>United States</displayName>
    </locationLabels>
    <coverage>0.9882</coverage>
  </station>
  <station>
    <id>GHCND:US1MIMR0003</id>
    <displayName>SOUTH ROCKWOOD 2.0 S, MI US</displayName>
    <minDate>2008-10-07</minDate>
    <maxDate>2012-09-21</maxDate>
    <latitude>42.0335</latitude>
    <longitude>-83.2641</longitude>
    <elevation>178.6</elevation>
    <locationLabels>
      <type>CNTRY</type>
      <id>FIPS:US</id>
      <displayName>United States</displayName>
    </locationLabels>
    <coverage>0.3624</coverage>
  </station>
  <station>
    <id>GHCND:US1ILMD0015</id>
    <displayName>SOUTH ROXANA 0.4 NNE, IL US</displayName>
    <minDate>2007-10-01</minDate>
    <maxDate>2010-12-02</maxDate>
    <latitude>38.8275</latitude>
    <longitude>-90.0578</longitude>
    <elevation>134.1</elevation>
    <locationLabels>
      <type>CNTRY</type>
      <id>FIPS:US</id>
      <displayName>United States</displayName>
    </locationLabels>
    <coverage>0.2433</coverage>
  </station>
</stationCollection>
