<?xml version="1.0" encoding="UTF-8" standalone="yes"?>
<stationCollection totalCount="46020" pageCount="461" pageSize="100" page="237">
  <station>
    <id>GHCND:USC00124902</id>
    <displayName>LEAVENWORTH 2 NW, IN US</displayName>
    <minDate>2012-02-04</minDate>
    <maxDate>2012-11-30</maxDate>
    <latitude>38.215</latitude>
    <longitude>-86.3661</longitude>
    <elevation>215.8</elevation>
    <locationLabels>
      <type>CNTRY</type>
      <id>FIPS:US</id>
      <displayName>United States</displayName>
    </locationLabels>
    <coverage>0.5648</coverage>
  </station>
  <station>
    <id>GHCND:USC00144586</id>
    <displayName>LEAVENWORTH 2, KS US</displayName>
    <minDate>1959-08-30</minDate>
    <maxDate>1981-10-31</maxDate>
    <latitude>39.3</latitude>
    <longitude>-94.9</longitude>
    <elevation>238</elevation>
    <locationLabels>
      <type>CNTRY</type>
      <id>FIPS:US</id>
      <displayName>United States</displayName>
    </locationLabels>
    <coverage>0.1763</coverage>
  </station>
  <station>
    <id>GHCND:USC00454572</id>
    <displayName>LEAVENWORTH 3 S, WA US</displayName>
    <minDate>1914-05-01</minDate>
    <maxDate>2012-12-31</maxDate>
    <latitude>47.5586</latitude>
    <longitude>-120.675</longitude>
    <elevation>343.8</elevation>
    <locationLabels>
      <type>CNTRY</type>
      <id>FIPS:US</id>
      <displayName>United States</displayName>
    </locationLabels>
    <coverage>0.8709</coverage>
  </station>
  <station>
    <id>GHCND:USC00144589</id>
    <displayName>LEAVENWORTH 3 SW, KS US</displayName>
    <minDate>2011-11-02</minDate>
    <maxDate>2012-11-30</maxDate>
    <latitude>39.2849</latitude>
    <longitude>-94.95</longitude>
    <elevation>265.5</elevation>
    <locationLabels>
      <type>CNTRY</type>
      <id>FIPS:US</id>
      <displayName>United States</displayName>
    </locationLabels>
    <coverage>0.967</coverage>
  </station>
  <station>
    <id>GHCND:USC00124900</id>
    <displayName>LEAVENWORTH DAM 44, KY US</displayName>
    <minDate>1925-10-01</minDate>
    <maxDate>1972-06-30</maxDate>
    <latitude>38.18333</latitude>
    <longitude>-86.33333</longitude>
    <elevation>128</elevation>
    <locationLabels>
      <type>CNTRY</type>
      <id>FIPS:US</id>
      <displayName>United States</displayName>
    </locationLabels>
    <coverage>0.9858</coverage>
  </station>
  <station>
    <id>GHCND:USC00144588</id>
    <displayName>LEAVENWORTH, KS US</displayName>
    <minDate>1891-12-01</minDate>
    <maxDate>2011-11-26</maxDate>
    <latitude>39.3255</latitude>
    <longitude>-94.9188</longitude>
    <elevation>265.2</elevation>
    <locationLabels>
      <type>CNTRY</type>
      <id>FIPS:US</id>
      <displayName>United States</displayName>
    </locationLabels>
    <coverage>0.8565</coverage>
  </station>
  <station>
    <id>GHCND:USS0019L38S</id>
    <displayName>LEAVITT LAKE, CA US</displayName>
    <minDate>1989-10-01</minDate>
    <maxDate>2013-01-13</maxDate>
    <latitude>38.2667</latitude>
    <longitude>-119.6167</longitude>
    <elevation>2865.1</elevation>
    <locationLabels>
      <type>CNTRY</type>
      <id>FIPS:US</id>
      <displayName>United States</displayName>
    </locationLabels>
    <coverage>0.818</coverage>
  </station>
  <station>
    <id>GHCND:USS0019L08S</id>
    <displayName>LEAVITT MEADOWS, CA US</displayName>
    <minDate>1980-10-01</minDate>
    <maxDate>2013-01-13</maxDate>
    <latitude>38.3333</latitude>
    <longitude>-119.55</longitude>
    <elevation>2194.6</elevation>
    <locationLabels>
      <type>CNTRY</type>
      <id>FIPS:US</id>
      <displayName>United States</displayName>
    </locationLabels>
    <coverage>0.8101</coverage>
  </station>
  <station>
    <id>GHCND:USC00254690</id>
    <displayName>LEAVITT, NE US</displayName>
    <minDate>1903-03-01</minDate>
    <maxDate>1909-07-31</maxDate>
    <latitude>41.483333</latitude>
    <longitude>-96.666667</longitude>
    <elevation>374.3</elevation>
    <locationLabels>
      <type>CNTRY</type>
      <id>FIPS:US</id>
      <displayName>United States</displayName>
    </locationLabels>
    <coverage>0.9275</coverage>
  </station>
  <station>
    <id>GHCND:USC00144596</id>
    <displayName>LEAWOOD, KS US</displayName>
    <minDate>1993-09-01</minDate>
    <maxDate>1998-12-31</maxDate>
    <latitude>38.94194</latitude>
    <longitude>-94.62944</longitude>
    <elevation>282.5</elevation>
    <locationLabels>
      <type>CNTRY</type>
      <id>FIPS:US</id>
      <displayName>United States</displayName>
    </locationLabels>
    <coverage>0.9482</coverage>
  </station>
  <station>
    <id>GHCND:US1OHWR0002</id>
    <displayName>LEBANON 0.3 NW, OH US</displayName>
    <minDate>2009-03-28</minDate>
    <maxDate>2012-09-22</maxDate>
    <latitude>39.4307</latitude>
    <longitude>-84.2166</longitude>
    <elevation>210.9</elevation>
    <locationLabels>
      <type>CNTRY</type>
      <id>FIPS:US</id>
      <displayName>United States</displayName>
    </locationLabels>
    <coverage>0.3475</coverage>
  </station>
  <station>
    <id>GHCND:US1NJHN0025</id>
    <displayName>LEBANON 0.5 E, NJ US</displayName>
    <minDate>2011-05-04</minDate>
    <maxDate>2012-12-30</maxDate>
    <latitude>40.6418</latitude>
    <longitude>-74.8249</longitude>
    <elevation>65.8</elevation>
    <locationLabels>
      <type>CNTRY</type>
      <id>FIPS:US</id>
      <displayName>United States</displayName>
    </locationLabels>
    <coverage>0.3624</coverage>
  </station>
  <station>
    <id>GHCND:US1INBN0023</id>
    <displayName>LEBANON 0.5 SSE, IN US</displayName>
    <minDate>2006-11-29</minDate>
    <maxDate>2007-12-12</maxDate>
    <latitude>40.0448</latitude>
    <longitude>-86.4705</longitude>
    <elevation>289.9</elevation>
    <locationLabels>
      <type>CNTRY</type>
      <id>FIPS:US</id>
      <displayName>United States</displayName>
    </locationLabels>
    <coverage>0.6834</coverage>
  </station>
  <station>
    <id>GHCND:US1MOLD0023</id>
    <displayName>LEBANON 0.6 N, MO US</displayName>
    <minDate>2012-03-20</minDate>
    <maxDate>2013-01-16</maxDate>
    <latitude>37.6799</latitude>
    <longitude>-92.6615</longitude>
    <elevation>387.7</elevation>
    <locationLabels>
      <type>CNTRY</type>
      <id>FIPS:US</id>
      <displayName>United States</displayName>
    </locationLabels>
    <coverage>0.9439</coverage>
  </station>
  <station>
    <id>GHCND:US1TNWN0051</id>
    <displayName>LEBANON 0.6 NNE, TN US</displayName>
    <minDate>2007-11-06</minDate>
    <maxDate>2013-01-16</maxDate>
    <latitude>36.2182</latitude>
    <longitude>-86.3186</longitude>
    <elevation>157.9</elevation>
    <locationLabels>
      <type>CNTRY</type>
      <id>FIPS:US</id>
      <displayName>United States</displayName>
    </locationLabels>
    <coverage>0.8957</coverage>
  </station>
  <station>
    <id>GHCND:US1INBN0034</id>
    <displayName>LEBANON 0.6 NNW, IN US</displayName>
    <minDate>2008-05-27</minDate>
    <maxDate>2010-05-22</maxDate>
    <latitude>40.0596</latitude>
    <longitude>-86.4785</longitude>
    <elevation>287.1</elevation>
    <locationLabels>
      <type>CNTRY</type>
      <id>FIPS:US</id>
      <displayName>United States</displayName>
    </locationLabels>
    <coverage>0.5372</coverage>
  </station>
  <station>
    <id>GHCND:US1OHWR0015</id>
    <displayName>LEBANON 0.7 S, OH US</displayName>
    <minDate>2012-04-27</minDate>
    <maxDate>2013-01-16</maxDate>
    <latitude>39.4164</latitude>
    <longitude>-84.2106</longitude>
    <elevation>260.6</elevation>
    <locationLabels>
      <type>CNTRY</type>
      <id>FIPS:US</id>
      <displayName>United States</displayName>
    </locationLabels>
    <coverage>0.9509</coverage>
  </station>
  <station>
    <id>GHCND:USC00444779</id>
    <displayName>LEBANON 1, VA US</displayName>
    <minDate>1909-10-01</minDate>
    <maxDate>1913-03-30</maxDate>
    <latitude>36.9</latitude>
    <longitude>-82.083333</longitude>
    <elevation>649.5</elevation>
    <locationLabels>
      <type>CNTRY</type>
      <id>FIPS:US</id>
      <displayName>United States</displayName>
    </locationLabels>
    <coverage>0.8966</coverage>
  </station>
  <station>
    <id>GHCND:US1ORLN0021</id>
    <displayName>LEBANON 1.0 S, OR US</displayName>
    <minDate>2008-02-20</minDate>
    <maxDate>2009-12-01</maxDate>
    <latitude>44.5204</latitude>
    <longitude>-122.9005</longitude>
    <elevation>109.1</elevation>
    <locationLabels>
      <type>CNTRY</type>
      <id>FIPS:US</id>
      <displayName>United States</displayName>
    </locationLabels>
    <coverage>0.6928</coverage>
  </station>
  <station>
    <id>GHCND:US1PALB0004</id>
    <displayName>LEBANON 1.0 SE, PA US</displayName>
    <minDate>2006-07-21</minDate>
    <maxDate>2007-03-13</maxDate>
    <latitude>40.3326</latitude>
    <longitude>-76.4079</longitude>
    <elevation>146.9</elevation>
    <locationLabels>
      <type>CNTRY</type>
      <id>FIPS:US</id>
      <displayName>United States</displayName>
    </locationLabels>
    <coverage>0.7119</coverage>
  </station>
  <station>
    <id>GHCND:US1PALB0003</id>
    <displayName>LEBANON 1.1 S, PA US</displayName>
    <minDate>2006-06-29</minDate>
    <maxDate>2010-03-14</maxDate>
    <latitude>40.3259</latitude>
    <longitude>-76.4267</longitude>
    <elevation>153</elevation>
    <locationLabels>
      <type>CNTRY</type>
      <id>FIPS:US</id>
      <displayName>United States</displayName>
    </locationLabels>
    <coverage>0.6797</coverage>
  </station>
  <station>
    <id>GHCND:US1ORLN0015</id>
    <displayName>LEBANON 1.1 WNW, OR US</displayName>
    <minDate>2008-01-02</minDate>
    <maxDate>2011-01-22</maxDate>
    <latitude>44.5417</latitude>
    <longitude>-122.9236</longitude>
    <elevation>98.5</elevation>
    <locationLabels>
      <type>CNTRY</type>
      <id>FIPS:US</id>
      <displayName>United States</displayName>
    </locationLabels>
    <coverage>0.4548</coverage>
  </station>
  <station>
    <id>GHCND:US1MOFSA105</id>
    <displayName>LEBANON 1.3 E, MO US</displayName>
    <minDate>2006-05-01</minDate>
    <maxDate>2013-01-14</maxDate>
    <latitude>37.6675</latitude>
    <longitude>-92.6366</longitude>
    <elevation>390.1</elevation>
    <locationLabels>
      <type>CNTRY</type>
      <id>FIPS:US</id>
      <displayName>United States</displayName>
    </locationLabels>
    <coverage>0.9943</coverage>
  </station>
  <station>
    <id>GHCND:US1INBN0024</id>
    <displayName>LEBANON 1.4 N, IN US</displayName>
    <minDate>2006-12-07</minDate>
    <maxDate>2008-05-08</maxDate>
    <latitude>40.0712</latitude>
    <longitude>-86.4718</longitude>
    <elevation>292.9</elevation>
    <locationLabels>
      <type>CNTRY</type>
      <id>FIPS:US</id>
      <displayName>United States</displayName>
    </locationLabels>
    <coverage>0.7938</coverage>
  </station>
  <station>
    <id>GHCND:US1ORLN0016</id>
    <displayName>LEBANON 1.4 SSW, OR US</displayName>
    <minDate>2007-12-27</minDate>
    <maxDate>2013-01-16</maxDate>
    <latitude>44.5164</latitude>
    <longitude>-122.9171</longitude>
    <elevation>109.1</elevation>
    <locationLabels>
      <type>CNTRY</type>
      <id>FIPS:US</id>
      <displayName>United States</displayName>
    </locationLabels>
    <coverage>0.9037</coverage>
  </station>
  <station>
    <id>GHCND:US1INBN0026</id>
    <displayName>LEBANON 1.7 NNE, IN US</displayName>
    <minDate>2006-12-14</minDate>
    <maxDate>2012-11-04</maxDate>
    <latitude>40.076</latitude>
    <longitude>-86.4651</longitude>
    <elevation>288</elevation>
    <locationLabels>
      <type>CNTRY</type>
      <id>FIPS:US</id>
      <displayName>United States</displayName>
    </locationLabels>
    <coverage>0.621</coverage>
  </station>
  <station>
    <id>GHCND:US1TNWN0008</id>
    <displayName>LEBANON 1.8 NW, TN US</displayName>
    <minDate>2007-04-02</minDate>
    <maxDate>2007-12-11</maxDate>
    <latitude>36.228</latitude>
    <longitude>-86.3449</longitude>
    <elevation>175</elevation>
    <locationLabels>
      <type>CNTRY</type>
      <id>FIPS:US</id>
      <displayName>United States</displayName>
    </locationLabels>
    <coverage>0.9921</coverage>
  </station>
  <station>
    <id>GHCND:US1TNWN0048</id>
    <displayName>LEBANON 10.5 ENE, TN US</displayName>
    <minDate>2007-11-13</minDate>
    <maxDate>2013-01-16</maxDate>
    <latitude>36.2801</latitude>
    <longitude>-86.1547</longitude>
    <elevation>178</elevation>
    <locationLabels>
      <type>CNTRY</type>
      <id>FIPS:US</id>
      <displayName>United States</displayName>
    </locationLabels>
    <coverage>0.9234</coverage>
  </station>
  <station>
    <id>GHCND:USC00234825</id>
    <displayName>LEBANON 2 W, MO US</displayName>
    <minDate>1893-01-01</minDate>
    <maxDate>2013-01-10</maxDate>
    <latitude>37.6849</latitude>
    <longitude>-92.6936</longitude>
    <elevation>389.8</elevation>
    <locationLabels>
      <type>CNTRY</type>
      <id>FIPS:US</id>
      <displayName>United States</displayName>
    </locationLabels>
    <coverage>0.9869</coverage>
  </station>
  <station>
    <id>GHCND:USC00364896</id>
    <displayName>LEBANON 2 W, PA US</displayName>
    <minDate>1948-05-01</minDate>
    <maxDate>2013-01-15</maxDate>
    <latitude>40.3333</latitude>
    <longitude>-76.4667</longitude>
    <elevation>137.2</elevation>
    <locationLabels>
      <type>CNTRY</type>
      <id>FIPS:US</id>
      <displayName>United States</displayName>
    </locationLabels>
    <coverage>0.7606</coverage>
  </station>
  <station>
    <id>GHCND:US1TNWN0011</id>
    <displayName>LEBANON 2.0 WNW, TN US</displayName>
    <minDate>2007-02-24</minDate>
    <maxDate>2012-01-31</maxDate>
    <latitude>36.2176</latitude>
    <longitude>-86.3571</longitude>
    <elevation>182</elevation>
    <locationLabels>
      <type>CNTRY</type>
      <id>FIPS:US</id>
      <displayName>United States</displayName>
    </locationLabels>
    <coverage>0.7377</coverage>
  </station>
  <station>
    <id>GHCND:US1MOLD0022</id>
    <displayName>LEBANON 2.4 E, MO US</displayName>
    <minDate>2012-03-23</minDate>
    <maxDate>2013-01-13</maxDate>
    <latitude>37.6642</latitude>
    <longitude>-92.6182</longitude>
    <elevation>387.4</elevation>
    <locationLabels>
      <type>CNTRY</type>
      <id>FIPS:US</id>
      <displayName>United States</displayName>
    </locationLabels>
    <coverage>0.8788</coverage>
  </station>
  <station>
    <id>GHCND:US1MOLD0021</id>
    <displayName>LEBANON 2.4 SE, MO US</displayName>
    <minDate>2012-03-09</minDate>
    <maxDate>2013-01-14</maxDate>
    <latitude>37.6458</latitude>
    <longitude>-92.6298</longitude>
    <elevation>383.1</elevation>
    <locationLabels>
      <type>CNTRY</type>
      <id>FIPS:US</id>
      <displayName>United States</displayName>
    </locationLabels>
    <coverage>0.9808</coverage>
  </station>
  <station>
    <id>GHCND:US1TNWN0081</id>
    <displayName>LEBANON 2.7 ENE, TN US</displayName>
    <minDate>2012-02-27</minDate>
    <maxDate>2012-10-01</maxDate>
    <latitude>36.2253</latitude>
    <longitude>-86.2785</longitude>
    <elevation>170.1</elevation>
    <locationLabels>
      <type>CNTRY</type>
      <id>FIPS:US</id>
      <displayName>United States</displayName>
    </locationLabels>
    <coverage>0.9541</coverage>
  </station>
  <station>
    <id>GHCND:US1TNWN0036</id>
    <displayName>LEBANON 2.7 SSE, TN US</displayName>
    <minDate>2007-07-03</minDate>
    <maxDate>2013-01-16</maxDate>
    <latitude>36.1498</latitude>
    <longitude>-86.306</longitude>
    <elevation>193.9</elevation>
    <locationLabels>
      <type>CNTRY</type>
      <id>FIPS:US</id>
      <displayName>United States</displayName>
    </locationLabels>
    <coverage>0.997</coverage>
  </station>
  <station>
    <id>GHCND:US1VARS0001</id>
    <displayName>LEBANON 2.7 SSW, VA US</displayName>
    <minDate>2009-11-24</minDate>
    <maxDate>2012-12-24</maxDate>
    <latitude>36.8607</latitude>
    <longitude>-82.0893</longitude>
    <elevation>804.7</elevation>
    <locationLabels>
      <type>CNTRY</type>
      <id>FIPS:US</id>
      <displayName>United States</displayName>
    </locationLabels>
    <coverage>0.63</coverage>
  </station>
  <station>
    <id>GHCND:US1NJHN0021</id>
    <displayName>LEBANON 2.8 N, NJ US</displayName>
    <minDate>2009-09-22</minDate>
    <maxDate>2013-01-16</maxDate>
    <latitude>40.6841</latitude>
    <longitude>-74.8389</longitude>
    <elevation>193.9</elevation>
    <locationLabels>
      <type>CNTRY</type>
      <id>FIPS:US</id>
      <displayName>United States</displayName>
    </locationLabels>
    <coverage>0.9695</coverage>
  </station>
  <station>
    <id>GHCND:US1TNWN0078</id>
    <displayName>LEBANON 3.0 W, TN US</displayName>
    <minDate>2011-11-27</minDate>
    <maxDate>2013-01-16</maxDate>
    <latitude>36.2158</latitude>
    <longitude>-86.3754</longitude>
    <elevation>220.4</elevation>
    <locationLabels>
      <type>CNTRY</type>
      <id>FIPS:US</id>
      <displayName>United States</displayName>
    </locationLabels>
    <coverage>0.4676</coverage>
  </station>
  <station>
    <id>GHCND:US1NJHN0019</id>
    <displayName>LEBANON 3.2 SW, NJ US</displayName>
    <minDate>2009-09-07</minDate>
    <maxDate>2013-01-13</maxDate>
    <latitude>40.6064</latitude>
    <longitude>-74.871</longitude>
    <elevation>83.8</elevation>
    <locationLabels>
      <type>CNTRY</type>
      <id>FIPS:US</id>
      <displayName>United States</displayName>
    </locationLabels>
    <coverage>0.9608</coverage>
  </station>
  <station>
    <id>GHCND:US1OHWR0014</id>
    <displayName>LEBANON 3.4 E, OH US</displayName>
    <minDate>2012-02-25</minDate>
    <maxDate>2013-01-16</maxDate>
    <latitude>39.4202</latitude>
    <longitude>-84.1493</longitude>
    <elevation>283.2</elevation>
    <locationLabels>
      <type>CNTRY</type>
      <id>FIPS:US</id>
      <displayName>United States</displayName>
    </locationLabels>
    <coverage>0.9847</coverage>
  </station>
  <station>
    <id>GHCND:US1INBN0033</id>
    <displayName>LEBANON 3.7 N, IN US</displayName>
    <minDate>2007-10-01</minDate>
    <maxDate>2012-11-30</maxDate>
    <latitude>40.1047</latitude>
    <longitude>-86.4725</longitude>
    <elevation>284.1</elevation>
    <locationLabels>
      <type>CNTRY</type>
      <id>FIPS:US</id>
      <displayName>United States</displayName>
    </locationLabels>
    <coverage>0.7251</coverage>
  </station>
  <station>
    <id>GHCND:US1INBN0018</id>
    <displayName>LEBANON 3.7 WNW, IN US</displayName>
    <minDate>2006-04-08</minDate>
    <maxDate>2007-09-16</maxDate>
    <latitude>40.081</latitude>
    <longitude>-86.5345</longitude>
    <elevation>277.1</elevation>
    <locationLabels>
      <type>CNTRY</type>
      <id>FIPS:US</id>
      <displayName>United States</displayName>
    </locationLabels>
    <coverage>0.8729</coverage>
  </station>
  <station>
    <id>GHCND:US1TNWN0012</id>
    <displayName>LEBANON 3.7 WNW, TN US</displayName>
    <minDate>2007-04-01</minDate>
    <maxDate>2013-01-16</maxDate>
    <latitude>36.2347</latitude>
    <longitude>-86.3817</longitude>
    <elevation>198.1</elevation>
    <locationLabels>
      <type>CNTRY</type>
      <id>FIPS:US</id>
      <displayName>United States</displayName>
    </locationLabels>
    <coverage>0.9958</coverage>
  </station>
  <station>
    <id>GHCND:US1INBN0001</id>
    <displayName>LEBANON 3.9 WSW, IN US</displayName>
    <minDate>2006-02-07</minDate>
    <maxDate>2012-12-03</maxDate>
    <latitude>40.035</latitude>
    <longitude>-86.5447</longitude>
    <elevation>285.9</elevation>
    <locationLabels>
      <type>CNTRY</type>
      <id>FIPS:US</id>
      <displayName>United States</displayName>
    </locationLabels>
    <coverage>0.9655</coverage>
  </station>
  <station>
    <id>GHCND:USC00364891</id>
    <displayName>LEBANON 4 WNW, PA US</displayName>
    <minDate>1894-01-01</minDate>
    <maxDate>1962-09-30</maxDate>
    <latitude>40.35</latitude>
    <longitude>-76.48333</longitude>
    <elevation>180.1</elevation>
    <locationLabels>
      <type>CNTRY</type>
      <id>FIPS:US</id>
      <displayName>United States</displayName>
    </locationLabels>
    <coverage>0.9627</coverage>
  </station>
  <station>
    <id>GHCND:USC00364893</id>
    <displayName>LEBANON 4 WNW, PA US</displayName>
    <minDate>1962-10-01</minDate>
    <maxDate>1965-09-30</maxDate>
    <latitude>40.35</latitude>
    <longitude>-76.48333</longitude>
    <elevation>180.1</elevation>
    <locationLabels>
      <type>CNTRY</type>
      <id>FIPS:US</id>
      <displayName>United States</displayName>
    </locationLabels>
    <coverage>1</coverage>
  </station>
  <station>
    <id>GHCND:US1TNWN0074</id>
    <displayName>LEBANON 4.0 SE, TN US</displayName>
    <minDate>2010-05-19</minDate>
    <maxDate>2013-01-16</maxDate>
    <latitude>36.1676</latitude>
    <longitude>-86.273</longitude>
    <elevation>205.4</elevation>
    <locationLabels>
      <type>CNTRY</type>
      <id>FIPS:US</id>
      <displayName>United States</displayName>
    </locationLabels>
    <coverage>0.9949</coverage>
  </station>
  <station>
    <id>GHCND:US1TNWN0068</id>
    <displayName>LEBANON 4.1 NW, TN US</displayName>
    <minDate>2009-06-08</minDate>
    <maxDate>2013-01-16</maxDate>
    <latitude>36.2451</latitude>
    <longitude>-86.3811</longitude>
    <elevation>202.1</elevation>
    <locationLabels>
      <type>CNTRY</type>
      <id>FIPS:US</id>
      <displayName>United States</displayName>
    </locationLabels>
    <coverage>0.2737</coverage>
  </station>
  <station>
    <id>GHCND:US1TNWN0064</id>
    <displayName>LEBANON 4.2 ENE, TN US</displayName>
    <minDate>2007-01-11</minDate>
    <maxDate>2013-01-02</maxDate>
    <latitude>36.223</latitude>
    <longitude>-86.249</longitude>
    <elevation>164</elevation>
    <locationLabels>
      <type>CNTRY</type>
      <id>FIPS:US</id>
      <displayName>United States</displayName>
    </locationLabels>
    <coverage>0.147</coverage>
  </station>
  <station>
    <id>GHCND:US1INBN0020</id>
    <displayName>LEBANON 4.4 NNE, IN US</displayName>
    <minDate>2006-06-12</minDate>
    <maxDate>2007-06-22</maxDate>
    <latitude>40.1079</latitude>
    <longitude>-86.4359</longitude>
    <elevation>291.1</elevation>
    <locationLabels>
      <type>CNTRY</type>
      <id>FIPS:US</id>
      <displayName>United States</displayName>
    </locationLabels>
    <coverage>0.6436</coverage>
  </station>
  <station>
    <id>GHCND:US1INBN0010</id>
    <displayName>LEBANON 4.5 NNE, IN US</displayName>
    <minDate>2006-03-24</minDate>
    <maxDate>2013-01-16</maxDate>
    <latitude>40.1152</latitude>
    <longitude>-86.4551</longitude>
    <elevation>284.1</elevation>
    <locationLabels>
      <type>CNTRY</type>
      <id>FIPS:US</id>
      <displayName>United States</displayName>
    </locationLabels>
    <coverage>0.99</coverage>
  </station>
  <station>
    <id>GHCND:US1TNWN0037</id>
    <displayName>LEBANON 4.5 NNW, TN US</displayName>
    <minDate>2007-07-01</minDate>
    <maxDate>2008-03-08</maxDate>
    <latitude>36.2751</latitude>
    <longitude>-86.3314</longitude>
    <elevation>178.9</elevation>
    <locationLabels>
      <type>CNTRY</type>
      <id>FIPS:US</id>
      <displayName>United States</displayName>
    </locationLabels>
    <coverage>0.9524</coverage>
  </station>
  <station>
    <id>GHCND:US1ORLN0001</id>
    <displayName>LEBANON 4.8 E, OR US</displayName>
    <minDate>2007-11-23</minDate>
    <maxDate>2013-01-16</maxDate>
    <latitude>44.544</latitude>
    <longitude>-122.807</longitude>
    <elevation>131.7</elevation>
    <locationLabels>
      <type>CNTRY</type>
      <id>FIPS:US</id>
      <displayName>United States</displayName>
    </locationLabels>
    <coverage>0.9888</coverage>
  </station>
  <station>
    <id>GHCND:US1INBN0027</id>
    <displayName>LEBANON 5.8 ENE, IN US</displayName>
    <minDate>2007-01-10</minDate>
    <maxDate>2011-11-14</maxDate>
    <latitude>40.0903</latitude>
    <longitude>-86.3756</longitude>
    <elevation>289.9</elevation>
    <locationLabels>
      <type>CNTRY</type>
      <id>FIPS:US</id>
      <displayName>United States</displayName>
    </locationLabels>
    <coverage>0.5141</coverage>
  </station>
  <station>
    <id>GHCND:US1INBN0011</id>
    <displayName>LEBANON 6.2 ESE, IN US</displayName>
    <minDate>2006-03-21</minDate>
    <maxDate>2013-01-16</maxDate>
    <latitude>40.0261</latitude>
    <longitude>-86.3619</longitude>
    <elevation>292</elevation>
    <locationLabels>
      <type>CNTRY</type>
      <id>FIPS:US</id>
      <displayName>United States</displayName>
    </locationLabels>
    <coverage>0.8869</coverage>
  </station>
  <station>
    <id>GHCND:USC00405118</id>
    <displayName>LEBANON 7 N, TN US</displayName>
    <minDate>1948-10-01</minDate>
    <maxDate>2013-01-16</maxDate>
    <latitude>36.29806</latitude>
    <longitude>-86.26306</longitude>
    <elevation>155.4</elevation>
    <locationLabels>
      <type>CNTRY</type>
      <id>FIPS:US</id>
      <displayName>United States</displayName>
    </locationLabels>
    <coverage>0.8649</coverage>
  </station>
  <station>
    <id>GHCND:USC00405353</id>
    <displayName>LEBANON 7 N, TN US</displayName>
    <minDate>1934-08-17</minDate>
    <maxDate>1956-06-30</maxDate>
    <latitude>36.29806</latitude>
    <longitude>-86.26306</longitude>
    <elevation>155.4</elevation>
    <locationLabels>
      <type>CNTRY</type>
      <id>FIPS:US</id>
      <displayName>United States</displayName>
    </locationLabels>
    <coverage>0.9737</coverage>
  </station>
  <station>
    <id>GHCND:US1KSSM0003</id>
    <displayName>LEBANON 7.2 NW, KS US</displayName>
    <minDate>2011-07-30</minDate>
    <maxDate>2013-01-16</maxDate>
    <latitude>39.8855</latitude>
    <longitude>-98.6523</longitude>
    <elevation>599.2</elevation>
    <locationLabels>
      <type>CNTRY</type>
      <id>FIPS:US</id>
      <displayName>United States</displayName>
    </locationLabels>
    <coverage>0.8957</coverage>
  </station>
  <station>
    <id>GHCND:US1MOLD0001</id>
    <displayName>LEBANON 7.5 WNW, MO US</displayName>
    <minDate>2006-06-28</minDate>
    <maxDate>2013-01-13</maxDate>
    <latitude>37.7051</latitude>
    <longitude>-92.7902</longitude>
    <elevation>369.1</elevation>
    <locationLabels>
      <type>CNTRY</type>
      <id>FIPS:US</id>
      <displayName>United States</displayName>
    </locationLabels>
    <coverage>0.3428</coverage>
  </station>
  <station>
    <id>GHCND:US1TNWN0056</id>
    <displayName>LEBANON 8.4 ENE, TN US</displayName>
    <minDate>2008-01-05</minDate>
    <maxDate>2008-12-10</maxDate>
    <latitude>36.2358</latitude>
    <longitude>-86.1756</longitude>
    <elevation>173.1</elevation>
    <locationLabels>
      <type>CNTRY</type>
      <id>FIPS:US</id>
      <displayName>United States</displayName>
    </locationLabels>
    <coverage>0.5073</coverage>
  </station>
  <station>
    <id>GHCND:US1TNWN0066</id>
    <displayName>LEBANON 8.4 SSW, TN US</displayName>
    <minDate>2008-11-09</minDate>
    <maxDate>2013-01-16</maxDate>
    <latitude>36.0951</latitude>
    <longitude>-86.3706</longitude>
    <elevation>207.6</elevation>
    <locationLabels>
      <type>CNTRY</type>
      <id>FIPS:US</id>
      <displayName>United States</displayName>
    </locationLabels>
    <coverage>0.8765</coverage>
  </station>
  <station>
    <id>GHCND:USC00334461</id>
    <displayName>LEBANON HIGHWAY DEPARTMENT, OH US</displayName>
    <minDate>1948-08-01</minDate>
    <maxDate>1971-03-22</maxDate>
    <latitude>39.43333</latitude>
    <longitude>-84.2</longitude>
    <elevation>223.1</elevation>
    <locationLabels>
      <type>CNTRY</type>
      <id>FIPS:US</id>
      <displayName>United States</displayName>
    </locationLabels>
    <coverage>0.1329</coverage>
  </station>
  <station>
    <id>GHCND:USW00094765</id>
    <displayName>LEBANON MUNICIPAL AIRPORT, NH US</displayName>
    <minDate>1962-09-01</minDate>
    <maxDate>2013-01-14</maxDate>
    <latitude>43.62639</latitude>
    <longitude>-72.30472</longitude>
    <elevation>182.3</elevation>
    <locationLabels>
      <type>CNTRY</type>
      <id>FIPS:US</id>
      <displayName>United States</displayName>
    </locationLabels>
    <coverage>0.8211</coverage>
  </station>
  <station>
    <id>GHCND:USW00014776</id>
    <displayName>LEBANON MUNICIPAL AIRPORT, NH US</displayName>
    <minDate>1949-01-01</minDate>
    <maxDate>1954-12-31</maxDate>
    <latitude>43.62639</latitude>
    <longitude>-72.30472</longitude>
    <elevation>182.3</elevation>
    <locationLabels>
      <type>CNTRY</type>
      <id>FIPS:US</id>
      <displayName>United States</displayName>
    </locationLabels>
    <coverage>0.9995</coverage>
  </station>
  <station>
    <id>GHCND:USC00304686</id>
    <displayName>LEBANON SPRINGS, NY US</displayName>
    <minDate>1893-01-01</minDate>
    <maxDate>1897-03-31</maxDate>
    <latitude>42.483333</latitude>
    <longitude>-73.366667</longitude>
    <elevation>283.5</elevation>
    <locationLabels>
      <type>CNTRY</type>
      <id>FIPS:US</id>
      <displayName>United States</displayName>
    </locationLabels>
    <coverage>0.9987</coverage>
  </station>
  <station>
    <id>GHCND:USC00405113</id>
    <displayName>LEBANON TVA, TN US</displayName>
    <minDate>1949-01-01</minDate>
    <maxDate>1962-03-31</maxDate>
    <latitude>36.2</latitude>
    <longitude>-86.28333</longitude>
    <elevation>161.8</elevation>
    <locationLabels>
      <type>CNTRY</type>
      <id>FIPS:US</id>
      <displayName>United States</displayName>
    </locationLabels>
    <coverage>0.9613</coverage>
  </station>
  <station>
    <id>GHCND:USC00124910</id>
    <displayName>LEBANON WASTEWATER PLANT, IN US</displayName>
    <minDate>1997-03-01</minDate>
    <maxDate>2013-01-16</maxDate>
    <latitude>40.0505</latitude>
    <longitude>-86.5744</longitude>
    <elevation>281.9</elevation>
    <locationLabels>
      <type>CNTRY</type>
      <id>FIPS:US</id>
      <displayName>United States</displayName>
    </locationLabels>
    <coverage>0.9957</coverage>
  </station>
  <station>
    <id>GHCND:USC00124908</id>
    <displayName>LEBANON WATER WORKS, IN US</displayName>
    <minDate>1948-07-01</minDate>
    <maxDate>1969-12-31</maxDate>
    <latitude>40.0516</latitude>
    <longitude>-86.475</longitude>
    <elevation>289.6</elevation>
    <locationLabels>
      <type>CNTRY</type>
      <id>FIPS:US</id>
      <displayName>United States</displayName>
    </locationLabels>
    <coverage>0.9739</coverage>
  </station>
  <station>
    <id>GHCND:USC00114991</id>
    <displayName>LEBANON, IL US</displayName>
    <minDate>1998-05-01</minDate>
    <maxDate>2013-01-12</maxDate>
    <latitude>38.6002</latitude>
    <longitude>-89.8177</longitude>
    <elevation>151.8</elevation>
    <locationLabels>
      <type>CNTRY</type>
      <id>FIPS:US</id>
      <displayName>United States</displayName>
    </locationLabels>
    <coverage>0.7475</coverage>
  </station>
  <station>
    <id>GHCND:USC00144598</id>
    <displayName>LEBANON, KS US</displayName>
    <minDate>1898-03-01</minDate>
    <maxDate>2013-01-11</maxDate>
    <latitude>39.8125</latitude>
    <longitude>-98.5558</longitude>
    <elevation>571.2</elevation>
    <locationLabels>
      <type>CNTRY</type>
      <id>FIPS:US</id>
      <displayName>United States</displayName>
    </locationLabels>
    <coverage>0.6407</coverage>
  </station>
  <station>
    <id>GHCND:USC00154649</id>
    <displayName>LEBANON, KY US</displayName>
    <minDate>2011-10-14</minDate>
    <maxDate>2012-11-30</maxDate>
    <latitude>37.5835</latitude>
    <longitude>-85.2461</longitude>
    <elevation>253</elevation>
    <locationLabels>
      <type>CNTRY</type>
      <id>FIPS:US</id>
      <displayName>United States</displayName>
    </locationLabels>
    <coverage>0.4106</coverage>
  </station>
  <station>
    <id>GHCND:USC00254708</id>
    <displayName>LEBANON, NE US</displayName>
    <minDate>1926-09-01</minDate>
    <maxDate>1945-08-31</maxDate>
    <latitude>40.05</latitude>
    <longitude>-100.28333</longitude>
    <elevation>729.1</elevation>
    <locationLabels>
      <type>CNTRY</type>
      <id>FIPS:US</id>
      <displayName>United States</displayName>
    </locationLabels>
    <coverage>0.9259</coverage>
  </station>
  <station>
    <id>GHCND:USC00354817</id>
    <displayName>LEBANON, OR US</displayName>
    <minDate>1913-06-01</minDate>
    <maxDate>1918-09-30</maxDate>
    <latitude>44.53333</latitude>
    <longitude>-122.56667</longitude>
    <elevation>95.1</elevation>
    <locationLabels>
      <type>CNTRY</type>
      <id>FIPS:US</id>
      <displayName>United States</displayName>
    </locationLabels>
    <coverage>0.98</coverage>
  </station>
  <station>
    <id>GHCND:USC00354819</id>
    <displayName>LEBANON, OR US</displayName>
    <minDate>2008-07-01</minDate>
    <maxDate>2013-01-14</maxDate>
    <latitude>44.53278</latitude>
    <longitude>-122.90139</longitude>
    <elevation>100.6</elevation>
    <locationLabels>
      <type>CNTRY</type>
      <id>FIPS:US</id>
      <displayName>United States</displayName>
    </locationLabels>
    <coverage>0.9873</coverage>
  </station>
  <station>
    <id>GHCND:USC00405108</id>
    <displayName>LEBANON, TN US</displayName>
    <minDate>1902-10-01</minDate>
    <maxDate>2013-01-16</maxDate>
    <latitude>36.2291</latitude>
    <longitude>-86.318</longitude>
    <elevation>160</elevation>
    <locationLabels>
      <type>CNTRY</type>
      <id>FIPS:US</id>
      <displayName>United States</displayName>
    </locationLabels>
    <coverage>0.7664</coverage>
  </station>
  <station>
    <id>GHCND:USC00444777</id>
    <displayName>LEBANON, VA US</displayName>
    <minDate>1989-09-01</minDate>
    <maxDate>2013-01-15</maxDate>
    <latitude>36.9028</latitude>
    <longitude>-82.0384</longitude>
    <elevation>582.8</elevation>
    <locationLabels>
      <type>CNTRY</type>
      <id>FIPS:US</id>
      <displayName>United States</displayName>
    </locationLabels>
    <coverage>0.998</coverage>
  </station>
  <station>
    <id>GHCND:USC00044863</id>
    <displayName>LEBEC, CA US</displayName>
    <minDate>1948-07-01</minDate>
    <maxDate>2013-01-16</maxDate>
    <latitude>34.8328</latitude>
    <longitude>-118.865</longitude>
    <elevation>1092.7</elevation>
    <locationLabels>
      <type>CNTRY</type>
      <id>FIPS:US</id>
      <displayName>United States</displayName>
    </locationLabels>
    <coverage>0.9465</coverage>
  </station>
  <station>
    <id>GHCND:US1KSOS0017</id>
    <displayName>LEBO 4.2 NW, KS US</displayName>
    <minDate>2008-09-24</minDate>
    <maxDate>2012-09-06</maxDate>
    <latitude>38.4631</latitude>
    <longitude>-95.9003</longitude>
    <elevation>332.8</elevation>
    <locationLabels>
      <type>CNTRY</type>
      <id>FIPS:US</id>
      <displayName>United States</displayName>
    </locationLabels>
    <coverage>0.0693</coverage>
  </station>
  <station>
    <id>GHCND:USW00013990</id>
    <displayName>LEBO CAA AIRPORT, KS US</displayName>
    <minDate>1948-01-01</minDate>
    <maxDate>1950-09-30</maxDate>
    <latitude>38.43333</latitude>
    <longitude>-95.8</longitude>
    <elevation>352</elevation>
    <locationLabels>
      <type>CNTRY</type>
      <id>FIPS:US</id>
      <displayName>United States</displayName>
    </locationLabels>
    <coverage>1</coverage>
  </station>
  <station>
    <id>GHCND:USC00144608</id>
    <displayName>LEBO, KS US</displayName>
    <minDate>1893-01-01</minDate>
    <maxDate>2013-01-14</maxDate>
    <latitude>38.416</latitude>
    <longitude>-95.851</longitude>
    <elevation>360</elevation>
    <locationLabels>
      <type>CNTRY</type>
      <id>FIPS:US</id>
      <displayName>United States</displayName>
    </locationLabels>
    <coverage>0.9634</coverage>
  </station>
  <station>
    <id>GHCND:USC00154672</id>
    <displayName>LEBURN 1 E, KY US</displayName>
    <minDate>1962-01-11</minDate>
    <maxDate>1963-03-31</maxDate>
    <latitude>37.33333</latitude>
    <longitude>-82.95</longitude>
    <elevation>335.9</elevation>
    <locationLabels>
      <type>CNTRY</type>
      <id>FIPS:US</id>
      <displayName>United States</displayName>
    </locationLabels>
    <coverage>0.6517</coverage>
  </station>
  <station>
    <id>GHCND:US1KYKT0001</id>
    <displayName>LEBURN 3.8 N, KY US</displayName>
    <minDate>2012-03-17</minDate>
    <maxDate>2012-12-20</maxDate>
    <latitude>37.4035</latitude>
    <longitude>-82.9575</longitude>
    <elevation>343.8</elevation>
    <locationLabels>
      <type>CNTRY</type>
      <id>FIPS:US</id>
      <displayName>United States</displayName>
    </locationLabels>
    <coverage>0.8996</coverage>
  </station>
  <station>
    <id>GHCND:USC00044867</id>
    <displayName>LECHUZA PATROL STATION, CA US</displayName>
    <minDate>1948-07-01</minDate>
    <maxDate>1997-11-30</maxDate>
    <latitude>34.07639</latitude>
    <longitude>-118.88028</longitude>
    <elevation>487.7</elevation>
    <locationLabels>
      <type>CNTRY</type>
      <id>FIPS:US</id>
      <displayName>United States</displayName>
    </locationLabels>
    <coverage>0.9842</coverage>
  </station>
  <station>
    <id>GHCND:USC00234828</id>
    <displayName>LECOMA 3 N, MO US</displayName>
    <minDate>1948-08-01</minDate>
    <maxDate>1950-09-03</maxDate>
    <latitude>37.81667</latitude>
    <longitude>-91.73333</longitude>
    <elevation>348.1</elevation>
    <locationLabels>
      <type>CNTRY</type>
      <id>FIPS:US</id>
      <displayName>United States</displayName>
    </locationLabels>
    <coverage>0.8979</coverage>
  </station>
  <station>
    <id>GHCND:US1LARP0001</id>
    <displayName>LECOMPTE 2.3 ENE, LA US</displayName>
    <minDate>2008-05-14</minDate>
    <maxDate>2009-05-04</maxDate>
    <latitude>31.0956</latitude>
    <longitude>-92.3598</longitude>
    <elevation>18</elevation>
    <locationLabels>
      <type>CNTRY</type>
      <id>FIPS:US</id>
      <displayName>United States</displayName>
    </locationLabels>
    <coverage>0.5815</coverage>
  </station>
  <station>
    <id>GHCND:US1KSDG0044</id>
    <displayName>LECOMPTON 4.7 SSW, KS US</displayName>
    <minDate>2011-07-03</minDate>
    <maxDate>2013-01-16</maxDate>
    <latitude>38.9858</latitude>
    <longitude>-95.435</longitude>
    <elevation>306.6</elevation>
    <locationLabels>
      <type>CNTRY</type>
      <id>FIPS:US</id>
      <displayName>United States</displayName>
    </locationLabels>
    <coverage>0.8848</coverage>
  </station>
  <station>
    <id>GHCND:USC00144613</id>
    <displayName>LECOMPTON, KS US</displayName>
    <minDate>1936-04-02</minDate>
    <maxDate>2013-01-11</maxDate>
    <latitude>39.0465</latitude>
    <longitude>-95.392</longitude>
    <elevation>271.9</elevation>
    <locationLabels>
      <type>CNTRY</type>
      <id>FIPS:US</id>
      <displayName>United States</displayName>
    </locationLabels>
    <coverage>0.9657</coverage>
  </station>
  <station>
    <id>GHCND:USC00364904</id>
    <displayName>LECONTES MILLS 5 NW, PA US</displayName>
    <minDate>1943-02-22</minDate>
    <maxDate>1949-05-31</maxDate>
    <latitude>41.15</latitude>
    <longitude>-78.33333</longitude>
    <elevation>708.1</elevation>
    <locationLabels>
      <type>CNTRY</type>
      <id>FIPS:US</id>
      <displayName>United States</displayName>
    </locationLabels>
    <coverage>0.9965</coverage>
  </station>
  <station>
    <id>GHCND:US1PAWN0006</id>
    <displayName>LEDGEDALE 0.7 SE, PA US</displayName>
    <minDate>2007-11-10</minDate>
    <maxDate>2009-02-23</maxDate>
    <latitude>41.3833</latitude>
    <longitude>-75.3333</longitude>
    <elevation>435.9</elevation>
    <locationLabels>
      <type>CNTRY</type>
      <id>FIPS:US</id>
      <displayName>United States</displayName>
    </locationLabels>
    <coverage>0.3114</coverage>
  </station>
  <station>
    <id>GHCND:US1NHST0027</id>
    <displayName>LEE 2.5 SSW, NH US</displayName>
    <minDate>2010-12-13</minDate>
    <maxDate>2012-12-22</maxDate>
    <latitude>43.088</latitude>
    <longitude>-71.0219</longitude>
    <elevation>40.5</elevation>
    <locationLabels>
      <type>CNTRY</type>
      <id>FIPS:US</id>
      <displayName>United States</displayName>
    </locationLabels>
    <coverage>0.5331</coverage>
  </station>
  <station>
    <id>GHCND:US1ILLE0016</id>
    <displayName>LEE 4.1 SW, IL US</displayName>
    <minDate>2010-03-03</minDate>
    <maxDate>2010-10-25</maxDate>
    <latitude>41.756</latitude>
    <longitude>-89.0012</longitude>
    <elevation>271.3</elevation>
    <locationLabels>
      <type>CNTRY</type>
      <id>FIPS:US</id>
      <displayName>United States</displayName>
    </locationLabels>
    <coverage>0.4262</coverage>
  </station>
  <station>
    <id>GHCND:USC00264501</id>
    <displayName>LEE CANYON F S, NV US</displayName>
    <minDate>2006-12-01</minDate>
    <maxDate>2009-12-10</maxDate>
    <latitude>36.32083</latitude>
    <longitude>-115.6725</longitude>
    <elevation>2482.6</elevation>
    <locationLabels>
      <type>CNTRY</type>
      <id>FIPS:US</id>
      <displayName>United States</displayName>
    </locationLabels>
    <coverage>0.9774</coverage>
  </station>
  <station>
    <id>GHCND:USC00034116</id>
    <displayName>LEE CREEK GUARD STATION, AR US</displayName>
    <minDate>1948-01-01</minDate>
    <maxDate>1962-12-31</maxDate>
    <latitude>35.7</latitude>
    <longitude>-94.31667</longitude>
    <elevation>305.1</elevation>
    <locationLabels>
      <type>CNTRY</type>
      <id>FIPS:US</id>
      <displayName>United States</displayName>
    </locationLabels>
    <coverage>0.906</coverage>
  </station>
  <station>
    <id>GHCND:USC00444802</id>
    <displayName>LEE EXPERIMENTAL FOREST, VA US</displayName>
    <minDate>1940-10-26</minDate>
    <maxDate>1954-12-31</maxDate>
    <latitude>37.53333</latitude>
    <longitude>-78.55</longitude>
    <elevation>153</elevation>
    <locationLabels>
      <type>CNTRY</type>
      <id>FIPS:US</id>
      <displayName>United States</displayName>
    </locationLabels>
    <coverage>0.7925</coverage>
  </station>
  <station>
    <id>GHCND:USC00294903</id>
    <displayName>LEE RANCH, NM US</displayName>
    <minDate>1923-10-01</minDate>
    <maxDate>1941-09-30</maxDate>
    <latitude>35.83333</latitude>
    <longitude>-106.5</longitude>
    <elevation>2649.9</elevation>
    <locationLabels>
      <type>CNTRY</type>
      <id>FIPS:US</id>
      <displayName>United States</displayName>
    </locationLabels>
    <coverage>0.9354</coverage>
  </station>
  <station>
    <id>GHCND:US1MOJC0013</id>
    <displayName>LEE S SUMMIT 1.4 W, MO US</displayName>
    <minDate>2008-07-01</minDate>
    <maxDate>2008-11-29</maxDate>
    <latitude>38.9149</latitude>
    <longitude>-94.4088</longitude>
    <elevation>301.8</elevation>
    <locationLabels>
      <type>CNTRY</type>
      <id>FIPS:US</id>
      <displayName>United States</displayName>
    </locationLabels>
    <coverage>0.8882</coverage>
  </station>
  <station>
    <id>GHCND:US1MOJC0017</id>
    <displayName>LEE S SUMMIT 1.7 NNE, MO US</displayName>
    <minDate>2011-07-24</minDate>
    <maxDate>2011-12-11</maxDate>
    <latitude>38.9384</latitude>
    <longitude>-94.3712</longitude>
    <elevation>302.7</elevation>
    <locationLabels>
      <type>CNTRY</type>
      <id>FIPS:US</id>
      <displayName>United States</displayName>
    </locationLabels>
    <coverage>0.7163</coverage>
  </station>
  <station>
    <id>GHCND:US1CAMN0001</id>
    <displayName>LEE VINING 5.9 NW, CA US</displayName>
    <minDate>1998-06-17</minDate>
    <maxDate>2013-01-16</maxDate>
    <latitude>38.0337</latitude>
    <longitude>-119.1697</longitude>
    <elevation>2162.3</elevation>
    <locationLabels>
      <type>CNTRY</type>
      <id>FIPS:US</id>
      <displayName>United States</displayName>
    </locationLabels>
    <coverage>0.2481</coverage>
  </station>
  <station>
    <id>GHCND:USC00044881</id>
    <displayName>LEE VINING, CA US</displayName>
    <minDate>1988-05-01</minDate>
    <maxDate>2013-01-16</maxDate>
    <latitude>37.9567</latitude>
    <longitude>-119.1194</longitude>
    <elevation>2071.7</elevation>
    <locationLabels>
      <type>CNTRY</type>
      <id>FIPS:US</id>
      <displayName>United States</displayName>
    </locationLabels>
    <coverage>0.9704</coverage>
  </station>
  <station>
    <id>GHCND:USC00194112</id>
    <displayName>LEE, MA US</displayName>
    <minDate>1921-07-01</minDate>
    <maxDate>1924-09-30</maxDate>
    <latitude>42.3</latitude>
    <longitude>-73.233333</longitude>
    <locationLabels>
      <type>CNTRY</type>
      <id>FIPS:US</id>
      <displayName>United States</displayName>
    </locationLabels>
    <coverage>0.7971</coverage>
  </station>
</stationCollection>
