<?xml version="1.0" encoding="UTF-8" standalone="yes"?>
<stationCollection totalCount="46020" pageCount="461" pageSize="100" page="61">
  <station>
    <id>GHCND:US1MDCV0008</id>
    <displayName>CALVERT BEACH 0.4N, MD US</displayName>
    <minDate>2006-03-16</minDate>
    <maxDate>2008-12-24</maxDate>
    <latitude>38.4666</latitude>
    <longitude>-76.4795</longitude>
    <locationLabels>
      <type>CNTRY</type>
      <id>FIPS:US</id>
      <displayName>United States</displayName>
    </locationLabels>
    <coverage>0.5261</coverage>
  </station>
  <station>
    <id>GHCND:US1KYMH0003</id>
    <displayName>CALVERT CITY 2.7 SSW, KY US</displayName>
    <minDate>2010-09-07</minDate>
    <maxDate>2013-01-15</maxDate>
    <latitude>37.0009</latitude>
    <longitude>-88.3791</longitude>
    <elevation>120.7</elevation>
    <locationLabels>
      <type>CNTRY</type>
      <id>FIPS:US</id>
      <displayName>United States</displayName>
    </locationLabels>
    <coverage>0.7819</coverage>
  </station>
  <station>
    <id>GHCND:USS0013D26S</id>
    <displayName>CALVERT CREEK, MT US</displayName>
    <minDate>1975-10-01</minDate>
    <maxDate>2013-01-13</maxDate>
    <latitude>45.8833</latitude>
    <longitude>-113.3333</longitude>
    <elevation>1959.9</elevation>
    <locationLabels>
      <type>CNTRY</type>
      <id>FIPS:US</id>
      <displayName>United States</displayName>
    </locationLabels>
    <coverage>0.8485</coverage>
  </station>
  <station>
    <id>GHCND:USR0000OCAL</id>
    <displayName>CALVERT PEAK OREGON, OR US</displayName>
    <minDate>1990-08-20</minDate>
    <maxDate>2012-08-31</maxDate>
    <latitude>42.7778</latitude>
    <longitude>-123.7294</longitude>
    <elevation>1164.9</elevation>
    <locationLabels>
      <type>CNTRY</type>
      <id>FIPS:US</id>
      <displayName>United States</displayName>
    </locationLabels>
    <coverage>0.9523</coverage>
  </station>
  <station>
    <id>GHCND:USC00341391</id>
    <displayName>CALVIN, OK US</displayName>
    <minDate>1904-09-01</minDate>
    <maxDate>2012-11-30</maxDate>
    <latitude>34.9643</latitude>
    <longitude>-96.2495</longitude>
    <elevation>243.8</elevation>
    <locationLabels>
      <type>CNTRY</type>
      <id>FIPS:US</id>
      <displayName>United States</displayName>
    </locationLabels>
    <coverage>0.9758</coverage>
  </station>
  <station>
    <id>GHCND:USC00091488</id>
    <displayName>CAMAK, GA US</displayName>
    <minDate>1891-11-01</minDate>
    <maxDate>1914-03-31</maxDate>
    <latitude>33.45</latitude>
    <longitude>-82.65</longitude>
    <elevation>179.8</elevation>
    <locationLabels>
      <type>CNTRY</type>
      <id>FIPS:US</id>
      <displayName>United States</displayName>
    </locationLabels>
    <coverage>0.6467</coverage>
  </station>
  <station>
    <id>GHCND:US1IACN0005</id>
    <displayName>CAMANCHE 1.2 W, IA US</displayName>
    <minDate>2008-07-17</minDate>
    <maxDate>2013-01-16</maxDate>
    <latitude>41.8001</latitude>
    <longitude>-90.2751</longitude>
    <elevation>181.7</elevation>
    <locationLabels>
      <type>CNTRY</type>
      <id>FIPS:US</id>
      <displayName>United States</displayName>
    </locationLabels>
    <coverage>0.8973</coverage>
  </station>
  <station>
    <id>GHCND:US1WAIS0018</id>
    <displayName>CAMANO 5.6 N, WA US</displayName>
    <minDate>2010-02-23</minDate>
    <maxDate>2013-01-16</maxDate>
    <latitude>48.2541</latitude>
    <longitude>-122.5061</longitude>
    <elevation>41.5</elevation>
    <locationLabels>
      <type>CNTRY</type>
      <id>FIPS:US</id>
      <displayName>United States</displayName>
    </locationLabels>
    <coverage>0.712</coverage>
  </station>
  <station>
    <id>GHCND:US1WAIS0020</id>
    <displayName>CAMANO ISLAND 2.3 ENE, WA US</displayName>
    <minDate>2010-06-06</minDate>
    <maxDate>2013-01-16</maxDate>
    <latitude>48.1843</latitude>
    <longitude>-122.4813</longitude>
    <elevation>50.6</elevation>
    <locationLabels>
      <type>CNTRY</type>
      <id>FIPS:US</id>
      <displayName>United States</displayName>
    </locationLabels>
    <coverage>0.8326</coverage>
  </station>
  <station>
    <id>GHCND:US1WAIS0017</id>
    <displayName>CAMANO ISLAND 3.8 N, WA US</displayName>
    <minDate>2010-01-26</minDate>
    <maxDate>2013-01-16</maxDate>
    <latitude>48.2451</latitude>
    <longitude>-122.5118</longitude>
    <elevation>139.6</elevation>
    <locationLabels>
      <type>CNTRY</type>
      <id>FIPS:US</id>
      <displayName>United States</displayName>
    </locationLabels>
    <coverage>0.92</coverage>
  </station>
  <station>
    <id>GHCND:US1WAIS0028</id>
    <displayName>CAMANO ISLAND 4.2 NNE, WA US</displayName>
    <minDate>2012-04-19</minDate>
    <maxDate>2013-01-16</maxDate>
    <latitude>48.2299</latitude>
    <longitude>-122.4911</longitude>
    <elevation>148.4</elevation>
    <locationLabels>
      <type>CNTRY</type>
      <id>FIPS:US</id>
      <displayName>United States</displayName>
    </locationLabels>
    <coverage>0.8718</coverage>
  </station>
  <station>
    <id>GHCND:US1WAIS0025</id>
    <displayName>CAMANO ISLAND 4.6 N, WA US</displayName>
    <minDate>2011-12-28</minDate>
    <maxDate>2013-01-12</maxDate>
    <latitude>48.2436</latitude>
    <longitude>-122.5305</longitude>
    <elevation>55.2</elevation>
    <locationLabels>
      <type>CNTRY</type>
      <id>FIPS:US</id>
      <displayName>United States</displayName>
    </locationLabels>
    <coverage>0.8901</coverage>
  </station>
  <station>
    <id>GHCND:USC00341404</id>
    <displayName>CAMARGO 4 WNW MESONET, OK US</displayName>
    <minDate>2009-02-01</minDate>
    <maxDate>2012-12-31</maxDate>
    <latitude>36.02861</latitude>
    <longitude>-99.34639</longitude>
    <elevation>588.9</elevation>
    <locationLabels>
      <type>CNTRY</type>
      <id>FIPS:US</id>
      <displayName>United States</displayName>
    </locationLabels>
    <coverage>0.9287</coverage>
  </station>
  <station>
    <id>GHCND:USC00341396</id>
    <displayName>CAMARGO, OK US</displayName>
    <minDate>1923-01-01</minDate>
    <maxDate>1975-09-30</maxDate>
    <latitude>36.01667</latitude>
    <longitude>-99.28333</longitude>
    <elevation>591.9</elevation>
    <locationLabels>
      <type>CNTRY</type>
      <id>FIPS:US</id>
      <displayName>United States</displayName>
    </locationLabels>
    <coverage>0.9471</coverage>
  </station>
  <station>
    <id>GHCND:US1CAVT0012</id>
    <displayName>CAMARILLO 2.4 W, CA US</displayName>
    <minDate>2011-12-05</minDate>
    <maxDate>2013-01-16</maxDate>
    <latitude>34.2275</latitude>
    <longitude>-119.0715</longitude>
    <elevation>34.7</elevation>
    <locationLabels>
      <type>CNTRY</type>
      <id>FIPS:US</id>
      <displayName>United States</displayName>
    </locationLabels>
    <coverage>0.8949</coverage>
  </station>
  <station>
    <id>GHCND:USW00023136</id>
    <displayName>CAMARILLO AIRPORT, CA US</displayName>
    <minDate>1952-12-09</minDate>
    <maxDate>2013-01-14</maxDate>
    <latitude>34.21667</latitude>
    <longitude>-119.08333</longitude>
    <elevation>23.5</elevation>
    <locationLabels>
      <type>CNTRY</type>
      <id>FIPS:US</id>
      <displayName>United States</displayName>
    </locationLabels>
    <coverage>0.5015</coverage>
  </station>
  <station>
    <id>GHCND:US1WACK0031</id>
    <displayName>CAMAS 0.7 NNW, WA US</displayName>
    <minDate>2009-10-01</minDate>
    <maxDate>2013-01-16</maxDate>
    <latitude>45.5971</latitude>
    <longitude>-122.4186</longitude>
    <elevation>175</elevation>
    <locationLabels>
      <type>CNTRY</type>
      <id>FIPS:US</id>
      <displayName>United States</displayName>
    </locationLabels>
    <coverage>0.8671</coverage>
  </station>
  <station>
    <id>GHCND:US1WACK0028</id>
    <displayName>CAMAS 0.8 NE, WA US</displayName>
    <minDate>2009-11-01</minDate>
    <maxDate>2013-01-16</maxDate>
    <latitude>45.5942</latitude>
    <longitude>-122.41</longitude>
    <elevation>84.7</elevation>
    <locationLabels>
      <type>CNTRY</type>
      <id>FIPS:US</id>
      <displayName>United States</displayName>
    </locationLabels>
    <coverage>0.6223</coverage>
  </station>
  <station>
    <id>GHCND:US1WACK0026</id>
    <displayName>CAMAS 1.0 NNW, WA US</displayName>
    <minDate>2009-03-01</minDate>
    <maxDate>2010-10-11</maxDate>
    <latitude>45.601</latitude>
    <longitude>-122.431</longitude>
    <elevation>207.9</elevation>
    <locationLabels>
      <type>CNTRY</type>
      <id>FIPS:US</id>
      <displayName>United States</displayName>
    </locationLabels>
    <coverage>0.9763</coverage>
  </station>
  <station>
    <id>GHCND:US1WACK0029</id>
    <displayName>CAMAS 2.4 E, WA US</displayName>
    <minDate>2009-03-11</minDate>
    <maxDate>2013-01-15</maxDate>
    <latitude>45.5845</latitude>
    <longitude>-122.374</longitude>
    <elevation>17.7</elevation>
    <locationLabels>
      <type>CNTRY</type>
      <id>FIPS:US</id>
      <displayName>United States</displayName>
    </locationLabels>
    <coverage>0.9929</coverage>
  </station>
  <station>
    <id>GHCND:USS0015F09S</id>
    <displayName>CAMAS CREEK DIVIDE, ID US</displayName>
    <minDate>1991-10-01</minDate>
    <maxDate>2013-01-13</maxDate>
    <latitude>43.2667</latitude>
    <longitude>-115.35</longitude>
    <elevation>1740.4</elevation>
    <locationLabels>
      <type>CNTRY</type>
      <id>FIPS:US</id>
      <displayName>United States</displayName>
    </locationLabels>
    <coverage>0.9415</coverage>
  </station>
  <station>
    <id>GHCND:USC00101395</id>
    <displayName>CAMAS, ID US</displayName>
    <minDate>1908-04-01</minDate>
    <maxDate>1922-03-31</maxDate>
    <latitude>44.033333</latitude>
    <longitude>-112.25</longitude>
    <elevation>1468.5</elevation>
    <locationLabels>
      <type>CNTRY</type>
      <id>FIPS:US</id>
      <displayName>United States</displayName>
    </locationLabels>
    <coverage>0.2611</coverage>
  </station>
  <station>
    <id>GHCND:RQC00661423</id>
    <displayName>CAMBALACHE EXPERIMENTAL FORES, PR US</displayName>
    <minDate>1932-01-01</minDate>
    <maxDate>1966-02-28</maxDate>
    <latitude>18.45</latitude>
    <longitude>-66.6</longitude>
    <elevation>29.9</elevation>
    <locationLabels>
      <type>CNTRY</type>
      <id>FIPS:US</id>
      <displayName>United States</displayName>
    </locationLabels>
    <coverage>0.3408</coverage>
  </station>
  <station>
    <id>GHCND:USC00291309</id>
    <displayName>CAMBRAY, NM US</displayName>
    <minDate>1899-06-01</minDate>
    <maxDate>1940-08-31</maxDate>
    <latitude>32.23333</latitude>
    <longitude>-107.33333</longitude>
    <elevation>1289.9</elevation>
    <locationLabels>
      <type>CNTRY</type>
      <id>FIPS:US</id>
      <displayName>United States</displayName>
    </locationLabels>
    <coverage>0.9115</coverage>
  </station>
  <station>
    <id>GHCND:USC00471265</id>
    <displayName>CAMBRIA, WI US</displayName>
    <minDate>1931-01-01</minDate>
    <maxDate>1931-12-31</maxDate>
    <latitude>43.533333</latitude>
    <longitude>-89.083333</longitude>
    <elevation>264</elevation>
    <locationLabels>
      <type>CNTRY</type>
      <id>FIPS:US</id>
      <displayName>United States</displayName>
    </locationLabels>
    <coverage>1</coverage>
  </station>
  <station>
    <id>GHCND:USC00481400</id>
    <displayName>CAMBRIA, WY US</displayName>
    <minDate>1904-06-01</minDate>
    <maxDate>1906-06-30</maxDate>
    <latitude>43.95</latitude>
    <longitude>-104.2</longitude>
    <elevation>1554.5</elevation>
    <locationLabels>
      <type>CNTRY</type>
      <id>FIPS:US</id>
      <displayName>United States</displayName>
    </locationLabels>
    <coverage>0.9974</coverage>
  </station>
  <station>
    <id>GHCND:US1CASC0011</id>
    <displayName>CAMBRIAN PARK 2.2 SE, CA US</displayName>
    <minDate>2008-11-01</minDate>
    <maxDate>2013-01-15</maxDate>
    <latitude>37.2341</latitude>
    <longitude>-121.8974</longitude>
    <elevation>76.8</elevation>
    <locationLabels>
      <type>CNTRY</type>
      <id>FIPS:US</id>
      <displayName>United States</displayName>
    </locationLabels>
    <coverage>0.8829</coverage>
  </station>
  <station>
    <id>GHCND:US10furn025</id>
    <displayName>CAMBRIDGE 0.7 WNW, NE US</displayName>
    <minDate>2009-06-12</minDate>
    <maxDate>2012-10-25</maxDate>
    <latitude>40.2854</latitude>
    <longitude>-100.179</longitude>
    <elevation>0</elevation>
    <locationLabels>
      <type>CNTRY</type>
      <id>FIPS:US</id>
      <displayName>United States</displayName>
    </locationLabels>
    <coverage>0.1047</coverage>
  </station>
  <station>
    <id>GHCND:US1MAMD0011</id>
    <displayName>CAMBRIDGE 0.9 NNW, MA US</displayName>
    <minDate>2010-02-24</minDate>
    <maxDate>2013-01-16</maxDate>
    <latitude>42.3876</latitude>
    <longitude>-71.1253</longitude>
    <elevation>14.6</elevation>
    <locationLabels>
      <type>CNTRY</type>
      <id>FIPS:US</id>
      <displayName>United States</displayName>
    </locationLabels>
    <coverage>0.8951</coverage>
  </station>
  <station>
    <id>GHCND:US1OHGY0002</id>
    <displayName>CAMBRIDGE 1.6 ESE, OH US</displayName>
    <minDate>2009-06-09</minDate>
    <maxDate>2011-06-20</maxDate>
    <latitude>40.0134</latitude>
    <longitude>-81.561</longitude>
    <elevation>243.5</elevation>
    <locationLabels>
      <type>CNTRY</type>
      <id>FIPS:US</id>
      <displayName>United States</displayName>
    </locationLabels>
    <coverage>0.3679</coverage>
  </station>
  <station>
    <id>GHCND:US10red_020</id>
    <displayName>CAMBRIDGE 2.7 WNW, NE US</displayName>
    <minDate>2007-01-01</minDate>
    <maxDate>2012-12-15</maxDate>
    <latitude>40.2973</latitude>
    <longitude>-100.2131</longitude>
    <elevation>737.9</elevation>
    <locationLabels>
      <type>CNTRY</type>
      <id>FIPS:US</id>
      <displayName>United States</displayName>
    </locationLabels>
    <coverage>0.5092</coverage>
  </station>
  <station>
    <id>GHCND:US1MNIS0006</id>
    <displayName>CAMBRIDGE 3.0 N, MN US</displayName>
    <minDate>2011-07-12</minDate>
    <maxDate>2013-01-16</maxDate>
    <latitude>45.605</latitude>
    <longitude>-93.2345</longitude>
    <elevation>289.3</elevation>
    <locationLabels>
      <type>CNTRY</type>
      <id>FIPS:US</id>
      <displayName>United States</displayName>
    </locationLabels>
    <coverage>0.7874</coverage>
  </station>
  <station>
    <id>GHCND:US10red_015</id>
    <displayName>CAMBRIDGE 3.5 N, NE US</displayName>
    <minDate>2007-01-01</minDate>
    <maxDate>2012-12-20</maxDate>
    <latitude>40.3302</latitude>
    <longitude>-100.2865</longitude>
    <elevation>773</elevation>
    <locationLabels>
      <type>CNTRY</type>
      <id>FIPS:US</id>
      <displayName>United States</displayName>
    </locationLabels>
    <coverage>0.9652</coverage>
  </station>
  <station>
    <id>GHCND:US1VTLM0003</id>
    <displayName>CAMBRIDGE 4.8 SSE, VT US</displayName>
    <minDate>2009-05-01</minDate>
    <maxDate>2013-01-06</maxDate>
    <latitude>44.578</latitude>
    <longitude>-72.856</longitude>
    <elevation>267</elevation>
    <locationLabels>
      <type>CNTRY</type>
      <id>FIPS:US</id>
      <displayName>United States</displayName>
    </locationLabels>
    <coverage>0.5984</coverage>
  </station>
  <station>
    <id>GHCND:USC00211227</id>
    <displayName>CAMBRIDGE 5 ESE, MN US</displayName>
    <minDate>1893-01-01</minDate>
    <maxDate>2013-01-06</maxDate>
    <latitude>45.5505</latitude>
    <longitude>-93.1265</longitude>
    <elevation>292.6</elevation>
    <locationLabels>
      <type>CNTRY</type>
      <id>FIPS:US</id>
      <displayName>United States</displayName>
    </locationLabels>
    <coverage>0.6618</coverage>
  </station>
  <station>
    <id>GHCND:US10furn024</id>
    <displayName>CAMBRIDGE 5.1 SE, NE US</displayName>
    <minDate>2008-06-18</minDate>
    <maxDate>2012-11-29</maxDate>
    <latitude>40.2215</latitude>
    <longitude>-100.1086</longitude>
    <elevation>744.9</elevation>
    <locationLabels>
      <type>CNTRY</type>
      <id>FIPS:US</id>
      <displayName>United States</displayName>
    </locationLabels>
    <coverage>0.5879</coverage>
  </station>
  <station>
    <id>GHCND:US10fron017</id>
    <displayName>CAMBRIDGE 7.3 N, NE US</displayName>
    <minDate>2008-01-26</minDate>
    <maxDate>2013-01-11</maxDate>
    <latitude>40.3882</latitude>
    <longitude>-100.1712</longitude>
    <elevation>762.9</elevation>
    <locationLabels>
      <type>CNTRY</type>
      <id>FIPS:US</id>
      <displayName>United States</displayName>
    </locationLabels>
    <coverage>0.8378</coverage>
  </station>
  <station>
    <id>GHCND:USC00191099</id>
    <displayName>CAMBRIDGE B, MA US</displayName>
    <minDate>1890-01-01</minDate>
    <maxDate>1896-06-30</maxDate>
    <latitude>42.383333</latitude>
    <longitude>-71.1</longitude>
    <elevation>2.4</elevation>
    <locationLabels>
      <type>CNTRY</type>
      <id>FIPS:US</id>
      <displayName>United States</displayName>
    </locationLabels>
    <coverage>1</coverage>
  </station>
  <station>
    <id>GHCND:USC00191103</id>
    <displayName>CAMBRIDGE C, MA US</displayName>
    <minDate>1931-01-01</minDate>
    <maxDate>1932-03-31</maxDate>
    <latitude>42.375097</latitude>
    <longitude>-71.105608</longitude>
    <elevation>4</elevation>
    <locationLabels>
      <type>CNTRY</type>
      <id>FIPS:US</id>
      <displayName>United States</displayName>
    </locationLabels>
    <coverage>0.932</coverage>
  </station>
  <station>
    <id>GHCND:USC00121229</id>
    <displayName>CAMBRIDGE CITY 3 N, IN US</displayName>
    <minDate>1893-01-01</minDate>
    <maxDate>2001-08-31</maxDate>
    <latitude>39.86667</latitude>
    <longitude>-85.18333</longitude>
    <elevation>304.8</elevation>
    <locationLabels>
      <type>CNTRY</type>
      <id>FIPS:US</id>
      <displayName>United States</displayName>
    </locationLabels>
    <coverage>0.9937</coverage>
  </station>
  <station>
    <id>GHCND:USC00191110</id>
    <displayName>CAMBRIDGE MIT, MA US</displayName>
    <minDate>1931-04-01</minDate>
    <maxDate>1934-01-31</maxDate>
    <latitude>42.366667</latitude>
    <longitude>-71.1</longitude>
    <elevation>5.8</elevation>
    <locationLabels>
      <type>CNTRY</type>
      <id>FIPS:US</id>
      <displayName>United States</displayName>
    </locationLabels>
    <coverage>0.9961</coverage>
  </station>
  <station>
    <id>GHCND:USC00331202</id>
    <displayName>CAMBRIDGE STATE HOSPITAL, OH US</displayName>
    <minDate>1893-01-01</minDate>
    <maxDate>1963-12-31</maxDate>
    <latitude>40.08333</latitude>
    <longitude>-81.58333</longitude>
    <elevation>259.1</elevation>
    <locationLabels>
      <type>CNTRY</type>
      <id>FIPS:US</id>
      <displayName>United States</displayName>
    </locationLabels>
    <coverage>0.9957</coverage>
  </station>
  <station>
    <id>GHCND:USC00181385</id>
    <displayName>CAMBRIDGE WATER TREATMENT, MD US</displayName>
    <minDate>1893-01-01</minDate>
    <maxDate>1991-06-30</maxDate>
    <latitude>38.56667</latitude>
    <longitude>-76.06667</longitude>
    <elevation>3</elevation>
    <locationLabels>
      <type>CNTRY</type>
      <id>FIPS:US</id>
      <displayName>United States</displayName>
    </locationLabels>
    <coverage>0.9129</coverage>
  </station>
  <station>
    <id>GHCND:USC00101408</id>
    <displayName>CAMBRIDGE, ID US</displayName>
    <minDate>1894-01-01</minDate>
    <maxDate>2013-01-15</maxDate>
    <latitude>44.5734</latitude>
    <longitude>-116.6754</longitude>
    <elevation>807.7</elevation>
    <locationLabels>
      <type>CNTRY</type>
      <id>FIPS:US</id>
      <displayName>United States</displayName>
    </locationLabels>
    <coverage>0.9445</coverage>
  </station>
  <station>
    <id>GHCND:USC00141239</id>
    <displayName>CAMBRIDGE, KS US</displayName>
    <minDate>1982-06-01</minDate>
    <maxDate>2013-01-13</maxDate>
    <latitude>37.3149</latitude>
    <longitude>-96.6625</longitude>
    <elevation>384</elevation>
    <locationLabels>
      <type>CNTRY</type>
      <id>FIPS:US</id>
      <displayName>United States</displayName>
    </locationLabels>
    <coverage>0.9706</coverage>
  </station>
  <station>
    <id>GHCND:USC00191097</id>
    <displayName>CAMBRIDGE, MA US</displayName>
    <minDate>1884-11-01</minDate>
    <maxDate>1951-08-31</maxDate>
    <latitude>42.38333</latitude>
    <longitude>-71.11667</longitude>
    <elevation>18</elevation>
    <locationLabels>
      <type>CNTRY</type>
      <id>FIPS:US</id>
      <displayName>United States</displayName>
    </locationLabels>
    <coverage>0.3424</coverage>
  </station>
  <station>
    <id>GHCND:USC00171120</id>
    <displayName>CAMBRIDGE, ME US</displayName>
    <minDate>1912-04-01</minDate>
    <maxDate>1916-12-31</maxDate>
    <latitude>45.033333</latitude>
    <longitude>-69.466667</longitude>
    <locationLabels>
      <type>CNTRY</type>
      <id>FIPS:US</id>
      <displayName>United States</displayName>
    </locationLabels>
    <coverage>0.8474</coverage>
  </station>
  <station>
    <id>GHCND:USC00251415</id>
    <displayName>CAMBRIDGE, NE US</displayName>
    <minDate>1898-07-01</minDate>
    <maxDate>2013-01-12</maxDate>
    <latitude>40.2847</latitude>
    <longitude>-100.1433</longitude>
    <elevation>682.4</elevation>
    <locationLabels>
      <type>CNTRY</type>
      <id>FIPS:US</id>
      <displayName>United States</displayName>
    </locationLabels>
    <coverage>0.8923</coverage>
  </station>
  <station>
    <id>GHCND:USC00331197</id>
    <displayName>CAMBRIDGE, OH US</displayName>
    <minDate>1948-08-01</minDate>
    <maxDate>2013-01-11</maxDate>
    <latitude>40.0111</latitude>
    <longitude>-81.5794</longitude>
    <elevation>243.8</elevation>
    <locationLabels>
      <type>CNTRY</type>
      <id>FIPS:US</id>
      <displayName>United States</displayName>
    </locationLabels>
    <coverage>0.8006</coverage>
  </station>
  <station>
    <id>GHCND:US1INMR0046</id>
    <displayName>CAMBY 1.7 SW, IN US</displayName>
    <minDate>2008-07-14</minDate>
    <maxDate>2010-07-04</maxDate>
    <latitude>39.6394</latitude>
    <longitude>-86.3257</longitude>
    <elevation>232.9</elevation>
    <locationLabels>
      <type>CNTRY</type>
      <id>FIPS:US</id>
      <displayName>United States</displayName>
    </locationLabels>
    <coverage>0.7656</coverage>
  </station>
  <station>
    <id>GHCND:US1MIHL0003</id>
    <displayName>CAMDEN 0.1 WSW, MI US</displayName>
    <minDate>2008-09-19</minDate>
    <maxDate>2010-07-18</maxDate>
    <latitude>41.7557</latitude>
    <longitude>-84.7591</longitude>
    <elevation>306.9</elevation>
    <locationLabels>
      <type>CNTRY</type>
      <id>FIPS:US</id>
      <displayName>United States</displayName>
    </locationLabels>
    <coverage>0.2051</coverage>
  </station>
  <station>
    <id>GHCND:US1MEKX0007</id>
    <displayName>CAMDEN 0.4 SSW, ME US</displayName>
    <minDate>2010-12-01</minDate>
    <maxDate>2013-01-16</maxDate>
    <latitude>44.2086</latitude>
    <longitude>-69.0734</longitude>
    <elevation>29</elevation>
    <locationLabels>
      <type>CNTRY</type>
      <id>FIPS:US</id>
      <displayName>United States</displayName>
    </locationLabels>
    <coverage>0.8843</coverage>
  </station>
  <station>
    <id>GHCND:USC00031152</id>
    <displayName>CAMDEN 1, AR US</displayName>
    <minDate>1886-01-15</minDate>
    <maxDate>2013-01-16</maxDate>
    <latitude>33.59</latitude>
    <longitude>-92.8236</longitude>
    <elevation>35.4</elevation>
    <locationLabels>
      <type>CNTRY</type>
      <id>FIPS:US</id>
      <displayName>United States</displayName>
    </locationLabels>
    <coverage>0.9771</coverage>
  </station>
  <station>
    <id>GHCND:US1ALWX0002</id>
    <displayName>CAMDEN 1.0 NNE, AL US</displayName>
    <minDate>2008-01-01</minDate>
    <maxDate>2013-01-16</maxDate>
    <latitude>32.0166</latitude>
    <longitude>-87.2904</longitude>
    <elevation>79.9</elevation>
    <locationLabels>
      <type>CNTRY</type>
      <id>FIPS:US</id>
      <displayName>United States</displayName>
    </locationLabels>
    <coverage>0.9305</coverage>
  </station>
  <station>
    <id>GHCND:US1NYOD0006</id>
    <displayName>CAMDEN 1.0 WSW, NY US</displayName>
    <minDate>2004-01-01</minDate>
    <maxDate>2007-08-31</maxDate>
    <latitude>43.3333</latitude>
    <longitude>-75.7667</longitude>
    <elevation>196.9</elevation>
    <locationLabels>
      <type>CNTRY</type>
      <id>FIPS:US</id>
      <displayName>United States</displayName>
    </locationLabels>
    <coverage>0.8178</coverage>
  </station>
  <station>
    <id>GHCND:US1MSMD0005</id>
    <displayName>CAMDEN 1.7 WSW, MS US</displayName>
    <minDate>2009-10-07</minDate>
    <maxDate>2011-05-03</maxDate>
    <latitude>32.7749</latitude>
    <longitude>-89.8663</longitude>
    <elevation>90.5</elevation>
    <locationLabels>
      <type>CNTRY</type>
      <id>FIPS:US</id>
      <displayName>United States</displayName>
    </locationLabels>
    <coverage>0.3502</coverage>
  </station>
  <station>
    <id>GHCND:US1AROC0002</id>
    <displayName>CAMDEN 1.8 NNW, AR US</displayName>
    <minDate>2009-05-06</minDate>
    <maxDate>2013-01-16</maxDate>
    <latitude>33.589</latitude>
    <longitude>-92.8625</longitude>
    <elevation>51.5</elevation>
    <locationLabels>
      <type>CNTRY</type>
      <id>FIPS:US</id>
      <displayName>United States</displayName>
    </locationLabels>
    <coverage>0.7936</coverage>
  </station>
  <station>
    <id>GHCND:USC00031154</id>
    <displayName>CAMDEN 2, AR US</displayName>
    <minDate>1948-06-01</minDate>
    <maxDate>1951-09-30</maxDate>
    <latitude>33.58333</latitude>
    <longitude>-92.85</longitude>
    <elevation>49.1</elevation>
    <locationLabels>
      <type>CNTRY</type>
      <id>FIPS:US</id>
      <displayName>United States</displayName>
    </locationLabels>
    <coverage>0.94</coverage>
  </station>
  <station>
    <id>GHCND:US1SCKR0017</id>
    <displayName>CAMDEN 2.7 NNW, SC US</displayName>
    <minDate>2012-04-11</minDate>
    <maxDate>2013-01-16</maxDate>
    <latitude>34.2843</latitude>
    <longitude>-80.6156</longitude>
    <elevation>85.6</elevation>
    <locationLabels>
      <type>CNTRY</type>
      <id>FIPS:US</id>
      <displayName>United States</displayName>
    </locationLabels>
    <coverage>0.8861</coverage>
  </station>
  <station>
    <id>GHCND:USC00011301</id>
    <displayName>CAMDEN 3 NW, AL US</displayName>
    <minDate>1961-09-01</minDate>
    <maxDate>2001-12-31</maxDate>
    <latitude>32.02889</latitude>
    <longitude>-87.31667</longitude>
    <elevation>71.6</elevation>
    <locationLabels>
      <type>CNTRY</type>
      <id>FIPS:US</id>
      <displayName>United States</displayName>
    </locationLabels>
    <coverage>0.9963</coverage>
  </station>
  <station>
    <id>GHCND:USC00011300</id>
    <displayName>CAMDEN 3 NW, AL US</displayName>
    <minDate>1908-06-19</minDate>
    <maxDate>1961-08-31</maxDate>
    <latitude>32.02889</latitude>
    <longitude>-87.31667</longitude>
    <elevation>71.6</elevation>
    <locationLabels>
      <type>CNTRY</type>
      <id>FIPS:US</id>
      <displayName>United States</displayName>
    </locationLabels>
    <coverage>0.2184</coverage>
  </station>
  <station>
    <id>GHCND:USC00381306</id>
    <displayName>CAMDEN 3 W, SC US</displayName>
    <minDate>2008-06-01</minDate>
    <maxDate>2010-08-10</maxDate>
    <latitude>34.24472</latitude>
    <longitude>-80.2825</longitude>
    <elevation>76.8</elevation>
    <locationLabels>
      <type>CNTRY</type>
      <id>FIPS:US</id>
      <displayName>United States</displayName>
    </locationLabels>
    <coverage>0.9713</coverage>
  </station>
  <station>
    <id>GHCND:USC00381310</id>
    <displayName>CAMDEN 3 W, SC US</displayName>
    <minDate>1849-05-01</minDate>
    <maxDate>2001-09-30</maxDate>
    <latitude>34.24291</latitude>
    <longitude>-80.65652</longitude>
    <elevation>42.7</elevation>
    <locationLabels>
      <type>CNTRY</type>
      <id>FIPS:US</id>
      <displayName>United States</displayName>
    </locationLabels>
    <coverage>0.7825</coverage>
  </station>
  <station>
    <id>GHCND:US1SCKR0012</id>
    <displayName>CAMDEN 3.1 SE, SC US</displayName>
    <minDate>2011-11-01</minDate>
    <maxDate>2013-01-16</maxDate>
    <latitude>34.2261</latitude>
    <longitude>-80.5793</longitude>
    <elevation>52.7</elevation>
    <locationLabels>
      <type>CNTRY</type>
      <id>FIPS:US</id>
      <displayName>United States</displayName>
    </locationLabels>
    <coverage>0.8375</coverage>
  </station>
  <station>
    <id>GHCND:US1SCKR0019</id>
    <displayName>CAMDEN 3.2 SE, SC US</displayName>
    <minDate>2012-05-20</minDate>
    <maxDate>2013-01-16</maxDate>
    <latitude>34.2268</latitude>
    <longitude>-80.5756</longitude>
    <elevation>59.4</elevation>
    <locationLabels>
      <type>CNTRY</type>
      <id>FIPS:US</id>
      <displayName>United States</displayName>
    </locationLabels>
    <coverage>0.8802</coverage>
  </station>
  <station>
    <id>GHCND:US1SCKR0003</id>
    <displayName>CAMDEN 4.2 ENE, SC US</displayName>
    <minDate>2008-03-23</minDate>
    <maxDate>2013-01-16</maxDate>
    <latitude>34.2947</latitude>
    <longitude>-80.5509</longitude>
    <elevation>87.5</elevation>
    <locationLabels>
      <type>CNTRY</type>
      <id>FIPS:US</id>
      <displayName>United States</displayName>
    </locationLabels>
    <coverage>0.9779</coverage>
  </station>
  <station>
    <id>GHCND:US1TNBN0001</id>
    <displayName>CAMDEN 4.5 NE, TN US</displayName>
    <minDate>2007-08-30</minDate>
    <maxDate>2013-01-16</maxDate>
    <latitude>36.1066</latitude>
    <longitude>-88.0443</longitude>
    <elevation>149</elevation>
    <locationLabels>
      <type>CNTRY</type>
      <id>FIPS:US</id>
      <displayName>United States</displayName>
    </locationLabels>
    <coverage>0.9964</coverage>
  </station>
  <station>
    <id>GHCND:US1INCR0002</id>
    <displayName>CAMDEN 4.9 NNE, IN US</displayName>
    <minDate>2007-02-13</minDate>
    <maxDate>2012-07-01</maxDate>
    <latitude>40.6775</latitude>
    <longitude>-86.5102</longitude>
    <elevation>221.9</elevation>
    <locationLabels>
      <type>CNTRY</type>
      <id>FIPS:US</id>
      <displayName>United States</displayName>
    </locationLabels>
    <coverage>0.881</coverage>
  </station>
  <station>
    <id>GHCND:US1AROC0004</id>
    <displayName>CAMDEN 6.3 N, AR US</displayName>
    <minDate>2012-06-29</minDate>
    <maxDate>2013-01-16</maxDate>
    <latitude>33.6574</latitude>
    <longitude>-92.8288</longitude>
    <elevation>35.4</elevation>
    <locationLabels>
      <type>CNTRY</type>
      <id>FIPS:US</id>
      <displayName>United States</displayName>
    </locationLabels>
    <coverage>0.9406</coverage>
  </station>
  <station>
    <id>GHCND:US1SCKR0004</id>
    <displayName>CAMDEN 6.6 NE, SC US</displayName>
    <minDate>2009-06-14</minDate>
    <maxDate>2013-01-16</maxDate>
    <latitude>34.3398</latitude>
    <longitude>-80.5449</longitude>
    <elevation>96</elevation>
    <locationLabels>
      <type>CNTRY</type>
      <id>FIPS:US</id>
      <displayName>United States</displayName>
    </locationLabels>
    <coverage>0.8781</coverage>
  </station>
  <station>
    <id>GHCND:USC00461363</id>
    <displayName>CAMDEN ON GAULEY 2 SW, WV US</displayName>
    <minDate>1915-01-07</minDate>
    <maxDate>2012-03-18</maxDate>
    <latitude>38.3567</latitude>
    <longitude>-80.6294</longitude>
    <elevation>676.7</elevation>
    <locationLabels>
      <type>CNTRY</type>
      <id>FIPS:US</id>
      <displayName>United States</displayName>
    </locationLabels>
    <coverage>0.8567</coverage>
  </station>
  <station>
    <id>GHCND:US1MOPT0001</id>
    <displayName>CAMDEN POINT 1.9 SSE, MO US</displayName>
    <minDate>2006-02-07</minDate>
    <maxDate>2010-05-31</maxDate>
    <latitude>39.4281</latitude>
    <longitude>-94.7327</longitude>
    <elevation>270.1</elevation>
    <locationLabels>
      <type>CNTRY</type>
      <id>FIPS:US</id>
      <displayName>United States</displayName>
    </locationLabels>
    <coverage>0.953</coverage>
  </station>
  <station>
    <id>GHCND:USR0000TCAM</id>
    <displayName>CAMDEN TOWER TENNESSEE, TN US</displayName>
    <minDate>2003-10-29</minDate>
    <maxDate>2012-08-22</maxDate>
    <latitude>36.0661</latitude>
    <longitude>-88.1686</longitude>
    <elevation>156.1</elevation>
    <locationLabels>
      <type>CNTRY</type>
      <id>FIPS:US</id>
      <displayName>United States</displayName>
    </locationLabels>
    <coverage>0.8767</coverage>
  </station>
  <station>
    <id>GHCND:USC00201221</id>
    <displayName>CAMDEN, MI US</displayName>
    <minDate>1896-09-01</minDate>
    <maxDate>1899-05-31</maxDate>
    <latitude>41.73333</latitude>
    <longitude>-84.76667</longitude>
    <elevation>368.8</elevation>
    <locationLabels>
      <type>CNTRY</type>
      <id>FIPS:US</id>
      <displayName>United States</displayName>
    </locationLabels>
    <coverage>0.8255</coverage>
  </station>
  <station>
    <id>GHCND:USC00281280</id>
    <displayName>CAMDEN, NJ US</displayName>
    <minDate>1893-01-01</minDate>
    <maxDate>1953-02-28</maxDate>
    <latitude>39.91667</latitude>
    <longitude>-75.11667</longitude>
    <elevation>4.3</elevation>
    <locationLabels>
      <type>CNTRY</type>
      <id>FIPS:US</id>
      <displayName>United States</displayName>
    </locationLabels>
    <coverage>0.3147</coverage>
  </station>
  <station>
    <id>GHCND:USC00301110</id>
    <displayName>CAMDEN, NY US</displayName>
    <minDate>1946-08-01</minDate>
    <maxDate>2012-12-16</maxDate>
    <latitude>43.3305</latitude>
    <longitude>-75.8416</longitude>
    <elevation>176.8</elevation>
    <locationLabels>
      <type>CNTRY</type>
      <id>FIPS:US</id>
      <displayName>United States</displayName>
    </locationLabels>
    <coverage>0.8283</coverage>
  </station>
  <station>
    <id>GHCND:USC00401352</id>
    <displayName>CAMDEN, TN US</displayName>
    <minDate>1997-08-01</minDate>
    <maxDate>2013-01-16</maxDate>
    <latitude>36.05194</latitude>
    <longitude>-88.08278</longitude>
    <elevation>128.9</elevation>
    <locationLabels>
      <type>CNTRY</type>
      <id>FIPS:US</id>
      <displayName>United States</displayName>
    </locationLabels>
    <coverage>0.9811</coverage>
  </station>
  <station>
    <id>GHCND:USC00461358</id>
    <displayName>CAMDEN, WV US</displayName>
    <minDate>1901-01-01</minDate>
    <maxDate>1903-11-30</maxDate>
    <latitude>38.516667</latitude>
    <longitude>-80.633333</longitude>
    <elevation>618.4</elevation>
    <locationLabels>
      <type>CNTRY</type>
      <id>FIPS:US</id>
      <displayName>United States</displayName>
    </locationLabels>
    <coverage>0.8102</coverage>
  </station>
  <station>
    <id>GHCND:US1MOCM0016</id>
    <displayName>CAMDENTON 0.7 SSW, MO US</displayName>
    <minDate>2010-02-04</minDate>
    <maxDate>2010-12-13</maxDate>
    <latitude>37.9986</latitude>
    <longitude>-92.7505</longitude>
    <elevation>293.5</elevation>
    <locationLabels>
      <type>CNTRY</type>
      <id>FIPS:US</id>
      <displayName>United States</displayName>
    </locationLabels>
    <coverage>0.6645</coverage>
  </station>
  <station>
    <id>GHCND:USC00231212</id>
    <displayName>CAMDENTON 2 NW, MO US</displayName>
    <minDate>1946-04-26</minDate>
    <maxDate>1995-03-31</maxDate>
    <latitude>38.21667</latitude>
    <longitude>-92.76667</longitude>
    <elevation>313.9</elevation>
    <locationLabels>
      <type>CNTRY</type>
      <id>FIPS:US</id>
      <displayName>United States</displayName>
    </locationLabels>
    <coverage>0.9708</coverage>
  </station>
  <station>
    <id>GHCND:US1MOCM0001</id>
    <displayName>CAMDENTON 3.1 SE, MO US</displayName>
    <minDate>2006-06-26</minDate>
    <maxDate>2010-10-22</maxDate>
    <latitude>37.982</latitude>
    <longitude>-92.7004</longitude>
    <elevation>324</elevation>
    <locationLabels>
      <type>CNTRY</type>
      <id>FIPS:US</id>
      <displayName>United States</displayName>
    </locationLabels>
    <coverage>0.1671</coverage>
  </station>
  <station>
    <id>GHCND:US1MOCM0003</id>
    <displayName>CAMDENTON 4.2 NNW, MO US</displayName>
    <minDate>2007-02-04</minDate>
    <maxDate>2009-06-01</maxDate>
    <latitude>38.0658</latitude>
    <longitude>-92.7722</longitude>
    <elevation>230.1</elevation>
    <locationLabels>
      <type>CNTRY</type>
      <id>FIPS:US</id>
      <displayName>United States</displayName>
    </locationLabels>
    <coverage>0.6113</coverage>
  </station>
  <station>
    <id>GHCND:USC00021169</id>
    <displayName>CAMERON 1 NNE, AZ US</displayName>
    <minDate>1962-05-01</minDate>
    <maxDate>1992-09-30</maxDate>
    <latitude>35.88333</latitude>
    <longitude>-111.4</longitude>
    <elevation>1269.5</elevation>
    <locationLabels>
      <type>CNTRY</type>
      <id>FIPS:US</id>
      <displayName>United States</displayName>
    </locationLabels>
    <coverage>0.9799</coverage>
  </station>
  <station>
    <id>GHCND:US1NCHR0010</id>
    <displayName>CAMERON 10.5 ESE, NC US</displayName>
    <minDate>2009-10-13</minDate>
    <maxDate>2013-01-15</maxDate>
    <latitude>35.2668</latitude>
    <longitude>-79.0798</longitude>
    <elevation>123.7</elevation>
    <locationLabels>
      <type>CNTRY</type>
      <id>FIPS:US</id>
      <displayName>United States</displayName>
    </locationLabels>
    <coverage>0.8984</coverage>
  </station>
  <station>
    <id>GHCND:US1SCCA0008</id>
    <displayName>CAMERON 2.0 SE, SC US</displayName>
    <minDate>2011-09-08</minDate>
    <maxDate>2013-01-01</maxDate>
    <latitude>33.5387</latitude>
    <longitude>-80.6895</longitude>
    <elevation>44.8</elevation>
    <locationLabels>
      <type>CNTRY</type>
      <id>FIPS:US</id>
      <displayName>United States</displayName>
    </locationLabels>
    <coverage>0.5228</coverage>
  </station>
  <station>
    <id>GHCND:US1WIBR0006</id>
    <displayName>CAMERON 2.4 SE, WI US</displayName>
    <minDate>2011-11-24</minDate>
    <maxDate>2013-01-16</maxDate>
    <latitude>45.3806</latitude>
    <longitude>-91.7048</longitude>
    <elevation>320.6</elevation>
    <locationLabels>
      <type>CNTRY</type>
      <id>FIPS:US</id>
      <displayName>United States</displayName>
    </locationLabels>
    <coverage>0.9214</coverage>
  </station>
  <station>
    <id>GHCND:USW00053159</id>
    <displayName>CAMERON 25 SSE, AZ US</displayName>
    <minDate>2009-12-16</minDate>
    <maxDate>2013-01-15</maxDate>
    <latitude>35.5037</latitude>
    <longitude>-111.3445</longitude>
    <elevation>1465.2</elevation>
    <locationLabels>
      <type>CNTRY</type>
      <id>FIPS:US</id>
      <displayName>United States</displayName>
    </locationLabels>
    <coverage>0.9956</coverage>
  </station>
  <station>
    <id>GHCND:US1SCCA0007</id>
    <displayName>CAMERON 4.2 SE, SC US</displayName>
    <minDate>2012-03-10</minDate>
    <maxDate>2013-01-16</maxDate>
    <latitude>33.5105</latitude>
    <longitude>-80.67</longitude>
    <elevation>46.6</elevation>
    <locationLabels>
      <type>CNTRY</type>
      <id>FIPS:US</id>
      <displayName>United States</displayName>
    </locationLabels>
    <coverage>0.9776</coverage>
  </station>
  <station>
    <id>GHCND:US1NCHR0017</id>
    <displayName>CAMERON 7.6 E, NC US</displayName>
    <minDate>2011-07-24</minDate>
    <maxDate>2013-01-16</maxDate>
    <latitude>35.3287</latitude>
    <longitude>-79.1163</longitude>
    <elevation>84.7</elevation>
    <locationLabels>
      <type>CNTRY</type>
      <id>FIPS:US</id>
      <displayName>United States</displayName>
    </locationLabels>
    <coverage>0.8527</coverage>
  </station>
  <station>
    <id>GHCND:USR0000CCAM</id>
    <displayName>CAMERON FIRE STATION CALIFORNI, CA US</displayName>
    <minDate>1994-10-24</minDate>
    <maxDate>2012-08-30</maxDate>
    <latitude>32.7214</latitude>
    <longitude>-116.4631</longitude>
    <elevation>1049.4</elevation>
    <locationLabels>
      <type>CNTRY</type>
      <id>FIPS:US</id>
      <displayName>United States</displayName>
    </locationLabels>
    <coverage>0.9548</coverage>
  </station>
  <station>
    <id>GHCND:US1CAED0006</id>
    <displayName>CAMERON PARK 0.9 SE, CA US</displayName>
    <minDate>2008-11-18</minDate>
    <maxDate>2013-01-06</maxDate>
    <latitude>38.672</latitude>
    <longitude>-120.9759</longitude>
    <elevation>431</elevation>
    <locationLabels>
      <type>CNTRY</type>
      <id>FIPS:US</id>
      <displayName>United States</displayName>
    </locationLabels>
    <coverage>0.4136</coverage>
  </station>
  <station>
    <id>GHCND:USC00411349</id>
    <displayName>CAMERON RANCH, TX US</displayName>
    <minDate>1941-04-01</minDate>
    <maxDate>1946-09-30</maxDate>
    <latitude>26.55</latitude>
    <longitude>-98.58333</longitude>
    <elevation>139.9</elevation>
    <locationLabels>
      <type>CNTRY</type>
      <id>FIPS:US</id>
      <displayName>United States</displayName>
    </locationLabels>
    <coverage>0.9846</coverage>
  </station>
  <station>
    <id>GHCND:USC00231216</id>
    <displayName>CAMERON, MO US</displayName>
    <minDate>1992-01-01</minDate>
    <maxDate>2013-01-15</maxDate>
    <latitude>39.7469</latitude>
    <longitude>-94.253</longitude>
    <elevation>307.8</elevation>
    <locationLabels>
      <type>CNTRY</type>
      <id>FIPS:US</id>
      <displayName>United States</displayName>
    </locationLabels>
    <coverage>0.3517</coverage>
  </station>
  <station>
    <id>GHCND:USC00241408</id>
    <displayName>CAMERON, MT US</displayName>
    <minDate>1912-02-01</minDate>
    <maxDate>1951-09-30</maxDate>
    <latitude>45.2</latitude>
    <longitude>-111.68333</longitude>
    <elevation>1676.4</elevation>
    <locationLabels>
      <type>CNTRY</type>
      <id>FIPS:US</id>
      <displayName>United States</displayName>
    </locationLabels>
    <coverage>0.068</coverage>
  </station>
  <station>
    <id>GHCND:USC00291332</id>
    <displayName>CAMERON, NM US</displayName>
    <minDate>1927-09-01</minDate>
    <maxDate>1998-05-31</maxDate>
    <latitude>34.90389</latitude>
    <longitude>-103.44278</longitude>
    <elevation>1396</elevation>
    <locationLabels>
      <type>CNTRY</type>
      <id>FIPS:US</id>
      <displayName>United States</displayName>
    </locationLabels>
    <coverage>0.8203</coverage>
  </station>
  <station>
    <id>GHCND:USC00361180</id>
    <displayName>CAMERON, PA US</displayName>
    <minDate>1895-07-01</minDate>
    <maxDate>1899-05-31</maxDate>
    <latitude>41.45</latitude>
    <longitude>-78.2</longitude>
    <elevation>293.8</elevation>
    <locationLabels>
      <type>CNTRY</type>
      <id>FIPS:US</id>
      <displayName>United States</displayName>
    </locationLabels>
    <coverage>0.9853</coverage>
  </station>
  <station>
    <id>GHCND:USC00411348</id>
    <displayName>CAMERON, TX US</displayName>
    <minDate>1908-02-01</minDate>
    <maxDate>2009-03-31</maxDate>
    <latitude>30.8458</latitude>
    <longitude>-96.97</longitude>
    <elevation>110.9</elevation>
    <locationLabels>
      <type>CNTRY</type>
      <id>FIPS:US</id>
      <displayName>United States</displayName>
    </locationLabels>
    <coverage>0.956</coverage>
  </station>
  <station>
    <id>GHCND:USC00091500</id>
    <displayName>CAMILLA 3 SE, GA US</displayName>
    <minDate>1889-10-01</minDate>
    <maxDate>2013-01-16</maxDate>
    <latitude>31.1902</latitude>
    <longitude>-84.2036</longitude>
    <elevation>53.3</elevation>
    <locationLabels>
      <type>CNTRY</type>
      <id>FIPS:US</id>
      <displayName>United States</displayName>
    </locationLabels>
    <coverage>0.61</coverage>
  </station>
  <station>
    <id>GHCND:USR0000GCML</id>
    <displayName>CAMILLA GEORGIA, GA US</displayName>
    <minDate>2003-02-20</minDate>
    <maxDate>2012-08-31</maxDate>
    <latitude>31.2142</latitude>
    <longitude>-84.2364</longitude>
    <elevation>18.9</elevation>
    <locationLabels>
      <type>CNTRY</type>
      <id>FIPS:US</id>
      <displayName>United States</displayName>
    </locationLabels>
    <coverage>0.9199</coverage>
  </station>
  <station>
    <id>GHCND:US1NYOG0010</id>
    <displayName>CAMILLUS 1.0 W, NY US</displayName>
    <minDate>2005-01-01</minDate>
    <maxDate>2013-01-16</maxDate>
    <latitude>43.0396</latitude>
    <longitude>-76.3283</longitude>
    <elevation>247.5</elevation>
    <locationLabels>
      <type>CNTRY</type>
      <id>FIPS:US</id>
      <displayName>United States</displayName>
    </locationLabels>
    <coverage>0.693</coverage>
  </station>
</stationCollection>
