<?xml version="1.0" encoding="UTF-8" standalone="yes"?>
<stationCollection totalCount="46020" pageCount="461" pageSize="100" page="98">
  <station>
    <id>GHCND:USC00131889</id>
    <displayName>COUNCIL BLUFFS 6 NE, IA US</displayName>
    <minDate>1893-07-01</minDate>
    <maxDate>1965-07-31</maxDate>
    <latitude>41.31667</latitude>
    <longitude>-95.81667</longitude>
    <elevation>328.9</elevation>
    <locationLabels>
      <type>CNTRY</type>
      <id>FIPS:US</id>
      <displayName>United States</displayName>
    </locationLabels>
    <coverage>0.3886</coverage>
  </station>
  <station>
    <id>GHCND:USC00131888</id>
    <displayName>COUNCIL BLUFFS 6 NNE, IA US</displayName>
    <minDate>1948-08-01</minDate>
    <maxDate>1951-09-30</maxDate>
    <latitude>41.33333</latitude>
    <longitude>-95.81667</longitude>
    <elevation>369.1</elevation>
    <locationLabels>
      <type>CNTRY</type>
      <id>FIPS:US</id>
      <displayName>United States</displayName>
    </locationLabels>
    <coverage>0.9957</coverage>
  </station>
  <station>
    <id>GHCND:USC00141867</id>
    <displayName>COUNCIL GROVE LAKE, KS US</displayName>
    <minDate>1964-06-01</minDate>
    <maxDate>2013-01-16</maxDate>
    <latitude>38.6758</latitude>
    <longitude>-96.5096</longitude>
    <elevation>402.3</elevation>
    <locationLabels>
      <type>CNTRY</type>
      <id>FIPS:US</id>
      <displayName>United States</displayName>
    </locationLabels>
    <coverage>0.9847</coverage>
  </station>
  <station>
    <id>GHCND:USC00141866</id>
    <displayName>COUNCIL GROVE, KS US</displayName>
    <minDate>1908-10-13</minDate>
    <maxDate>1963-09-30</maxDate>
    <latitude>38.66667</latitude>
    <longitude>-96.5</longitude>
    <elevation>399.9</elevation>
    <locationLabels>
      <type>CNTRY</type>
      <id>FIPS:US</id>
      <displayName>United States</displayName>
    </locationLabels>
    <coverage>0.9822</coverage>
  </station>
  <station>
    <id>GHCND:USC00502217</id>
    <displayName>COUNCIL, AK US</displayName>
    <minDate>1937-08-01</minDate>
    <maxDate>1942-07-31</maxDate>
    <latitude>64.88333</latitude>
    <longitude>-163.68333</longitude>
    <elevation>29</elevation>
    <locationLabels>
      <type>CNTRY</type>
      <id>FIPS:US</id>
      <displayName>United States</displayName>
    </locationLabels>
    <coverage>0.9934</coverage>
  </station>
  <station>
    <id>GHCND:USC00102187</id>
    <displayName>COUNCIL, ID US</displayName>
    <minDate>1911-07-01</minDate>
    <maxDate>2013-01-16</maxDate>
    <latitude>44.7441</latitude>
    <longitude>-116.4326</longitude>
    <elevation>897</elevation>
    <locationLabels>
      <type>CNTRY</type>
      <id>FIPS:US</id>
      <displayName>United States</displayName>
    </locationLabels>
    <coverage>0.906</coverage>
  </station>
  <station>
    <id>GHCND:US1INMD0003</id>
    <displayName>COUNTRY CLUB HEIGHTS 4.1 NE, IN US</displayName>
    <minDate>2007-03-05</minDate>
    <maxDate>2007-08-22</maxDate>
    <latitude>40.168</latitude>
    <longitude>-85.6325</longitude>
    <elevation>270.1</elevation>
    <locationLabels>
      <type>CNTRY</type>
      <id>FIPS:US</id>
      <displayName>United States</displayName>
    </locationLabels>
    <coverage>0.6257</coverage>
  </station>
  <station>
    <id>GHCND:US1ILCK0088</id>
    <displayName>COUNTRYSIDE 0.8 ENE, IL US</displayName>
    <minDate>2008-03-18</minDate>
    <maxDate>2013-01-16</maxDate>
    <latitude>41.7823</latitude>
    <longitude>-87.8622</longitude>
    <elevation>199</elevation>
    <locationLabels>
      <type>CNTRY</type>
      <id>FIPS:US</id>
      <displayName>United States</displayName>
    </locationLabels>
    <coverage>0.8771</coverage>
  </station>
  <station>
    <id>GHCND:US1ILCK0095</id>
    <displayName>COUNTRYSIDE 1.3 NNE, IL US</displayName>
    <minDate>2008-03-18</minDate>
    <maxDate>2013-01-13</maxDate>
    <latitude>41.7937</latitude>
    <longitude>-87.8649</longitude>
    <elevation>199</elevation>
    <locationLabels>
      <type>CNTRY</type>
      <id>FIPS:US</id>
      <displayName>United States</displayName>
    </locationLabels>
    <coverage>0.9648</coverage>
  </station>
  <station>
    <id>GHCND:US1WAIS0007</id>
    <displayName>COUPEVILLE 0.5 WNW, WA US</displayName>
    <minDate>2008-11-06</minDate>
    <maxDate>2013-01-16</maxDate>
    <latitude>48.2198</latitude>
    <longitude>-122.6859</longitude>
    <elevation>25.6</elevation>
    <locationLabels>
      <type>CNTRY</type>
      <id>FIPS:US</id>
      <displayName>United States</displayName>
    </locationLabels>
    <coverage>0.9374</coverage>
  </station>
  <station>
    <id>GHCND:USC00451783</id>
    <displayName>COUPEVILLE 1 S, WA US</displayName>
    <minDate>1895-11-01</minDate>
    <maxDate>2012-11-30</maxDate>
    <latitude>48.2072</latitude>
    <longitude>-122.6913</longitude>
    <elevation>15.2</elevation>
    <locationLabels>
      <type>CNTRY</type>
      <id>FIPS:US</id>
      <displayName>United States</displayName>
    </locationLabels>
    <coverage>0.8815</coverage>
  </station>
  <station>
    <id>GHCND:US1WAIS0026</id>
    <displayName>COUPEVILLE 7.0 SSE, WA US</displayName>
    <minDate>2011-12-30</minDate>
    <maxDate>2013-01-16</maxDate>
    <latitude>48.1303</latitude>
    <longitude>-122.5964</longitude>
    <elevation>60.7</elevation>
    <locationLabels>
      <type>CNTRY</type>
      <id>FIPS:US</id>
      <displayName>United States</displayName>
    </locationLabels>
    <coverage>0.8984</coverage>
  </station>
  <station>
    <id>GHCND:USW00094297</id>
    <displayName>COUPEVILLE NOLF, WA US</displayName>
    <minDate>1996-07-01</minDate>
    <maxDate>1997-12-19</maxDate>
    <latitude>48.21667</latitude>
    <longitude>-122.63333</longitude>
    <elevation>60.7</elevation>
    <locationLabels>
      <type>CNTRY</type>
      <id>FIPS:US</id>
      <displayName>United States</displayName>
    </locationLabels>
    <coverage>0.7989</coverage>
  </station>
  <station>
    <id>GHCND:USC00321816</id>
    <displayName>COURTENAY 1 NW, ND US</displayName>
    <minDate>1930-07-01</minDate>
    <maxDate>2012-11-30</maxDate>
    <latitude>47.2408</latitude>
    <longitude>-98.5838</longitude>
    <elevation>461.8</elevation>
    <locationLabels>
      <type>CNTRY</type>
      <id>FIPS:US</id>
      <displayName>United States</displayName>
    </locationLabels>
    <coverage>0.9684</coverage>
  </station>
  <station>
    <id>GHCND:USW00063868</id>
    <displayName>COURTLAND 2 WSW, AL US</displayName>
    <minDate>2006-05-05</minDate>
    <maxDate>2013-01-15</maxDate>
    <latitude>34.6602</latitude>
    <longitude>-87.3462</longitude>
    <elevation>175.3</elevation>
    <locationLabels>
      <type>CNTRY</type>
      <id>FIPS:US</id>
      <displayName>United States</displayName>
    </locationLabels>
    <coverage>0.9926</coverage>
  </station>
  <station>
    <id>GHCND:USC00141874</id>
    <displayName>COURTLAND, KS US</displayName>
    <minDate>1961-07-01</minDate>
    <maxDate>2013-01-16</maxDate>
    <latitude>39.7811</latitude>
    <longitude>-97.8955</longitude>
    <elevation>459.9</elevation>
    <locationLabels>
      <type>CNTRY</type>
      <id>FIPS:US</id>
      <displayName>United States</displayName>
    </locationLabels>
    <coverage>0.4655</coverage>
  </station>
  <station>
    <id>GHCND:USC00162143</id>
    <displayName>COUSHATTA 2, LA US</displayName>
    <minDate>1892-01-01</minDate>
    <maxDate>1895-11-30</maxDate>
    <latitude>32.01667</latitude>
    <longitude>-93.35</longitude>
    <elevation>43</elevation>
    <locationLabels>
      <type>CNTRY</type>
      <id>FIPS:US</id>
      <displayName>United States</displayName>
    </locationLabels>
    <coverage>0.8133</coverage>
  </station>
  <station>
    <id>GHCND:USC00162144</id>
    <displayName>COUSHATTA GRAND BAYOU, LA US</displayName>
    <minDate>2000-03-01</minDate>
    <maxDate>2006-07-31</maxDate>
    <latitude>32.0075</latitude>
    <longitude>-93.2694</longitude>
    <elevation>47.2</elevation>
    <locationLabels>
      <type>CNTRY</type>
      <id>FIPS:US</id>
      <displayName>United States</displayName>
    </locationLabels>
    <coverage>0.7317</coverage>
  </station>
  <station>
    <id>GHCND:USC00162145</id>
    <displayName>COUSHATTA, LA US</displayName>
    <minDate>1981-10-01</minDate>
    <maxDate>2000-05-31</maxDate>
    <latitude>31.99444</latitude>
    <longitude>-93.37639</longitude>
    <elevation>36.6</elevation>
    <locationLabels>
      <type>CNTRY</type>
      <id>FIPS:US</id>
      <displayName>United States</displayName>
    </locationLabels>
    <coverage>0.8431</coverage>
  </station>
  <station>
    <id>GHCND:USC00162140</id>
    <displayName>COUSHATTA, LA US</displayName>
    <minDate>1893-01-01</minDate>
    <maxDate>1951-11-30</maxDate>
    <latitude>32.01667</latitude>
    <longitude>-93.33333</longitude>
    <elevation>46</elevation>
    <locationLabels>
      <type>CNTRY</type>
      <id>FIPS:US</id>
      <displayName>United States</displayName>
    </locationLabels>
    <coverage>0.1893</coverage>
  </station>
  <station>
    <id>GHCND:USC00351926</id>
    <displayName>COVE 1 E, OR US</displayName>
    <minDate>1917-03-01</minDate>
    <maxDate>2013-01-14</maxDate>
    <latitude>45.2964</latitude>
    <longitude>-117.7904</longitude>
    <elevation>954</elevation>
    <locationLabels>
      <type>CNTRY</type>
      <id>FIPS:US</id>
      <displayName>United States</displayName>
    </locationLabels>
    <coverage>0.7518</coverage>
  </station>
  <station>
    <id>GHCND:USC00421792</id>
    <displayName>COVE FORT, UT US</displayName>
    <minDate>1941-10-01</minDate>
    <maxDate>1980-03-31</maxDate>
    <latitude>38.6</latitude>
    <longitude>-112.58333</longitude>
    <elevation>1827</elevation>
    <locationLabels>
      <type>CNTRY</type>
      <id>FIPS:US</id>
      <displayName>United States</displayName>
    </locationLabels>
    <coverage>0.943</coverage>
  </station>
  <station>
    <id>GHCND:USC00031666</id>
    <displayName>COVE, AR US</displayName>
    <minDate>1946-03-01</minDate>
    <maxDate>2012-12-25</maxDate>
    <latitude>34.4314</latitude>
    <longitude>-94.4175</longitude>
    <elevation>323.1</elevation>
    <locationLabels>
      <type>CNTRY</type>
      <id>FIPS:US</id>
      <displayName>United States</displayName>
    </locationLabels>
    <coverage>0.9662</coverage>
  </station>
  <station>
    <id>GHCND:USC00351924</id>
    <displayName>COVE, OR US</displayName>
    <minDate>1973-10-10</minDate>
    <maxDate>1988-07-31</maxDate>
    <latitude>45.3</latitude>
    <longitude>-117.8</longitude>
    <elevation>890</elevation>
    <locationLabels>
      <type>CNTRY</type>
      <id>FIPS:US</id>
      <displayName>United States</displayName>
    </locationLabels>
    <coverage>0.9754</coverage>
  </station>
  <station>
    <id>GHCND:US1OHHM0017</id>
    <displayName>COVEDALE 1.5 SSE, OH US</displayName>
    <minDate>2011-08-01</minDate>
    <maxDate>2012-12-21</maxDate>
    <latitude>39.1052</latitude>
    <longitude>-84.6247</longitude>
    <elevation>257.6</elevation>
    <locationLabels>
      <type>CNTRY</type>
      <id>FIPS:US</id>
      <displayName>United States</displayName>
    </locationLabels>
    <coverage>0.8566</coverage>
  </station>
  <station>
    <id>GHCND:USC00042084</id>
    <displayName>COVELO EEL RIVER RANGER STATION, CA US</displayName>
    <minDate>1914-01-01</minDate>
    <maxDate>1951-09-30</maxDate>
    <latitude>39.8261</latitude>
    <longitude>-123.085</longitude>
    <elevation>462.4</elevation>
    <locationLabels>
      <type>CNTRY</type>
      <id>FIPS:US</id>
      <displayName>United States</displayName>
    </locationLabels>
    <coverage>0.1794</coverage>
  </station>
  <station>
    <id>GHCND:USC00042081</id>
    <displayName>COVELO, CA US</displayName>
    <minDate>1894-01-01</minDate>
    <maxDate>2012-11-30</maxDate>
    <latitude>39.8158</latitude>
    <longitude>-123.2444</longitude>
    <elevation>430.7</elevation>
    <locationLabels>
      <type>CNTRY</type>
      <id>FIPS:US</id>
      <displayName>United States</displayName>
    </locationLabels>
    <coverage>0.5907</coverage>
  </station>
  <station>
    <id>GHCND:US1RIKN0001</id>
    <displayName>COVENTRY CENTER, RI US</displayName>
    <minDate>2008-04-01</minDate>
    <maxDate>2013-01-16</maxDate>
    <latitude>41.673</latitude>
    <longitude>-71.617</longitude>
    <elevation>118</elevation>
    <locationLabels>
      <type>CNTRY</type>
      <id>FIPS:US</id>
      <displayName>United States</displayName>
    </locationLabels>
    <coverage>0.9424</coverage>
  </station>
  <station>
    <id>GHCND:US1CTTL0003</id>
    <displayName>COVENTRY LAKE 1.1 SE, CT US</displayName>
    <minDate>2009-07-21</minDate>
    <maxDate>2011-05-13</maxDate>
    <latitude>41.7621</latitude>
    <longitude>-72.3164</longitude>
    <elevation>196.6</elevation>
    <locationLabels>
      <type>CNTRY</type>
      <id>FIPS:US</id>
      <displayName>United States</displayName>
    </locationLabels>
    <coverage>0.3505</coverage>
  </station>
  <station>
    <id>GHCND:USC00061689</id>
    <displayName>COVENTRY, CT US</displayName>
    <minDate>1957-04-18</minDate>
    <maxDate>1993-09-30</maxDate>
    <latitude>41.8</latitude>
    <longitude>-72.35</longitude>
    <elevation>146.3</elevation>
    <locationLabels>
      <type>CNTRY</type>
      <id>FIPS:US</id>
      <displayName>United States</displayName>
    </locationLabels>
    <coverage>0.9259</coverage>
  </station>
  <station>
    <id>GHCND:USC00371874</id>
    <displayName>COVENTRY, RI US</displayName>
    <minDate>2011-06-28</minDate>
    <maxDate>2012-11-30</maxDate>
    <latitude>41.7003</latitude>
    <longitude>-71.5926</longitude>
    <elevation>79.2</elevation>
    <locationLabels>
      <type>CNTRY</type>
      <id>FIPS:US</id>
      <displayName>United States</displayName>
    </locationLabels>
    <coverage>0.498</coverage>
  </station>
  <station>
    <id>GHCND:USC00022216</id>
    <displayName>COVERED WELLS 1 E, AZ US</displayName>
    <minDate>1956-02-11</minDate>
    <maxDate>1963-12-31</maxDate>
    <latitude>32.15</latitude>
    <longitude>-112.15</longitude>
    <elevation>798.9</elevation>
    <locationLabels>
      <type>CNTRY</type>
      <id>FIPS:US</id>
      <displayName>United States</displayName>
    </locationLabels>
    <coverage>0.8202</coverage>
  </station>
  <station>
    <id>GHCND:USC00141875</id>
    <displayName>COVERT, KS US</displayName>
    <minDate>1940-06-14</minDate>
    <maxDate>2012-11-30</maxDate>
    <latitude>39.2425</latitude>
    <longitude>-98.8677</longitude>
    <elevation>573</elevation>
    <locationLabels>
      <type>CNTRY</type>
      <id>FIPS:US</id>
      <displayName>United States</displayName>
    </locationLabels>
    <coverage>0.9807</coverage>
  </station>
  <station>
    <id>GHCND:USC00201831</id>
    <displayName>COVERT, MI US</displayName>
    <minDate>1924-08-01</minDate>
    <maxDate>1925-11-30</maxDate>
    <latitude>42.28333</latitude>
    <longitude>-86.26667</longitude>
    <locationLabels>
      <type>CNTRY</type>
      <id>FIPS:US</id>
      <displayName>United States</displayName>
    </locationLabels>
    <coverage>0.7864</coverage>
  </station>
  <station>
    <id>GHCND:USC00042090</id>
    <displayName>COVINA CITY YRD FC387B, CA US</displayName>
    <minDate>1929-10-01</minDate>
    <maxDate>2012-11-30</maxDate>
    <latitude>34.0919</latitude>
    <longitude>-117.8805</longitude>
    <elevation>185</elevation>
    <locationLabels>
      <type>CNTRY</type>
      <id>FIPS:US</id>
      <displayName>United States</displayName>
    </locationLabels>
    <coverage>0.8917</coverage>
  </station>
  <station>
    <id>GHCND:USC00042088</id>
    <displayName>COVINA, CA US</displayName>
    <minDate>1906-03-01</minDate>
    <maxDate>1949-05-31</maxDate>
    <latitude>34.06667</latitude>
    <longitude>-117.86667</longitude>
    <elevation>182.9</elevation>
    <locationLabels>
      <type>CNTRY</type>
      <id>FIPS:US</id>
      <displayName>United States</displayName>
    </locationLabels>
    <coverage>0.355</coverage>
  </station>
  <station>
    <id>GHCND:US1INFN0003</id>
    <displayName>COVINGTON 0.4 WNW, IN US</displayName>
    <minDate>2006-12-21</minDate>
    <maxDate>2012-12-27</maxDate>
    <latitude>40.1422</latitude>
    <longitude>-87.3979</longitude>
    <elevation>173.1</elevation>
    <locationLabels>
      <type>CNTRY</type>
      <id>FIPS:US</id>
      <displayName>United States</displayName>
    </locationLabels>
    <coverage>0.5912</coverage>
  </station>
  <station>
    <id>GHCND:US1INFN0004</id>
    <displayName>COVINGTON 0.6 ESE, IN US</displayName>
    <minDate>2008-10-03</minDate>
    <maxDate>2012-11-07</maxDate>
    <latitude>40.1367</latitude>
    <longitude>-87.3815</longitude>
    <elevation>185.9</elevation>
    <locationLabels>
      <type>CNTRY</type>
      <id>FIPS:US</id>
      <displayName>United States</displayName>
    </locationLabels>
    <coverage>0.1409</coverage>
  </station>
  <station>
    <id>GHCND:USC00121841</id>
    <displayName>COVINGTON 1 WNW, IN US</displayName>
    <minDate>1925-09-01</minDate>
    <maxDate>2013-01-16</maxDate>
    <latitude>40.1397</latitude>
    <longitude>-87.4066</longitude>
    <elevation>150.9</elevation>
    <locationLabels>
      <type>CNTRY</type>
      <id>FIPS:US</id>
      <displayName>United States</displayName>
    </locationLabels>
    <coverage>0.4197</coverage>
  </station>
  <station>
    <id>GHCND:US1WAKG0097</id>
    <displayName>COVINGTON 1.1 NE, WA US</displayName>
    <minDate>2009-01-02</minDate>
    <maxDate>2011-10-04</maxDate>
    <latitude>47.3679</latitude>
    <longitude>-122.0881</longitude>
    <elevation>119.2</elevation>
    <locationLabels>
      <type>CNTRY</type>
      <id>FIPS:US</id>
      <displayName>United States</displayName>
    </locationLabels>
    <coverage>0.9284</coverage>
  </station>
  <station>
    <id>GHCND:US1OKGD0005</id>
    <displayName>COVINGTON 1.8 N, OK US</displayName>
    <minDate>2006-09-07</minDate>
    <maxDate>2010-09-11</maxDate>
    <latitude>36.333</latitude>
    <longitude>-97.586</longitude>
    <elevation>345</elevation>
    <locationLabels>
      <type>CNTRY</type>
      <id>FIPS:US</id>
      <displayName>United States</displayName>
    </locationLabels>
    <coverage>0.8499</coverage>
  </station>
  <station>
    <id>GHCND:USC00361833</id>
    <displayName>COVINGTON 2 WSW, PA US</displayName>
    <minDate>1956-10-01</minDate>
    <maxDate>2013-01-16</maxDate>
    <latitude>41.7333</latitude>
    <longitude>-77.1167</longitude>
    <elevation>531.9</elevation>
    <locationLabels>
      <type>CNTRY</type>
      <id>FIPS:US</id>
      <displayName>United States</displayName>
    </locationLabels>
    <coverage>0.9978</coverage>
  </station>
  <station>
    <id>GHCND:USC00361832</id>
    <displayName>COVINGTON 2 WSW, PA US</displayName>
    <minDate>1938-10-19</minDate>
    <maxDate>1956-09-30</maxDate>
    <latitude>41.7333</latitude>
    <longitude>-77.1167</longitude>
    <elevation>531.9</elevation>
    <locationLabels>
      <type>CNTRY</type>
      <id>FIPS:US</id>
      <displayName>United States</displayName>
    </locationLabels>
    <coverage>0.9578</coverage>
  </station>
  <station>
    <id>GHCND:US1GANW0001</id>
    <displayName>COVINGTON 2.4 SW, GA US</displayName>
    <minDate>2008-04-05</minDate>
    <maxDate>2013-01-16</maxDate>
    <latitude>33.5748</latitude>
    <longitude>-83.8775</longitude>
    <elevation>224.9</elevation>
    <locationLabels>
      <type>CNTRY</type>
      <id>FIPS:US</id>
      <displayName>United States</displayName>
    </locationLabels>
    <coverage>0.9251</coverage>
  </station>
  <station>
    <id>GHCND:USC00201848</id>
    <displayName>COVINGTON 3 NW, MI US</displayName>
    <minDate>1948-07-01</minDate>
    <maxDate>1948-11-30</maxDate>
    <latitude>46.58333</latitude>
    <longitude>-88.56667</longitude>
    <locationLabels>
      <type>CNTRY</type>
      <id>FIPS:US</id>
      <displayName>United States</displayName>
    </locationLabels>
    <coverage>0.7843</coverage>
  </station>
  <station>
    <id>GHCND:USC00402108</id>
    <displayName>COVINGTON 3 SW, TN US</displayName>
    <minDate>1890-05-01</minDate>
    <maxDate>2013-01-16</maxDate>
    <latitude>35.5497</latitude>
    <longitude>-89.7</longitude>
    <elevation>117.3</elevation>
    <locationLabels>
      <type>CNTRY</type>
      <id>FIPS:US</id>
      <displayName>United States</displayName>
    </locationLabels>
    <coverage>0.9335</coverage>
  </station>
  <station>
    <id>GHCND:USC00162151</id>
    <displayName>COVINGTON 4 NNW, LA US</displayName>
    <minDate>1893-05-01</minDate>
    <maxDate>2009-10-31</maxDate>
    <latitude>30.52722</latitude>
    <longitude>-90.11139</longitude>
    <elevation>12.2</elevation>
    <locationLabels>
      <type>CNTRY</type>
      <id>FIPS:US</id>
      <displayName>United States</displayName>
    </locationLabels>
    <coverage>0.9663</coverage>
  </station>
  <station>
    <id>GHCND:USC00121843</id>
    <displayName>COVINGTON 4 SW, IN US</displayName>
    <minDate>1962-10-01</minDate>
    <maxDate>1981-11-30</maxDate>
    <latitude>40.11667</latitude>
    <longitude>-87.45</longitude>
    <elevation>189</elevation>
    <locationLabels>
      <type>CNTRY</type>
      <id>FIPS:US</id>
      <displayName>United States</displayName>
    </locationLabels>
    <coverage>0.916</coverage>
  </station>
  <station>
    <id>GHCND:US1VAAL0003</id>
    <displayName>COVINGTON 4.1 E, VA US</displayName>
    <minDate>2007-12-21</minDate>
    <maxDate>2013-01-16</maxDate>
    <latitude>37.7847</latitude>
    <longitude>-79.9165</longitude>
    <elevation>398.1</elevation>
    <locationLabels>
      <type>CNTRY</type>
      <id>FIPS:US</id>
      <displayName>United States</displayName>
    </locationLabels>
    <coverage>0.9504</coverage>
  </station>
  <station>
    <id>GHCND:USC00442044</id>
    <displayName>COVINGTON FILTER PLANT, VA US</displayName>
    <minDate>1960-10-09</minDate>
    <maxDate>2013-01-16</maxDate>
    <latitude>37.8106</latitude>
    <longitude>-79.9883</longitude>
    <elevation>374.9</elevation>
    <locationLabels>
      <type>CNTRY</type>
      <id>FIPS:US</id>
      <displayName>United States</displayName>
    </locationLabels>
    <coverage>0.9742</coverage>
  </station>
  <station>
    <id>GHCND:USC00092318</id>
    <displayName>COVINGTON, GA US</displayName>
    <minDate>1893-07-01</minDate>
    <maxDate>2013-01-07</maxDate>
    <latitude>33.59722</latitude>
    <longitude>-83.84361</longitude>
    <elevation>234.4</elevation>
    <locationLabels>
      <type>CNTRY</type>
      <id>FIPS:US</id>
      <displayName>United States</displayName>
    </locationLabels>
    <coverage>0.8881</coverage>
  </station>
  <station>
    <id>GHCND:USC00162154</id>
    <displayName>COVINGTON, LA US</displayName>
    <minDate>1999-06-01</minDate>
    <maxDate>2012-12-30</maxDate>
    <latitude>30.513</latitude>
    <longitude>-90.0899</longitude>
    <elevation>7.6</elevation>
    <locationLabels>
      <type>CNTRY</type>
      <id>FIPS:US</id>
      <displayName>United States</displayName>
    </locationLabels>
    <coverage>0.7425</coverage>
  </station>
  <station>
    <id>GHCND:USC00442041</id>
    <displayName>COVINGTON, VA US</displayName>
    <minDate>1937-05-01</minDate>
    <maxDate>1999-03-31</maxDate>
    <latitude>37.78861</latitude>
    <longitude>-80.00528</longitude>
    <elevation>367.9</elevation>
    <locationLabels>
      <type>CNTRY</type>
      <id>FIPS:US</id>
      <displayName>United States</displayName>
    </locationLabels>
    <coverage>0.9105</coverage>
  </station>
  <station>
    <id>GHCND:USR0000WCOW</id>
    <displayName>COW CREEK WYOMING, WY US</displayName>
    <minDate>1988-08-11</minDate>
    <maxDate>2012-08-31</maxDate>
    <latitude>41.2708</latitude>
    <longitude>-107.5819</longitude>
    <elevation>2204.9</elevation>
    <locationLabels>
      <type>CNTRY</type>
      <id>FIPS:US</id>
      <displayName>United States</displayName>
    </locationLabels>
    <coverage>0.9698</coverage>
  </station>
  <station>
    <id>GHCND:USC00042092</id>
    <displayName>COW CREEK, CA US</displayName>
    <minDate>1934-12-01</minDate>
    <maxDate>1961-04-22</maxDate>
    <latitude>36.53333</latitude>
    <longitude>-116.88333</longitude>
    <elevation>-46</elevation>
    <locationLabels>
      <type>CNTRY</type>
      <id>FIPS:US</id>
      <displayName>United States</displayName>
    </locationLabels>
    <coverage>0.999</coverage>
  </station>
  <station>
    <id>GHCND:USC00022246</id>
    <displayName>COW SPRINGS TRADING, AZ US</displayName>
    <minDate>1965-06-01</minDate>
    <maxDate>1970-05-31</maxDate>
    <latitude>36.41667</latitude>
    <longitude>-110.85</longitude>
    <elevation>1738.9</elevation>
    <locationLabels>
      <type>CNTRY</type>
      <id>FIPS:US</id>
      <displayName>United States</displayName>
    </locationLabels>
    <coverage>0.8719</coverage>
  </station>
  <station>
    <id>GHCND:USC00361838</id>
    <displayName>COWANESQUE DAM, PA US</displayName>
    <minDate>1993-08-01</minDate>
    <maxDate>2013-01-16</maxDate>
    <latitude>41.9903</latitude>
    <longitude>-77.1567</longitude>
    <elevation>350.5</elevation>
    <locationLabels>
      <type>CNTRY</type>
      <id>FIPS:US</id>
      <displayName>United States</displayName>
    </locationLabels>
    <coverage>0.9844</coverage>
  </station>
  <station>
    <id>GHCND:USC00382080</id>
    <displayName>COWARD NEAR, SC US</displayName>
    <minDate>1941-01-01</minDate>
    <maxDate>1948-07-06</maxDate>
    <latitude>33.966667</latitude>
    <longitude>-79.833333</longitude>
    <elevation>39.6</elevation>
    <locationLabels>
      <type>CNTRY</type>
      <id>FIPS:US</id>
      <displayName>United States</displayName>
    </locationLabels>
    <coverage>0.8564</coverage>
  </station>
  <station>
    <id>GHCND:US1COJK0016</id>
    <displayName>COWDREY 16.5 WNW, CO US</displayName>
    <minDate>2004-05-06</minDate>
    <maxDate>2012-10-22</maxDate>
    <latitude>40.9484</latitude>
    <longitude>-106.6071</longitude>
    <elevation>2751.1</elevation>
    <locationLabels>
      <type>CNTRY</type>
      <id>FIPS:US</id>
      <displayName>United States</displayName>
    </locationLabels>
    <coverage>0.4162</coverage>
  </station>
  <station>
    <id>GHCND:US1COJK0007</id>
    <displayName>COWDREY, CO US</displayName>
    <minDate>2004-05-10</minDate>
    <maxDate>2004-11-24</maxDate>
    <latitude>40.8595</latitude>
    <longitude>-106.3132</longitude>
    <elevation>2415.8</elevation>
    <locationLabels>
      <type>CNTRY</type>
      <id>FIPS:US</id>
      <displayName>United States</displayName>
    </locationLabels>
    <coverage>0.8794</coverage>
  </station>
  <station>
    <id>GHCND:USC00312107</id>
    <displayName>COWEETA 8, NC US</displayName>
    <minDate>1950-01-01</minDate>
    <maxDate>1962-03-31</maxDate>
    <latitude>35.03333</latitude>
    <longitude>-83.46667</longitude>
    <elevation>1182.9</elevation>
    <locationLabels>
      <type>CNTRY</type>
      <id>FIPS:US</id>
      <displayName>United States</displayName>
    </locationLabels>
    <coverage>0.9638</coverage>
  </station>
  <station>
    <id>GHCND:USC00312102</id>
    <displayName>COWEETA EXPERIMENT STATION, NC US</displayName>
    <minDate>1942-12-01</minDate>
    <maxDate>2013-01-08</maxDate>
    <latitude>35.05917</latitude>
    <longitude>-83.43139</longitude>
    <elevation>685.5</elevation>
    <locationLabels>
      <type>CNTRY</type>
      <id>FIPS:US</id>
      <displayName>United States</displayName>
    </locationLabels>
    <coverage>0.9968</coverage>
  </station>
  <station>
    <id>GHCND:USC00312097</id>
    <displayName>COWEETA, NC US</displayName>
    <minDate>1949-01-01</minDate>
    <maxDate>1962-03-31</maxDate>
    <latitude>35.06667</latitude>
    <longitude>-83.43333</longitude>
    <elevation>878.1</elevation>
    <locationLabels>
      <type>CNTRY</type>
      <id>FIPS:US</id>
      <displayName>United States</displayName>
    </locationLabels>
    <coverage>0.9895</coverage>
  </station>
  <station>
    <id>GHCND:USC00231961</id>
    <displayName>COWGILL, MO US</displayName>
    <minDate>1893-01-02</minDate>
    <maxDate>1903-08-31</maxDate>
    <latitude>39.566667</latitude>
    <longitude>-93.933333</longitude>
    <locationLabels>
      <type>CNTRY</type>
      <id>FIPS:US</id>
      <displayName>United States</displayName>
    </locationLabels>
    <coverage>0.8456</coverage>
  </station>
  <station>
    <id>GHCND:US1WAYK0015</id>
    <displayName>COWICHE 1.6 WSW, WA US</displayName>
    <minDate>2010-04-05</minDate>
    <maxDate>2013-01-16</maxDate>
    <latitude>46.6585</latitude>
    <longitude>-120.7423</longitude>
    <elevation>554.1</elevation>
    <locationLabels>
      <type>CNTRY</type>
      <id>FIPS:US</id>
      <displayName>United States</displayName>
    </locationLabels>
    <coverage>0.7505</coverage>
  </station>
  <station>
    <id>GHCND:USC00292139</id>
    <displayName>COWLES, NM US</displayName>
    <minDate>1894-07-01</minDate>
    <maxDate>1964-10-31</maxDate>
    <latitude>35.81667</latitude>
    <longitude>-105.66667</longitude>
    <elevation>2471</elevation>
    <locationLabels>
      <type>CNTRY</type>
      <id>FIPS:US</id>
      <displayName>United States</displayName>
    </locationLabels>
    <coverage>0.7884</coverage>
  </station>
  <station>
    <id>GHCND:US1SCCK0003</id>
    <displayName>COWPENS 2.4 NE, SC US</displayName>
    <minDate>2009-04-18</minDate>
    <maxDate>2010-05-06</maxDate>
    <latitude>35.0389</latitude>
    <longitude>-81.7694</longitude>
    <elevation>254.5</elevation>
    <locationLabels>
      <type>CNTRY</type>
      <id>FIPS:US</id>
      <displayName>United States</displayName>
    </locationLabels>
    <coverage>0.4505</coverage>
  </station>
  <station>
    <id>GHCND:USC00342196</id>
    <displayName>COX CITY 2 NE, OK US</displayName>
    <minDate>1980-10-01</minDate>
    <maxDate>2012-06-30</maxDate>
    <latitude>34.7423</latitude>
    <longitude>-97.7038</longitude>
    <elevation>375.5</elevation>
    <locationLabels>
      <type>CNTRY</type>
      <id>FIPS:US</id>
      <displayName>United States</displayName>
    </locationLabels>
    <coverage>0.9646</coverage>
  </station>
  <station>
    <id>GHCND:USC00412066</id>
    <displayName>COX RANCH, TX US</displayName>
    <minDate>1948-03-01</minDate>
    <maxDate>1965-12-31</maxDate>
    <latitude>31.35</latitude>
    <longitude>-99.88333</longitude>
    <elevation>580</elevation>
    <locationLabels>
      <type>CNTRY</type>
      <id>FIPS:US</id>
      <displayName>United States</displayName>
    </locationLabels>
    <coverage>0.9911</coverage>
  </station>
  <station>
    <id>GHCND:USC00312110</id>
    <displayName>COXCOMBE MOUNTAIN, NC US</displayName>
    <minDate>1948-09-01</minDate>
    <maxDate>1962-03-31</maxDate>
    <latitude>35.81667</latitude>
    <longitude>-82.35</longitude>
    <elevation>1296</elevation>
    <locationLabels>
      <type>CNTRY</type>
      <id>FIPS:US</id>
      <displayName>United States</displayName>
    </locationLabels>
    <coverage>0.9621</coverage>
  </station>
  <station>
    <id>GHCND:USC00412070</id>
    <displayName>COY CITY NEAR SOIL CONSERVATION SERVICE NUMBER 2, TX US</displayName>
    <minDate>1940-06-01</minDate>
    <maxDate>1941-12-31</maxDate>
    <latitude>28.816667</latitude>
    <longitude>-98.05</longitude>
    <elevation>121.9</elevation>
    <locationLabels>
      <type>CNTRY</type>
      <id>FIPS:US</id>
      <displayName>United States</displayName>
    </locationLabels>
    <coverage>0.9465</coverage>
  </station>
  <station>
    <id>GHCND:USC00342207</id>
    <displayName>COYLE 7 N MESONET, OK US</displayName>
    <minDate>2009-08-01</minDate>
    <maxDate>2013-01-04</maxDate>
    <latitude>36.06417</latitude>
    <longitude>-97.21278</longitude>
    <elevation>326.7</elevation>
    <locationLabels>
      <type>CNTRY</type>
      <id>FIPS:US</id>
      <displayName>United States</displayName>
    </locationLabels>
    <coverage>0.925</coverage>
  </station>
  <station>
    <id>GHCND:USC00292151</id>
    <displayName>COYOTE 1, NM US</displayName>
    <minDate>1926-06-01</minDate>
    <maxDate>1930-08-31</maxDate>
    <latitude>36.166667</latitude>
    <longitude>-106.616667</longitude>
    <elevation>2072.6</elevation>
    <locationLabels>
      <type>CNTRY</type>
      <id>FIPS:US</id>
      <displayName>United States</displayName>
    </locationLabels>
    <coverage>0.745</coverage>
  </station>
  <station>
    <id>GHCND:USR0000NCYC</id>
    <displayName>COYOTE CANYON NEVADA, NV US</displayName>
    <minDate>1989-07-31</minDate>
    <maxDate>1997-02-27</maxDate>
    <latitude>40.4917</latitude>
    <longitude>-118.1111</longitude>
    <elevation>1539.2</elevation>
    <locationLabels>
      <type>CNTRY</type>
      <id>FIPS:US</id>
      <displayName>United States</displayName>
    </locationLabels>
    <coverage>0.9949</coverage>
  </station>
  <station>
    <id>GHCND:USC00042103</id>
    <displayName>COYOTE CANYON, CA US</displayName>
    <minDate>1948-10-01</minDate>
    <maxDate>1963-07-31</maxDate>
    <latitude>33.43333</latitude>
    <longitude>-116.5</longitude>
    <elevation>694.9</elevation>
    <locationLabels>
      <type>CNTRY</type>
      <id>FIPS:US</id>
      <displayName>United States</displayName>
    </locationLabels>
    <coverage>0.919</coverage>
  </station>
  <station>
    <id>GHCND:USR0000NCYW</id>
    <displayName>COYOTE WASH NEVADA, NV US</displayName>
    <minDate>1986-10-21</minDate>
    <maxDate>2012-08-31</maxDate>
    <latitude>38.2833</latitude>
    <longitude>-114.7583</longitude>
    <elevation>1743.5</elevation>
    <locationLabels>
      <type>CNTRY</type>
      <id>FIPS:US</id>
      <displayName>United States</displayName>
    </locationLabels>
    <coverage>0.9708</coverage>
  </station>
  <station>
    <id>GHCND:USC00042111</id>
    <displayName>COYOTE WELLS, CA US</displayName>
    <minDate>1948-07-01</minDate>
    <maxDate>1970-02-28</maxDate>
    <latitude>32.73333</latitude>
    <longitude>-115.96667</longitude>
    <elevation>75.9</elevation>
    <locationLabels>
      <type>CNTRY</type>
      <id>FIPS:US</id>
      <displayName>United States</displayName>
    </locationLabels>
    <coverage>0.8957</coverage>
  </station>
  <station>
    <id>GHCND:USC00292150</id>
    <displayName>COYOTE, NM US</displayName>
    <minDate>1909-07-01</minDate>
    <maxDate>1914-09-30</maxDate>
    <latitude>33.81667</latitude>
    <longitude>-105.83333</longitude>
    <elevation>1767.8</elevation>
    <locationLabels>
      <type>CNTRY</type>
      <id>FIPS:US</id>
      <displayName>United States</displayName>
    </locationLabels>
    <coverage>0.9692</coverage>
  </station>
  <station>
    <id>GHCND:US1KSWL0002</id>
    <displayName>COYVILLE 2.2 ENE, KS US</displayName>
    <minDate>2006-06-01</minDate>
    <maxDate>2012-12-15</maxDate>
    <latitude>37.702</latitude>
    <longitude>-95.86</longitude>
    <elevation>289</elevation>
    <locationLabels>
      <type>CNTRY</type>
      <id>FIPS:US</id>
      <displayName>United States</displayName>
    </locationLabels>
    <coverage>0.4293</coverage>
  </station>
  <station>
    <id>GHCND:US10daws017</id>
    <displayName>COZAD 0.9 NNE, NE US</displayName>
    <minDate>2011-07-15</minDate>
    <maxDate>2012-12-09</maxDate>
    <latitude>40.8715</latitude>
    <longitude>-99.981</longitude>
    <elevation>0</elevation>
    <locationLabels>
      <type>CNTRY</type>
      <id>FIPS:US</id>
      <displayName>United States</displayName>
    </locationLabels>
    <coverage>0.8813</coverage>
  </station>
  <station>
    <id>GHCND:USC00251942</id>
    <displayName>COZAD 2 S, NE US</displayName>
    <minDate>2004-05-13</minDate>
    <maxDate>2012-11-30</maxDate>
    <latitude>40.8591</latitude>
    <longitude>-99.9788</longitude>
    <elevation>753.8</elevation>
    <locationLabels>
      <type>CNTRY</type>
      <id>FIPS:US</id>
      <displayName>United States</displayName>
    </locationLabels>
    <coverage>0.2346</coverage>
  </station>
  <station>
    <id>GHCND:US10daws008</id>
    <displayName>COZAD 4.4 S, NE US</displayName>
    <minDate>2007-01-01</minDate>
    <maxDate>2012-07-17</maxDate>
    <latitude>40.7966</latitude>
    <longitude>-99.9956</longitude>
    <elevation>762</elevation>
    <locationLabels>
      <type>CNTRY</type>
      <id>FIPS:US</id>
      <displayName>United States</displayName>
    </locationLabels>
    <coverage>0.9743</coverage>
  </station>
  <station>
    <id>GHCND:US10daws001</id>
    <displayName>COZAD 7.2 E, NE US</displayName>
    <minDate>2007-01-01</minDate>
    <maxDate>2013-01-16</maxDate>
    <latitude>40.8658</latitude>
    <longitude>-99.8494</longitude>
    <elevation>754.1</elevation>
    <locationLabels>
      <type>CNTRY</type>
      <id>FIPS:US</id>
      <displayName>United States</displayName>
    </locationLabels>
    <coverage>0.9946</coverage>
  </station>
  <station>
    <id>GHCND:USC00251940</id>
    <displayName>COZAD, NE US</displayName>
    <minDate>1908-10-01</minDate>
    <maxDate>1977-08-15</maxDate>
    <latitude>40.86139</latitude>
    <longitude>-99.98556</longitude>
    <elevation>762</elevation>
    <locationLabels>
      <type>CNTRY</type>
      <id>FIPS:US</id>
      <displayName>United States</displayName>
    </locationLabels>
    <coverage>0.0528</coverage>
  </station>
  <station>
    <id>GHCND:USS0015E08S</id>
    <displayName>COZY COVE, ID US</displayName>
    <minDate>1980-10-02</minDate>
    <maxDate>2013-01-13</maxDate>
    <latitude>44.2833</latitude>
    <longitude>-115.65</longitude>
    <elevation>1639.8</elevation>
    <locationLabels>
      <type>CNTRY</type>
      <id>FIPS:US</id>
      <displayName>United States</displayName>
    </locationLabels>
    <coverage>0.9076</coverage>
  </station>
  <station>
    <id>GHCND:USC00231291</id>
    <displayName>CP GIRARDEAU ST UNIVERSITY, MO US</displayName>
    <minDate>1945-12-01</minDate>
    <maxDate>1960-11-30</maxDate>
    <latitude>37.31667</latitude>
    <longitude>-89.53333</longitude>
    <elevation>149</elevation>
    <locationLabels>
      <type>CNTRY</type>
      <id>FIPS:US</id>
      <displayName>United States</displayName>
    </locationLabels>
    <coverage>0.9491</coverage>
  </station>
  <station>
    <id>GHCND:USC00502222</id>
    <displayName>CRAB BAY, AK US</displayName>
    <minDate>1975-01-01</minDate>
    <maxDate>1979-04-30</maxDate>
    <latitude>60.06667</latitude>
    <longitude>-147.98333</longitude>
    <elevation>21</elevation>
    <locationLabels>
      <type>CNTRY</type>
      <id>FIPS:US</id>
      <displayName>United States</displayName>
    </locationLabels>
    <coverage>0.9949</coverage>
  </station>
  <station>
    <id>GHCND:USS0011E37S</id>
    <displayName>CRAB CREEK, ID US</displayName>
    <minDate>1998-11-29</minDate>
    <maxDate>2013-01-13</maxDate>
    <latitude>44.4333</latitude>
    <longitude>-112</longitude>
    <elevation>2090.9</elevation>
    <locationLabels>
      <type>CNTRY</type>
      <id>FIPS:US</id>
      <displayName>United States</displayName>
    </locationLabels>
    <coverage>0.8386</coverage>
  </station>
  <station>
    <id>GHCND:US1KYRC0004</id>
    <displayName>CRAB ORCHARD 10.4 SW, KY US</displayName>
    <minDate>2009-05-30</minDate>
    <maxDate>2013-01-16</maxDate>
    <latitude>37.3763</latitude>
    <longitude>-84.6611</longitude>
    <elevation>382.8</elevation>
    <locationLabels>
      <type>CNTRY</type>
      <id>FIPS:US</id>
      <displayName>United States</displayName>
    </locationLabels>
    <coverage>0.2447</coverage>
  </station>
  <station>
    <id>GHCND:US10john008</id>
    <displayName>CRAB ORCHARD 2.2 S, NE US</displayName>
    <minDate>2007-01-01</minDate>
    <maxDate>2013-01-16</maxDate>
    <latitude>40.3026</latitude>
    <longitude>-96.4185</longitude>
    <elevation>442</elevation>
    <locationLabels>
      <type>CNTRY</type>
      <id>FIPS:US</id>
      <displayName>United States</displayName>
    </locationLabels>
    <coverage>0.9855</coverage>
  </station>
  <station>
    <id>GHCND:USC00151890</id>
    <displayName>CRAB ORCHARD 6 N, KY US</displayName>
    <minDate>1979-10-01</minDate>
    <maxDate>2012-11-30</maxDate>
    <latitude>37.4902</latitude>
    <longitude>-84.4375</longitude>
    <elevation>341.4</elevation>
    <locationLabels>
      <type>CNTRY</type>
      <id>FIPS:US</id>
      <displayName>United States</displayName>
    </locationLabels>
    <coverage>0.9</coverage>
  </station>
  <station>
    <id>GHCND:USR0000ICBO</id>
    <displayName>CRAB ORCHARD ILLINOIS, IL US</displayName>
    <minDate>2002-11-08</minDate>
    <maxDate>2012-07-13</maxDate>
    <latitude>37.6792</latitude>
    <longitude>-89.0028</longitude>
    <elevation>137.2</elevation>
    <locationLabels>
      <type>CNTRY</type>
      <id>FIPS:US</id>
      <displayName>United States</displayName>
    </locationLabels>
    <coverage>0.9279</coverage>
  </station>
  <station>
    <id>GHCND:USC00402140</id>
    <displayName>CRAB ORCHARD, TN US</displayName>
    <minDate>2011-01-01</minDate>
    <maxDate>2013-01-15</maxDate>
    <latitude>35.91833</latitude>
    <longitude>-84.86861</longitude>
    <elevation>502.9</elevation>
    <locationLabels>
      <type>CNTRY</type>
      <id>FIPS:US</id>
      <displayName>United States</displayName>
    </locationLabels>
    <coverage>0.8097</coverage>
  </station>
  <station>
    <id>GHCND:USC00412073</id>
    <displayName>CRABB 2 W, TX US</displayName>
    <minDate>1948-06-01</minDate>
    <maxDate>1951-09-30</maxDate>
    <latitude>29.53333</latitude>
    <longitude>-95.75</longitude>
    <elevation>34.1</elevation>
    <locationLabels>
      <type>CNTRY</type>
      <id>FIPS:US</id>
      <displayName>United States</displayName>
    </locationLabels>
    <coverage>0.8833</coverage>
  </station>
  <station>
    <id>GHCND:USC00312118</id>
    <displayName>CRABTREE CREEK, NC US</displayName>
    <minDate>1937-12-01</minDate>
    <maxDate>1940-11-30</maxDate>
    <latitude>35.866667</latitude>
    <longitude>-78.75</longitude>
    <elevation>128</elevation>
    <locationLabels>
      <type>CNTRY</type>
      <id>FIPS:US</id>
      <displayName>United States</displayName>
    </locationLabels>
    <coverage>1</coverage>
  </station>
  <station>
    <id>GHCND:USC00351937</id>
    <displayName>CRACKER CREEK, OR US</displayName>
    <minDate>1909-03-01</minDate>
    <maxDate>1915-06-30</maxDate>
    <latitude>44.8</latitude>
    <longitude>-118.216667</longitude>
    <elevation>1463</elevation>
    <locationLabels>
      <type>CNTRY</type>
      <id>FIPS:US</id>
      <displayName>United States</displayName>
    </locationLabels>
    <coverage>1</coverage>
  </station>
  <station>
    <id>GHCND:USC00431657</id>
    <displayName>CRAFTSBURY COMMON, VT US</displayName>
    <minDate>1935-07-23</minDate>
    <maxDate>1947-03-31</maxDate>
    <latitude>44.65</latitude>
    <longitude>-72.383333</longitude>
    <elevation>379.2</elevation>
    <locationLabels>
      <type>CNTRY</type>
      <id>FIPS:US</id>
      <displayName>United States</displayName>
    </locationLabels>
    <coverage>0.945</coverage>
  </station>
  <station>
    <id>GHCND:USC00312120</id>
    <displayName>CRAGGY KNOB, NC US</displayName>
    <minDate>1951-01-01</minDate>
    <maxDate>1962-03-31</maxDate>
    <latitude>35.68333</latitude>
    <longitude>-82.38333</longitude>
    <elevation>1516.1</elevation>
    <locationLabels>
      <type>CNTRY</type>
      <id>FIPS:US</id>
      <displayName>United States</displayName>
    </locationLabels>
    <coverage>0.9783</coverage>
  </station>
  <station>
    <id>GHCND:US1COMF0021</id>
    <displayName>CRAIG 1.2 ESE, CO US</displayName>
    <minDate>2009-09-30</minDate>
    <maxDate>2012-12-21</maxDate>
    <latitude>40.5134</latitude>
    <longitude>-107.5317</longitude>
    <elevation>1888.2</elevation>
    <locationLabels>
      <type>CNTRY</type>
      <id>FIPS:US</id>
      <displayName>United States</displayName>
    </locationLabels>
    <coverage>0.5157</coverage>
  </station>
  <station>
    <id>GHCND:US1COMF0001</id>
    <displayName>CRAIG 12.4 NW, CO US</displayName>
    <minDate>2003-02-11</minDate>
    <maxDate>2004-11-08</maxDate>
    <latitude>40.6371</latitude>
    <longitude>-107.7149</longitude>
    <elevation>2065</elevation>
    <locationLabels>
      <type>CNTRY</type>
      <id>FIPS:US</id>
      <displayName>United States</displayName>
    </locationLabels>
    <coverage>0.8257</coverage>
  </station>
</stationCollection>
