<?xml version="1.0" encoding="UTF-8" standalone="yes"?>
<stationCollection totalCount="46020" pageCount="461" pageSize="100" page="269">
  <station>
    <id>GHCND:USC00325803</id>
    <displayName>MEDORA, ND US</displayName>
    <minDate>1893-01-01</minDate>
    <maxDate>1952-12-31</maxDate>
    <latitude>46.91667</latitude>
    <longitude>-103.51667</longitude>
    <elevation>691.9</elevation>
    <locationLabels>
      <type>CNTRY</type>
      <id>FIPS:US</id>
      <displayName>United States</displayName>
    </locationLabels>
    <coverage>0.4921</coverage>
  </station>
  <station>
    <id>GHCND:USC00295610</id>
    <displayName>MEEK, NM US</displayName>
    <minDate>1916-02-01</minDate>
    <maxDate>1922-03-31</maxDate>
    <latitude>33.61667</latitude>
    <longitude>-105.25</longitude>
    <elevation>1944.6</elevation>
    <locationLabels>
      <type>CNTRY</type>
      <id>FIPS:US</id>
      <displayName>United States</displayName>
    </locationLabels>
    <coverage>0.8649</coverage>
  </station>
  <station>
    <id>GHCND:US1CORB0015</id>
    <displayName>MEEKER 1.9 WSW, CO US</displayName>
    <minDate>2006-01-12</minDate>
    <maxDate>2013-01-16</maxDate>
    <latitude>40.0407</latitude>
    <longitude>-107.9203</longitude>
    <elevation>1919.9</elevation>
    <locationLabels>
      <type>CNTRY</type>
      <id>FIPS:US</id>
      <displayName>United States</displayName>
    </locationLabels>
    <coverage>0.8708</coverage>
  </station>
  <station>
    <id>GHCND:USC00055489</id>
    <displayName>MEEKER 10 NW, CO US</displayName>
    <minDate>1948-08-01</minDate>
    <maxDate>1953-08-31</maxDate>
    <latitude>40.13333</latitude>
    <longitude>-107.98333</longitude>
    <elevation>1961.1</elevation>
    <locationLabels>
      <type>CNTRY</type>
      <id>FIPS:US</id>
      <displayName>United States</displayName>
    </locationLabels>
    <coverage>0.7728</coverage>
  </station>
  <station>
    <id>GHCND:US1CORB0003</id>
    <displayName>MEEKER 12 SE, CO US</displayName>
    <minDate>2004-04-19</minDate>
    <maxDate>2007-10-03</maxDate>
    <latitude>39.9464</latitude>
    <longitude>-107.7206</longitude>
    <elevation>2115</elevation>
    <locationLabels>
      <type>CNTRY</type>
      <id>FIPS:US</id>
      <displayName>United States</displayName>
    </locationLabels>
    <coverage>0.8472</coverage>
  </station>
  <station>
    <id>GHCND:US1CORB0018</id>
    <displayName>MEEKER 14.3 ESE, CO US</displayName>
    <minDate>2006-09-20</minDate>
    <maxDate>2013-01-13</maxDate>
    <latitude>39.9669</latitude>
    <longitude>-107.644</longitude>
    <elevation>2115</elevation>
    <locationLabels>
      <type>CNTRY</type>
      <id>FIPS:US</id>
      <displayName>United States</displayName>
    </locationLabels>
    <coverage>0.1599</coverage>
  </station>
  <station>
    <id>GHCND:USW00094094</id>
    <displayName>MEEKER 15 W, CO US</displayName>
    <minDate>2010-07-20</minDate>
    <maxDate>2013-01-15</maxDate>
    <latitude>40.0822</latitude>
    <longitude>-108.1996</longitude>
    <elevation>1756</elevation>
    <locationLabels>
      <type>CNTRY</type>
      <id>FIPS:US</id>
      <displayName>United States</displayName>
    </locationLabels>
    <coverage>0.9934</coverage>
  </station>
  <station>
    <id>GHCND:US1CORB0001</id>
    <displayName>MEEKER 23 WNW, CO US</displayName>
    <minDate>2004-04-18</minDate>
    <maxDate>2006-11-19</maxDate>
    <latitude>40.15</latitude>
    <longitude>-108.3421</longitude>
    <elevation>1709</elevation>
    <locationLabels>
      <type>CNTRY</type>
      <id>FIPS:US</id>
      <displayName>United States</displayName>
    </locationLabels>
    <coverage>0.5899</coverage>
  </station>
  <station>
    <id>GHCND:US1CORB0008</id>
    <displayName>MEEKER 4.7 ESE, CO US</displayName>
    <minDate>2004-06-03</minDate>
    <maxDate>2007-05-06</maxDate>
    <latitude>39.9994</latitude>
    <longitude>-107.8379</longitude>
    <elevation>1993.1</elevation>
    <locationLabels>
      <type>CNTRY</type>
      <id>FIPS:US</id>
      <displayName>United States</displayName>
    </locationLabels>
    <coverage>0.1367</coverage>
  </station>
  <station>
    <id>GHCND:USC00345779</id>
    <displayName>MEEKER 5 W, OK US</displayName>
    <minDate>1894-01-01</minDate>
    <maxDate>2013-01-16</maxDate>
    <latitude>35.5051</latitude>
    <longitude>-96.9772</longitude>
    <elevation>281.9</elevation>
    <locationLabels>
      <type>CNTRY</type>
      <id>FIPS:US</id>
      <displayName>United States</displayName>
    </locationLabels>
    <coverage>0.9067</coverage>
  </station>
  <station>
    <id>GHCND:US1CORB0010</id>
    <displayName>MEEKER 8.4 E, CO US</displayName>
    <minDate>2004-05-09</minDate>
    <maxDate>2004-09-30</maxDate>
    <latitude>40.0277</latitude>
    <longitude>-107.754</longitude>
    <elevation>2019.9</elevation>
    <locationLabels>
      <type>CNTRY</type>
      <id>FIPS:US</id>
      <displayName>United States</displayName>
    </locationLabels>
    <coverage>0.8828</coverage>
  </station>
  <station>
    <id>GHCND:USW00094050</id>
    <displayName>MEEKER AIRPORT, CO US</displayName>
    <minDate>1997-06-01</minDate>
    <maxDate>2013-01-14</maxDate>
    <latitude>40.04417</latitude>
    <longitude>-107.88861</longitude>
    <elevation>1940.4</elevation>
    <locationLabels>
      <type>CNTRY</type>
      <id>FIPS:US</id>
      <displayName>United States</displayName>
    </locationLabels>
    <coverage>0.9921</coverage>
  </station>
  <station>
    <id>GHCND:USC00055487</id>
    <displayName>MEEKER NUMBER 2, CO US</displayName>
    <minDate>1970-10-01</minDate>
    <maxDate>1992-08-31</maxDate>
    <latitude>40.03333</latitude>
    <longitude>-107.91667</longitude>
    <elevation>1934.6</elevation>
    <locationLabels>
      <type>CNTRY</type>
      <id>FIPS:US</id>
      <displayName>United States</displayName>
    </locationLabels>
    <coverage>0.9108</coverage>
  </station>
  <station>
    <id>GHCND:USC00055484</id>
    <displayName>MEEKER, CO US</displayName>
    <minDate>1893-01-01</minDate>
    <maxDate>2012-12-31</maxDate>
    <latitude>40.0358</latitude>
    <longitude>-107.9058</longitude>
    <elevation>1898.6</elevation>
    <locationLabels>
      <type>CNTRY</type>
      <id>FIPS:US</id>
      <displayName>United States</displayName>
    </locationLabels>
    <coverage>0.6853</coverage>
  </station>
  <station>
    <id>GHCND:US1OKCC0007</id>
    <displayName>MEERS 1.0 S, OK US</displayName>
    <minDate>2012-05-10</minDate>
    <maxDate>2013-01-14</maxDate>
    <latitude>34.7663</latitude>
    <longitude>-98.5728</longitude>
    <elevation>449</elevation>
    <locationLabels>
      <type>CNTRY</type>
      <id>FIPS:US</id>
      <displayName>United States</displayName>
    </locationLabels>
    <coverage>0.716</coverage>
  </station>
  <station>
    <id>GHCND:US1WYPK0009</id>
    <displayName>MEETEETSE 0.1 NNE, WY US</displayName>
    <minDate>2005-10-05</minDate>
    <maxDate>2010-08-03</maxDate>
    <latitude>44.1567</latitude>
    <longitude>-108.8702</longitude>
    <elevation>1766</elevation>
    <locationLabels>
      <type>CNTRY</type>
      <id>FIPS:US</id>
      <displayName>United States</displayName>
    </locationLabels>
    <coverage>0.9139</coverage>
  </station>
  <station>
    <id>GHCND:US1WYPK0022</id>
    <displayName>MEETEETSE 0.2 NNE, WY US</displayName>
    <minDate>2010-07-01</minDate>
    <maxDate>2013-01-14</maxDate>
    <latitude>44.1583</latitude>
    <longitude>-108.8705</longitude>
    <elevation>1756.3</elevation>
    <locationLabels>
      <type>CNTRY</type>
      <id>FIPS:US</id>
      <displayName>United States</displayName>
    </locationLabels>
    <coverage>0.7578</coverage>
  </station>
  <station>
    <id>GHCND:US1WYPK0015</id>
    <displayName>MEETEETSE 0.3 W, WY US</displayName>
    <minDate>2006-12-15</minDate>
    <maxDate>2011-10-13</maxDate>
    <latitude>44.1556</latitude>
    <longitude>-108.8777</longitude>
    <elevation>1761.7</elevation>
    <locationLabels>
      <type>CNTRY</type>
      <id>FIPS:US</id>
      <displayName>United States</displayName>
    </locationLabels>
    <coverage>0.0612</coverage>
  </station>
  <station>
    <id>GHCND:USC00486140</id>
    <displayName>MEETEETSE 1 ESE, WY US</displayName>
    <minDate>1948-08-01</minDate>
    <maxDate>1951-09-30</maxDate>
    <latitude>44.15</latitude>
    <longitude>-108.85</longitude>
    <elevation>1777.9</elevation>
    <locationLabels>
      <type>CNTRY</type>
      <id>FIPS:US</id>
      <displayName>United States</displayName>
    </locationLabels>
    <coverage>0.9516</coverage>
  </station>
  <station>
    <id>GHCND:US1SCCR0032</id>
    <displayName>MEGGETT 1.8 W, SC US</displayName>
    <minDate>2008-04-06</minDate>
    <maxDate>2013-01-16</maxDate>
    <latitude>32.7011</latitude>
    <longitude>-80.2937</longitude>
    <elevation>9.4</elevation>
    <locationLabels>
      <type>CNTRY</type>
      <id>FIPS:US</id>
      <displayName>United States</displayName>
    </locationLabels>
    <coverage>0.9531</coverage>
  </station>
  <station>
    <id>GHCND:USC00355447</id>
    <displayName>MEHAMA, OR US</displayName>
    <minDate>1923-10-01</minDate>
    <maxDate>1966-04-30</maxDate>
    <latitude>44.78889</latitude>
    <longitude>-122.61667</longitude>
    <elevation>189</elevation>
    <locationLabels>
      <type>CNTRY</type>
      <id>FIPS:US</id>
      <displayName>United States</displayName>
    </locationLabels>
    <coverage>0.9449</coverage>
  </station>
  <station>
    <id>GHCND:US1MOSL0022</id>
    <displayName>MEHLVILLE 1.3 SSE, MO US</displayName>
    <minDate>2009-12-01</minDate>
    <maxDate>2013-01-16</maxDate>
    <latitude>38.4825</latitude>
    <longitude>-90.3099</longitude>
    <elevation>154.5</elevation>
    <locationLabels>
      <type>CNTRY</type>
      <id>FIPS:US</id>
      <displayName>United States</displayName>
    </locationLabels>
    <coverage>0.9309</coverage>
  </station>
  <station>
    <id>GHCND:USC00505843</id>
    <displayName>MEIER, AK US</displayName>
    <minDate>1950-06-22</minDate>
    <maxDate>1956-03-31</maxDate>
    <latitude>62.78333</latitude>
    <longitude>-145.45</longitude>
    <elevation>830</elevation>
    <locationLabels>
      <type>CNTRY</type>
      <id>FIPS:US</id>
      <displayName>United States</displayName>
    </locationLabels>
    <coverage>0.5995</coverage>
  </station>
  <station>
    <id>GHCND:US1GACQ0003</id>
    <displayName>MEIGS 8.3 E, GA US</displayName>
    <minDate>2008-07-19</minDate>
    <maxDate>2012-06-26</maxDate>
    <latitude>31.0908</latitude>
    <longitude>-83.9529</longitude>
    <elevation>84.4</elevation>
    <locationLabels>
      <type>CNTRY</type>
      <id>FIPS:US</id>
      <displayName>United States</displayName>
    </locationLabels>
    <coverage>0.1835</coverage>
  </station>
  <station>
    <id>GHCND:USR0000TMEI</id>
    <displayName>MEIGS EOC TENNESSEE, TN US</displayName>
    <minDate>2003-10-24</minDate>
    <maxDate>2012-08-31</maxDate>
    <latitude>35.5208</latitude>
    <longitude>-84.7931</longitude>
    <elevation>231.6</elevation>
    <locationLabels>
      <type>CNTRY</type>
      <id>FIPS:US</id>
      <displayName>United States</displayName>
    </locationLabels>
    <coverage>0.86</coverage>
  </station>
  <station>
    <id>GHCND:USC00506727</id>
    <displayName>MEKORYUK, US</displayName>
    <minDate>1923-09-06</minDate>
    <maxDate>1973-02-28</maxDate>
    <latitude>60.38333</latitude>
    <longitude>-166.2</longitude>
    <elevation>13.7</elevation>
    <locationLabels>
      <type>CNTRY</type>
      <id>FIPS:US</id>
      <displayName>United States</displayName>
    </locationLabels>
    <coverage>0.5678</coverage>
  </station>
  <station>
    <id>GHCND:USC00505845</id>
    <displayName>MEKORYUK, US</displayName>
    <minDate>1982-11-05</minDate>
    <maxDate>1987-08-28</maxDate>
    <latitude>60.38333</latitude>
    <longitude>-166.2</longitude>
    <elevation>13.7</elevation>
    <locationLabels>
      <type>CNTRY</type>
      <id>FIPS:US</id>
      <displayName>United States</displayName>
    </locationLabels>
    <coverage>0.8163</coverage>
  </station>
  <station>
    <id>GHCND:RQC00666128</id>
    <displayName>MELANIA DAM, PR US</displayName>
    <minDate>1955-01-01</minDate>
    <maxDate>1969-01-31</maxDate>
    <latitude>17.98333</latitude>
    <longitude>-66.15</longitude>
    <elevation>42.1</elevation>
    <locationLabels>
      <type>CNTRY</type>
      <id>FIPS:US</id>
      <displayName>United States</displayName>
    </locationLabels>
    <coverage>1</coverage>
  </station>
  <station>
    <id>GHCND:USC00255435</id>
    <displayName>MELBETA, NE US</displayName>
    <minDate>1910-03-01</minDate>
    <maxDate>1920-12-31</maxDate>
    <latitude>41.8</latitude>
    <longitude>-103.5</longitude>
    <elevation>1165.9</elevation>
    <locationLabels>
      <type>CNTRY</type>
      <id>FIPS:US</id>
      <displayName>United States</displayName>
    </locationLabels>
    <coverage>0.7946</coverage>
  </station>
  <station>
    <id>GHCND:US1FLBV0006</id>
    <displayName>MELBOURNE 1.1 N, FL US</displayName>
    <minDate>2007-10-01</minDate>
    <maxDate>2013-01-16</maxDate>
    <latitude>28.1312</latitude>
    <longitude>-80.6436</longitude>
    <elevation>9.1</elevation>
    <locationLabels>
      <type>CNTRY</type>
      <id>FIPS:US</id>
      <displayName>United States</displayName>
    </locationLabels>
    <coverage>0.7928</coverage>
  </station>
  <station>
    <id>GHCND:USC00085607</id>
    <displayName>MELBOURNE 10 WNW, FL US</displayName>
    <minDate>1948-08-01</minDate>
    <maxDate>1951-09-30</maxDate>
    <latitude>28.11667</latitude>
    <longitude>-80.75</longitude>
    <locationLabels>
      <type>CNTRY</type>
      <id>FIPS:US</id>
      <displayName>United States</displayName>
    </locationLabels>
    <coverage>0.9395</coverage>
  </station>
  <station>
    <id>GHCND:US1FLBV0039</id>
    <displayName>MELBOURNE 12.5 NNW, FL US</displayName>
    <minDate>2010-06-01</minDate>
    <maxDate>2013-01-16</maxDate>
    <latitude>28.2484</latitude>
    <longitude>-80.6931</longitude>
    <elevation>4.6</elevation>
    <locationLabels>
      <type>CNTRY</type>
      <id>FIPS:US</id>
      <displayName>United States</displayName>
    </locationLabels>
    <coverage>0.7804</coverage>
  </station>
  <station>
    <id>GHCND:US1FLBV0045</id>
    <displayName>MELBOURNE 3.2 NW, FL US</displayName>
    <minDate>2012-04-01</minDate>
    <maxDate>2013-01-07</maxDate>
    <latitude>28.1477</latitude>
    <longitude>-80.6779</longitude>
    <elevation>8.5</elevation>
    <locationLabels>
      <type>CNTRY</type>
      <id>FIPS:US</id>
      <displayName>United States</displayName>
    </locationLabels>
    <coverage>0.3972</coverage>
  </station>
  <station>
    <id>GHCND:USC00034746</id>
    <displayName>MELBOURNE 5 W, AR US</displayName>
    <minDate>1948-01-01</minDate>
    <maxDate>2013-01-13</maxDate>
    <latitude>36.0823</latitude>
    <longitude>-91.9823</longitude>
    <elevation>152.4</elevation>
    <locationLabels>
      <type>CNTRY</type>
      <id>FIPS:US</id>
      <displayName>United States</displayName>
    </locationLabels>
    <coverage>0.9583</coverage>
  </station>
  <station>
    <id>GHCND:US1FLBV0022</id>
    <displayName>MELBOURNE 7.0 NW, FL US</displayName>
    <minDate>2008-07-25</minDate>
    <maxDate>2010-12-17</maxDate>
    <latitude>28.1796</latitude>
    <longitude>-80.6809</longitude>
    <elevation>9.1</elevation>
    <locationLabels>
      <type>CNTRY</type>
      <id>FIPS:US</id>
      <displayName>United States</displayName>
    </locationLabels>
    <coverage>0.9132</coverage>
  </station>
  <station>
    <id>GHCND:US1FLBV0025</id>
    <displayName>MELBOURNE 8.2 NW, FL US</displayName>
    <minDate>2008-08-31</minDate>
    <maxDate>2013-01-16</maxDate>
    <latitude>28.201</latitude>
    <longitude>-80.7056</longitude>
    <elevation>9.1</elevation>
    <locationLabels>
      <type>CNTRY</type>
      <id>FIPS:US</id>
      <displayName>United States</displayName>
    </locationLabels>
    <coverage>0.9888</coverage>
  </station>
  <station>
    <id>GHCND:US1FLBV0011</id>
    <displayName>MELBOURNE BEACH 3.9 SSE, FL US</displayName>
    <minDate>2007-10-23</minDate>
    <maxDate>2013-01-14</maxDate>
    <latitude>28.0165</latitude>
    <longitude>-80.5332</longitude>
    <elevation>0</elevation>
    <locationLabels>
      <type>CNTRY</type>
      <id>FIPS:US</id>
      <displayName>United States</displayName>
    </locationLabels>
    <coverage>0.8681</coverage>
  </station>
  <station>
    <id>GHCND:USC00085603</id>
    <displayName>MELBOURNE BEACH A1A, FL US</displayName>
    <minDate>2011-01-01</minDate>
    <maxDate>2012-11-30</maxDate>
    <latitude>28.0547</latitude>
    <longitude>-80.5512</longitude>
    <elevation>3.7</elevation>
    <locationLabels>
      <type>CNTRY</type>
      <id>FIPS:US</id>
      <displayName>United States</displayName>
    </locationLabels>
    <coverage>0.98</coverage>
  </station>
  <station>
    <id>GHCND:USW00012838</id>
    <displayName>MELBOURNE INTERNATIONAL AIRPORT, FL US</displayName>
    <minDate>1948-01-10</minDate>
    <maxDate>2013-01-15</maxDate>
    <latitude>28.1011</latitude>
    <longitude>-80.6439</longitude>
    <elevation>8.2</elevation>
    <locationLabels>
      <type>CNTRY</type>
      <id>FIPS:US</id>
      <displayName>United States</displayName>
    </locationLabels>
    <coverage>0.2735</coverage>
  </station>
  <station>
    <id>GHCND:USW00012851</id>
    <displayName>MELBOURNE NAS, FL US</displayName>
    <minDate>1945-04-01</minDate>
    <maxDate>1945-12-31</maxDate>
    <latitude>28.1</latitude>
    <longitude>-80.63333</longitude>
    <elevation>17.1</elevation>
    <locationLabels>
      <type>CNTRY</type>
      <id>FIPS:US</id>
      <displayName>United States</displayName>
    </locationLabels>
    <coverage>1</coverage>
  </station>
  <station>
    <id>GHCND:USC00085612</id>
    <displayName>MELBOURNE WEATHER FORECAST OFFICE, FL US</displayName>
    <minDate>1937-07-21</minDate>
    <maxDate>2013-01-16</maxDate>
    <latitude>28.11361</latitude>
    <longitude>-80.65389</longitude>
    <elevation>10.7</elevation>
    <locationLabels>
      <type>CNTRY</type>
      <id>FIPS:US</id>
      <displayName>United States</displayName>
    </locationLabels>
    <coverage>0.9548</coverage>
  </station>
  <station>
    <id>GHCND:USC00095780</id>
    <displayName>MELDRIM, GA US</displayName>
    <minDate>1930-07-01</minDate>
    <maxDate>1934-02-28</maxDate>
    <latitude>32.15</latitude>
    <longitude>-81.4</longitude>
    <locationLabels>
      <type>CNTRY</type>
      <id>FIPS:US</id>
      <displayName>United States</displayName>
    </locationLabels>
    <coverage>0.9888</coverage>
  </station>
  <station>
    <id>GHCND:USC00475286</id>
    <displayName>MELLEN 4 NE, WI US</displayName>
    <minDate>1926-09-01</minDate>
    <maxDate>2012-11-30</maxDate>
    <latitude>46.3689</latitude>
    <longitude>-90.6417</longitude>
    <elevation>396.2</elevation>
    <locationLabels>
      <type>CNTRY</type>
      <id>FIPS:US</id>
      <displayName>United States</displayName>
    </locationLabels>
    <coverage>0.9625</coverage>
  </station>
  <station>
    <id>GHCND:USC00395456</id>
    <displayName>MELLETTE 4 W, SD US</displayName>
    <minDate>1893-01-01</minDate>
    <maxDate>2012-12-06</maxDate>
    <latitude>45.155</latitude>
    <longitude>-98.5826</longitude>
    <elevation>396.8</elevation>
    <locationLabels>
      <type>CNTRY</type>
      <id>FIPS:US</id>
      <displayName>United States</displayName>
    </locationLabels>
    <coverage>0.956</coverage>
  </station>
  <station>
    <id>GHCND:US1INVN0011</id>
    <displayName>MELODY HILL 2.9 WNW, IN US</displayName>
    <minDate>2006-08-01</minDate>
    <maxDate>2013-01-16</maxDate>
    <latitude>38.0457</latitude>
    <longitude>-87.5593</longitude>
    <elevation>124.1</elevation>
    <locationLabels>
      <type>CNTRY</type>
      <id>FIPS:US</id>
      <displayName>United States</displayName>
    </locationLabels>
    <coverage>0.6531</coverage>
  </station>
  <station>
    <id>GHCND:US1MAMD0008</id>
    <displayName>MELROSE 0.9 SSE, MA US</displayName>
    <minDate>2009-07-08</minDate>
    <maxDate>2012-11-26</maxDate>
    <latitude>42.4424</latitude>
    <longitude>-71.0529</longitude>
    <elevation>36.3</elevation>
    <locationLabels>
      <type>CNTRY</type>
      <id>FIPS:US</id>
      <displayName>United States</displayName>
    </locationLabels>
    <coverage>0.5396</coverage>
  </station>
  <station>
    <id>GHCND:USC00305248</id>
    <displayName>MELROSE 1 NE, NY US</displayName>
    <minDate>1965-09-01</minDate>
    <maxDate>2013-01-15</maxDate>
    <latitude>42.85</latitude>
    <longitude>-73.6167</longitude>
    <elevation>106.7</elevation>
    <locationLabels>
      <type>CNTRY</type>
      <id>FIPS:US</id>
      <displayName>United States</displayName>
    </locationLabels>
    <coverage>0.9009</coverage>
  </station>
  <station>
    <id>GHCND:US1WILC0004</id>
    <displayName>MELROSE 8.2 SSW, WI US</displayName>
    <minDate>2007-08-05</minDate>
    <maxDate>2012-10-26</maxDate>
    <latitude>44.0228</latitude>
    <longitude>-91.062</longitude>
    <elevation>255.1</elevation>
    <locationLabels>
      <type>CNTRY</type>
      <id>FIPS:US</id>
      <displayName>United States</displayName>
    </locationLabels>
    <coverage>0.2073</coverage>
  </station>
  <station>
    <id>GHCND:USC00194635</id>
    <displayName>MELROSE HIGHLANDS, MA US</displayName>
    <minDate>1885-03-01</minDate>
    <maxDate>1897-04-11</maxDate>
    <latitude>42.466667</latitude>
    <longitude>-71.066667</longitude>
    <locationLabels>
      <type>CNTRY</type>
      <id>FIPS:US</id>
      <displayName>United States</displayName>
    </locationLabels>
    <coverage>0.0495</coverage>
  </station>
  <station>
    <id>GHCND:US1ILCK0137</id>
    <displayName>MELROSE PARK 2.0 NW, IL US</displayName>
    <minDate>2009-05-02</minDate>
    <maxDate>2012-12-21</maxDate>
    <latitude>41.92</latitude>
    <longitude>-87.8855</longitude>
    <elevation>199</elevation>
    <locationLabels>
      <type>CNTRY</type>
      <id>FIPS:US</id>
      <displayName>United States</displayName>
    </locationLabels>
    <coverage>0.5353</coverage>
  </station>
  <station>
    <id>GHCND:USC00085622</id>
    <displayName>MELROSE, FL US</displayName>
    <minDate>1959-11-01</minDate>
    <maxDate>1969-02-28</maxDate>
    <latitude>29.71667</latitude>
    <longitude>-82.05</longitude>
    <elevation>44.2</elevation>
    <locationLabels>
      <type>CNTRY</type>
      <id>FIPS:US</id>
      <displayName>United States</displayName>
    </locationLabels>
    <coverage>0.9821</coverage>
  </station>
  <station>
    <id>GHCND:USC00085662</id>
    <displayName>MELROSE, FL US</displayName>
    <minDate>1914-01-01</minDate>
    <maxDate>1925-09-30</maxDate>
    <latitude>29.716667</latitude>
    <longitude>-82.05</longitude>
    <elevation>44.2</elevation>
    <locationLabels>
      <type>CNTRY</type>
      <id>FIPS:US</id>
      <displayName>United States</displayName>
    </locationLabels>
    <coverage>0.9583</coverage>
  </station>
  <station>
    <id>GHCND:USC00135383</id>
    <displayName>MELROSE, IA US</displayName>
    <minDate>1899-02-21</minDate>
    <maxDate>1946-08-30</maxDate>
    <latitude>40.98333</latitude>
    <longitude>-93.05</longitude>
    <elevation>264.9</elevation>
    <locationLabels>
      <type>CNTRY</type>
      <id>FIPS:US</id>
      <displayName>United States</displayName>
    </locationLabels>
    <coverage>0.3826</coverage>
  </station>
  <station>
    <id>GHCND:USC00145200</id>
    <displayName>MELROSE, KS US</displayName>
    <minDate>1973-04-09</minDate>
    <maxDate>1994-12-31</maxDate>
    <latitude>37.02889</latitude>
    <longitude>-94.95722</longitude>
    <elevation>259.4</elevation>
    <locationLabels>
      <type>CNTRY</type>
      <id>FIPS:US</id>
      <displayName>United States</displayName>
    </locationLabels>
    <coverage>0.1273</coverage>
  </station>
  <station>
    <id>GHCND:USC00215325</id>
    <displayName>MELROSE, MN US</displayName>
    <minDate>1954-12-01</minDate>
    <maxDate>2013-01-16</maxDate>
    <latitude>45.6776</latitude>
    <longitude>-94.8023</longitude>
    <elevation>365.8</elevation>
    <locationLabels>
      <type>CNTRY</type>
      <id>FIPS:US</id>
      <displayName>United States</displayName>
    </locationLabels>
    <coverage>0.9689</coverage>
  </station>
  <station>
    <id>GHCND:USC00245590</id>
    <displayName>MELROSE, MT US</displayName>
    <minDate>1950-06-02</minDate>
    <maxDate>1958-06-30</maxDate>
    <latitude>45.63333</latitude>
    <longitude>-112.68333</longitude>
    <elevation>1580.1</elevation>
    <locationLabels>
      <type>CNTRY</type>
      <id>FIPS:US</id>
      <displayName>United States</displayName>
    </locationLabels>
    <coverage>0.818</coverage>
  </station>
  <station>
    <id>GHCND:USC00295617</id>
    <displayName>MELROSE, NM US</displayName>
    <minDate>1908-07-01</minDate>
    <maxDate>2013-01-15</maxDate>
    <latitude>34.4277</latitude>
    <longitude>-103.625</longitude>
    <elevation>1401.8</elevation>
    <locationLabels>
      <type>CNTRY</type>
      <id>FIPS:US</id>
      <displayName>United States</displayName>
    </locationLabels>
    <coverage>0.938</coverage>
  </station>
  <station>
    <id>GHCND:US1MTMH0013</id>
    <displayName>MELSTONE 0.1 NNE, MT US</displayName>
    <minDate>2010-10-17</minDate>
    <maxDate>2013-01-14</maxDate>
    <latitude>46.5992</latitude>
    <longitude>-107.8672</longitude>
    <elevation>894</elevation>
    <locationLabels>
      <type>CNTRY</type>
      <id>FIPS:US</id>
      <displayName>United States</displayName>
    </locationLabels>
    <coverage>0.9038</coverage>
  </station>
  <station>
    <id>GHCND:US1MTRB0009</id>
    <displayName>MELSTONE 5.7 E, MT US</displayName>
    <minDate>2010-10-15</minDate>
    <maxDate>2013-01-16</maxDate>
    <latitude>46.5894</latitude>
    <longitude>-107.7488</longitude>
    <elevation>992.7</elevation>
    <locationLabels>
      <type>CNTRY</type>
      <id>FIPS:US</id>
      <displayName>United States</displayName>
    </locationLabels>
    <coverage>0.6788</coverage>
  </station>
  <station>
    <id>GHCND:US1MTRB0008</id>
    <displayName>MELSTONE 6.2 SE, MT US</displayName>
    <minDate>2010-10-16</minDate>
    <maxDate>2012-05-17</maxDate>
    <latitude>46.5446</latitude>
    <longitude>-107.7627</longitude>
    <elevation>963.2</elevation>
    <locationLabels>
      <type>CNTRY</type>
      <id>FIPS:US</id>
      <displayName>United States</displayName>
    </locationLabels>
    <coverage>0.9966</coverage>
  </station>
  <station>
    <id>GHCND:USC00245596</id>
    <displayName>MELSTONE, MT US</displayName>
    <minDate>1909-05-01</minDate>
    <maxDate>2013-01-15</maxDate>
    <latitude>46.6006</latitude>
    <longitude>-107.8706</longitude>
    <elevation>893.7</elevation>
    <locationLabels>
      <type>CNTRY</type>
      <id>FIPS:US</id>
      <displayName>United States</displayName>
    </locationLabels>
    <coverage>0.8978</coverage>
  </station>
  <station>
    <id>GHCND:USC00405941</id>
    <displayName>MELTON HILL DAM, TN US</displayName>
    <minDate>1961-01-01</minDate>
    <maxDate>1962-03-31</maxDate>
    <latitude>35.88333</latitude>
    <longitude>-84.3</longitude>
    <elevation>238</elevation>
    <locationLabels>
      <type>CNTRY</type>
      <id>FIPS:US</id>
      <displayName>United States</displayName>
    </locationLabels>
    <coverage>1</coverage>
  </station>
  <station>
    <id>GHCND:US1KSOS0012</id>
    <displayName>MELVERN 0.9 E, KS US</displayName>
    <minDate>2008-04-08</minDate>
    <maxDate>2013-01-16</maxDate>
    <latitude>38.5069</latitude>
    <longitude>-95.6216</longitude>
    <elevation>306.9</elevation>
    <locationLabels>
      <type>CNTRY</type>
      <id>FIPS:US</id>
      <displayName>United States</displayName>
    </locationLabels>
    <coverage>0.8768</coverage>
  </station>
  <station>
    <id>GHCND:USC00145206</id>
    <displayName>MELVERN 3 WNW, KS US</displayName>
    <minDate>1962-01-01</minDate>
    <maxDate>1972-06-30</maxDate>
    <latitude>38.51667</latitude>
    <longitude>-95.68333</longitude>
    <elevation>305.1</elevation>
    <locationLabels>
      <type>CNTRY</type>
      <id>FIPS:US</id>
      <displayName>United States</displayName>
    </locationLabels>
    <coverage>0.7989</coverage>
  </station>
  <station>
    <id>GHCND:USC00145210</id>
    <displayName>MELVERN LAKE, KS US</displayName>
    <minDate>1973-05-01</minDate>
    <maxDate>2013-01-16</maxDate>
    <latitude>38.504</latitude>
    <longitude>-95.7037</longitude>
    <elevation>333.1</elevation>
    <locationLabels>
      <type>CNTRY</type>
      <id>FIPS:US</id>
      <displayName>United States</displayName>
    </locationLabels>
    <coverage>0.9524</coverage>
  </station>
  <station>
    <id>GHCND:US1MTSG0008</id>
    <displayName>MELVILLE 0.3 W, MT US</displayName>
    <minDate>2011-12-27</minDate>
    <maxDate>2013-01-16</maxDate>
    <latitude>46.1041</latitude>
    <longitude>-109.9569</longitude>
    <elevation>1532.8</elevation>
    <locationLabels>
      <type>CNTRY</type>
      <id>FIPS:US</id>
      <displayName>United States</displayName>
    </locationLabels>
    <coverage>0.8863</coverage>
  </station>
  <station>
    <id>GHCND:US1MTSG0009</id>
    <displayName>MELVILLE 10.1 ENE, MT US</displayName>
    <minDate>2012-01-19</minDate>
    <maxDate>2013-01-16</maxDate>
    <latitude>46.1721</latitude>
    <longitude>-109.7687</longitude>
    <elevation>1415.2</elevation>
    <locationLabels>
      <type>CNTRY</type>
      <id>FIPS:US</id>
      <displayName>United States</displayName>
    </locationLabels>
    <coverage>0.8929</coverage>
  </station>
  <station>
    <id>GHCND:USC00245603</id>
    <displayName>MELVILLE 4 W, MT US</displayName>
    <minDate>1960-04-14</minDate>
    <maxDate>2013-01-11</maxDate>
    <latitude>46.1047</latitude>
    <longitude>-110.05</longitude>
    <elevation>1635.3</elevation>
    <locationLabels>
      <type>CNTRY</type>
      <id>FIPS:US</id>
      <displayName>United States</displayName>
    </locationLabels>
    <coverage>0.9951</coverage>
  </station>
  <station>
    <id>GHCND:USC00166117</id>
    <displayName>MELVILLE, LA US</displayName>
    <minDate>1893-01-01</minDate>
    <maxDate>1983-12-31</maxDate>
    <latitude>30.68333</latitude>
    <longitude>-91.73333</longitude>
    <elevation>9.1</elevation>
    <locationLabels>
      <type>CNTRY</type>
      <id>FIPS:US</id>
      <displayName>United States</displayName>
    </locationLabels>
    <coverage>0.9768</coverage>
  </station>
  <station>
    <id>GHCND:USC00245602</id>
    <displayName>MELVILLE, MT US</displayName>
    <minDate>1951-06-10</minDate>
    <maxDate>1959-10-31</maxDate>
    <latitude>46.1</latitude>
    <longitude>-109.95</longitude>
    <elevation>1531</elevation>
    <locationLabels>
      <type>CNTRY</type>
      <id>FIPS:US</id>
      <displayName>United States</displayName>
    </locationLabels>
    <coverage>0.8679</coverage>
  </station>
  <station>
    <id>GHCND:USC00325833</id>
    <displayName>MELVILLE, ND US</displayName>
    <minDate>1898-01-01</minDate>
    <maxDate>1952-12-31</maxDate>
    <latitude>47.33333</latitude>
    <longitude>-99.03333</longitude>
    <elevation>494.1</elevation>
    <locationLabels>
      <type>CNTRY</type>
      <id>FIPS:US</id>
      <displayName>United States</displayName>
    </locationLabels>
    <coverage>0.5258</coverage>
  </station>
  <station>
    <id>GHCND:USC00015354</id>
    <displayName>MELVIN, AL US</displayName>
    <minDate>1940-01-01</minDate>
    <maxDate>2013-01-10</maxDate>
    <latitude>31.9305</latitude>
    <longitude>-88.4587</longitude>
    <elevation>106.7</elevation>
    <locationLabels>
      <type>CNTRY</type>
      <id>FIPS:US</id>
      <displayName>United States</displayName>
    </locationLabels>
    <coverage>0.6314</coverage>
  </station>
  <station>
    <id>GHCND:US1MOFSA199</id>
    <displayName>MEMPHIS 0.1 S, MO US</displayName>
    <minDate>2006-04-24</minDate>
    <maxDate>2013-01-16</maxDate>
    <latitude>40.4594</latitude>
    <longitude>-92.1694</longitude>
    <elevation>242</elevation>
    <locationLabels>
      <type>CNTRY</type>
      <id>FIPS:US</id>
      <displayName>United States</displayName>
    </locationLabels>
    <coverage>0.998</coverage>
  </station>
  <station>
    <id>GHCND:US1MOSD0003</id>
    <displayName>MEMPHIS 0.2 SSW, MO US</displayName>
    <minDate>2008-08-13</minDate>
    <maxDate>2009-12-10</maxDate>
    <latitude>40.4586</latitude>
    <longitude>-92.1705</longitude>
    <elevation>241.1</elevation>
    <locationLabels>
      <type>CNTRY</type>
      <id>FIPS:US</id>
      <displayName>United States</displayName>
    </locationLabels>
    <coverage>0.8186</coverage>
  </station>
  <station>
    <id>GHCND:US1TXHAL001</id>
    <displayName>MEMPHIS 1.4 NNW, TX US</displayName>
    <minDate>2008-04-08</minDate>
    <maxDate>2009-09-04</maxDate>
    <latitude>34.744</latitude>
    <longitude>-100.5552</longitude>
    <elevation>647.1</elevation>
    <locationLabels>
      <type>CNTRY</type>
      <id>FIPS:US</id>
      <displayName>United States</displayName>
    </locationLabels>
    <coverage>0.2097</coverage>
  </station>
  <station>
    <id>GHCND:US1TNSH0020</id>
    <displayName>MEMPHIS 12.0 SE, TN US</displayName>
    <minDate>2012-01-05</minDate>
    <maxDate>2013-01-14</maxDate>
    <latitude>35.001</latitude>
    <longitude>-89.8383</longitude>
    <elevation>115.2</elevation>
    <locationLabels>
      <type>CNTRY</type>
      <id>FIPS:US</id>
      <displayName>United States</displayName>
    </locationLabels>
    <coverage>0.9894</coverage>
  </station>
  <station>
    <id>GHCND:US1TNSH0012</id>
    <displayName>MEMPHIS 3.2 NW, TN US</displayName>
    <minDate>2008-07-13</minDate>
    <maxDate>2010-04-08</maxDate>
    <latitude>35.1425</latitude>
    <longitude>-90.041</longitude>
    <elevation>75.9</elevation>
    <locationLabels>
      <type>CNTRY</type>
      <id>FIPS:US</id>
      <displayName>United States</displayName>
    </locationLabels>
    <coverage>0.9969</coverage>
  </station>
  <station>
    <id>GHCND:US1TNSH0011</id>
    <displayName>MEMPHIS 5.5 ENE, TN US</displayName>
    <minDate>2008-07-02</minDate>
    <maxDate>2013-01-16</maxDate>
    <latitude>35.1426</latitude>
    <longitude>-89.921</longitude>
    <elevation>83.8</elevation>
    <locationLabels>
      <type>CNTRY</type>
      <id>FIPS:US</id>
      <displayName>United States</displayName>
    </locationLabels>
    <coverage>0.9952</coverage>
  </station>
  <station>
    <id>GHCND:USW00013893</id>
    <displayName>MEMPHIS INTERNATIONAL AIRPORT, TN US</displayName>
    <minDate>1940-01-01</minDate>
    <maxDate>2013-01-15</maxDate>
    <latitude>35.0564</latitude>
    <longitude>-89.9865</longitude>
    <elevation>77.4</elevation>
    <locationLabels>
      <type>CNTRY</type>
      <id>FIPS:US</id>
      <displayName>United States</displayName>
    </locationLabels>
    <coverage>0.9998</coverage>
  </station>
  <station>
    <id>GHCND:USW00093839</id>
    <displayName>MEMPHIS NAS, TN US</displayName>
    <minDate>1945-03-01</minDate>
    <maxDate>1995-09-30</maxDate>
    <latitude>35.35</latitude>
    <longitude>-89.86667</longitude>
    <elevation>97.5</elevation>
    <locationLabels>
      <type>CNTRY</type>
      <id>FIPS:US</id>
      <displayName>United States</displayName>
    </locationLabels>
    <coverage>0.9072</coverage>
  </station>
  <station>
    <id>GHCND:USC00405949</id>
    <displayName>MEMPHIS SUBSTN, TN US</displayName>
    <minDate>1949-01-01</minDate>
    <maxDate>1958-10-31</maxDate>
    <latitude>35.1</latitude>
    <longitude>-90.01667</longitude>
    <elevation>92</elevation>
    <locationLabels>
      <type>CNTRY</type>
      <id>FIPS:US</id>
      <displayName>United States</displayName>
    </locationLabels>
    <coverage>0.9992</coverage>
  </station>
  <station>
    <id>GHCND:USC00405956</id>
    <displayName>MEMPHIS WEATHER FORECAST OFFICE, TN US</displayName>
    <minDate>1987-08-01</minDate>
    <maxDate>2013-01-16</maxDate>
    <latitude>35.1298</latitude>
    <longitude>-89.8037</longitude>
    <elevation>94.5</elevation>
    <locationLabels>
      <type>CNTRY</type>
      <id>FIPS:US</id>
      <displayName>United States</displayName>
    </locationLabels>
    <coverage>0.9596</coverage>
  </station>
  <station>
    <id>GHCND:USC00405966</id>
    <displayName>MEMPHIS ZOO, TN US</displayName>
    <minDate>2002-09-01</minDate>
    <maxDate>2010-11-23</maxDate>
    <latitude>35.1152</latitude>
    <longitude>-89.9924</longitude>
    <elevation>76.2</elevation>
    <locationLabels>
      <type>CNTRY</type>
      <id>FIPS:US</id>
      <displayName>United States</displayName>
    </locationLabels>
    <coverage>0.8899</coverage>
  </station>
  <station>
    <id>GHCND:USC00235492</id>
    <displayName>MEMPHIS, MO US</displayName>
    <minDate>1930-11-01</minDate>
    <maxDate>2013-01-16</maxDate>
    <latitude>40.4575</latitude>
    <longitude>-92.1822</longitude>
    <elevation>234.7</elevation>
    <locationLabels>
      <type>CNTRY</type>
      <id>FIPS:US</id>
      <displayName>United States</displayName>
    </locationLabels>
    <coverage>0.9163</coverage>
  </station>
  <station>
    <id>GHCND:USW00093916</id>
    <displayName>MEMPHIS, TN US</displayName>
    <minDate>1928-01-01</minDate>
    <maxDate>1965-08-31</maxDate>
    <latitude>35.15</latitude>
    <longitude>-90.05</longitude>
    <elevation>117</elevation>
    <locationLabels>
      <type>CNTRY</type>
      <id>FIPS:US</id>
      <displayName>United States</displayName>
    </locationLabels>
    <coverage>0.9885</coverage>
  </station>
  <station>
    <id>GHCND:USC00415821</id>
    <displayName>MEMPHIS, TX US</displayName>
    <minDate>1905-07-01</minDate>
    <maxDate>2013-01-16</maxDate>
    <latitude>34.72611</latitude>
    <longitude>-100.53722</longitude>
    <elevation>637</elevation>
    <locationLabels>
      <type>CNTRY</type>
      <id>FIPS:US</id>
      <displayName>United States</displayName>
    </locationLabels>
    <coverage>0.9457</coverage>
  </station>
  <station>
    <id>GHCND:US1ARPL0001</id>
    <displayName>MENA 3.2 WNW, AR US</displayName>
    <minDate>2012-04-27</minDate>
    <maxDate>2013-01-16</maxDate>
    <latitude>34.598</latitude>
    <longitude>-94.2895</longitude>
    <elevation>350.5</elevation>
    <locationLabels>
      <type>CNTRY</type>
      <id>FIPS:US</id>
      <displayName>United States</displayName>
    </locationLabels>
    <coverage>0.966</coverage>
  </station>
  <station>
    <id>GHCND:USC00034756</id>
    <displayName>MENA, AR US</displayName>
    <minDate>1890-12-06</minDate>
    <maxDate>2013-01-16</maxDate>
    <latitude>34.5731</latitude>
    <longitude>-94.2494</longitude>
    <elevation>344.4</elevation>
    <locationLabels>
      <type>CNTRY</type>
      <id>FIPS:US</id>
      <displayName>United States</displayName>
    </locationLabels>
    <coverage>0.9793</coverage>
  </station>
  <station>
    <id>GHCND:US1MNWD0002</id>
    <displayName>MENAHGA 0.7 N, MN US</displayName>
    <minDate>2011-04-01</minDate>
    <maxDate>2012-12-09</maxDate>
    <latitude>46.7569</latitude>
    <longitude>-95.1021</longitude>
    <elevation>425.8</elevation>
    <locationLabels>
      <type>CNTRY</type>
      <id>FIPS:US</id>
      <displayName>United States</displayName>
    </locationLabels>
    <coverage>0.7706</coverage>
  </station>
  <station>
    <id>GHCND:US1MNWD0980</id>
    <displayName>MENAHGA 2.1 WSW, MN US</displayName>
    <minDate>2011-03-18</minDate>
    <maxDate>2013-01-16</maxDate>
    <latitude>46.7465</latitude>
    <longitude>-95.1405</longitude>
    <elevation>428.9</elevation>
    <locationLabels>
      <type>CNTRY</type>
      <id>FIPS:US</id>
      <displayName>United States</displayName>
    </locationLabels>
    <coverage>0.9434</coverage>
  </station>
  <station>
    <id>GHCND:USC00415825</id>
    <displayName>MENARD 13 WNW, TX US</displayName>
    <minDate>1959-04-01</minDate>
    <maxDate>1965-12-31</maxDate>
    <latitude>31.05</latitude>
    <longitude>-99.95</longitude>
    <elevation>670.9</elevation>
    <locationLabels>
      <type>CNTRY</type>
      <id>FIPS:US</id>
      <displayName>United States</displayName>
    </locationLabels>
    <coverage>0.8585</coverage>
  </station>
  <station>
    <id>GHCND:USC00415832</id>
    <displayName>MENARD 13 WNW, TX US</displayName>
    <minDate>1948-03-01</minDate>
    <maxDate>1959-03-31</maxDate>
    <latitude>31.05</latitude>
    <longitude>-99.95</longitude>
    <elevation>670.9</elevation>
    <locationLabels>
      <type>CNTRY</type>
      <id>FIPS:US</id>
      <displayName>United States</displayName>
    </locationLabels>
    <coverage>0.9175</coverage>
  </station>
  <station>
    <id>GHCND:USC00245608</id>
    <displayName>MENARD 3 NE, MT US</displayName>
    <minDate>1952-04-08</minDate>
    <maxDate>2011-09-17</maxDate>
    <latitude>45.9994</latitude>
    <longitude>-111.1328</longitude>
    <elevation>1540.2</elevation>
    <locationLabels>
      <type>CNTRY</type>
      <id>FIPS:US</id>
      <displayName>United States</displayName>
    </locationLabels>
    <coverage>0.9469</coverage>
  </station>
  <station>
    <id>GHCND:US1TXMND001</id>
    <displayName>MENARD 8.1 ESE, TX US</displayName>
    <minDate>2011-01-20</minDate>
    <maxDate>2013-01-09</maxDate>
    <latitude>30.8926</latitude>
    <longitude>-99.6512</longitude>
    <elevation>551.1</elevation>
    <locationLabels>
      <type>CNTRY</type>
      <id>FIPS:US</id>
      <displayName>United States</displayName>
    </locationLabels>
    <coverage>0.3245</coverage>
  </station>
  <station>
    <id>GHCND:USC00415822</id>
    <displayName>MENARD, TX US</displayName>
    <minDate>1893-01-17</minDate>
    <maxDate>2013-01-16</maxDate>
    <latitude>30.9144</latitude>
    <longitude>-99.7958</longitude>
    <elevation>612.6</elevation>
    <locationLabels>
      <type>CNTRY</type>
      <id>FIPS:US</id>
      <displayName>United States</displayName>
    </locationLabels>
    <coverage>0.8681</coverage>
  </station>
  <station>
    <id>GHCND:USC00475298</id>
    <displayName>MENASHA, WI US</displayName>
    <minDate>1896-01-01</minDate>
    <maxDate>1956-12-31</maxDate>
    <latitude>44.2</latitude>
    <longitude>-88.46667</longitude>
    <elevation>225.9</elevation>
    <locationLabels>
      <type>CNTRY</type>
      <id>FIPS:US</id>
      <displayName>United States</displayName>
    </locationLabels>
    <coverage>0.9946</coverage>
  </station>
  <station>
    <id>GHCND:US1MSSP0002</id>
    <displayName>MENDENHALL 4.4 S, MS US</displayName>
    <minDate>2010-03-05</minDate>
    <maxDate>2013-01-16</maxDate>
    <latitude>31.8976</latitude>
    <longitude>-89.8813</longitude>
    <elevation>144.5</elevation>
    <locationLabels>
      <type>CNTRY</type>
      <id>FIPS:US</id>
      <displayName>United States</displayName>
    </locationLabels>
    <coverage>0.979</coverage>
  </station>
  <station>
    <id>GHCND:USC00505851</id>
    <displayName>MENDENHALL, AK US</displayName>
    <minDate>1939-07-01</minDate>
    <maxDate>1944-04-08</maxDate>
    <latitude>58.4</latitude>
    <longitude>-134.53333</longitude>
    <elevation>27.1</elevation>
    <locationLabels>
      <type>CNTRY</type>
      <id>FIPS:US</id>
      <displayName>United States</displayName>
    </locationLabels>
    <coverage>0.9983</coverage>
  </station>
  <station>
    <id>GHCND:US1NJMS0050</id>
    <displayName>MENDHAM TWP 0.5 ESE, NJ US</displayName>
    <minDate>2012-05-04</minDate>
    <maxDate>2013-01-16</maxDate>
    <latitude>40.7798</latitude>
    <longitude>-74.5854</longitude>
    <elevation>160</elevation>
    <locationLabels>
      <type>CNTRY</type>
      <id>FIPS:US</id>
      <displayName>United States</displayName>
    </locationLabels>
    <coverage>0.9767</coverage>
  </station>
  <station>
    <id>GHCND:US1NJMS0013</id>
    <displayName>MENDHAM TWP 1.2 ESE, NJ US</displayName>
    <minDate>2008-11-11</minDate>
    <maxDate>2010-11-26</maxDate>
    <latitude>40.7762</latitude>
    <longitude>-74.573</longitude>
    <elevation>166.4</elevation>
    <locationLabels>
      <type>CNTRY</type>
      <id>FIPS:US</id>
      <displayName>United States</displayName>
    </locationLabels>
    <coverage>0.622</coverage>
  </station>
</stationCollection>
