<?xml version="1.0" encoding="UTF-8" standalone="yes"?>
<stationCollection totalCount="46020" pageCount="461" pageSize="100" page="211">
  <station>
    <id>GHCND:USC00244509</id>
    <displayName>JONES CANYON, MT US</displayName>
    <minDate>1909-04-01</minDate>
    <maxDate>1912-12-31</maxDate>
    <latitude>45.833333</latitude>
    <longitude>-110.983333</longitude>
    <elevation>1828.8</elevation>
    <locationLabels>
      <type>CNTRY</type>
      <id>FIPS:US</id>
      <displayName>United States</displayName>
    </locationLabels>
    <coverage>0.9752</coverage>
  </station>
  <station>
    <id>GHCND:USC00414627</id>
    <displayName>JONES CB RANCH, TX US</displayName>
    <minDate>1948-05-01</minDate>
    <maxDate>1964-05-31</maxDate>
    <latitude>30.81667</latitude>
    <longitude>-100.13333</longitude>
    <elevation>637</elevation>
    <locationLabels>
      <type>CNTRY</type>
      <id>FIPS:US</id>
      <displayName>United States</displayName>
    </locationLabels>
    <coverage>0.8963</coverage>
  </station>
  <station>
    <id>GHCND:USC00404696</id>
    <displayName>JONES COVE, TN US</displayName>
    <minDate>1957-04-01</minDate>
    <maxDate>1962-03-31</maxDate>
    <latitude>35.83333</latitude>
    <longitude>-83.33333</longitude>
    <elevation>353.9</elevation>
    <locationLabels>
      <type>CNTRY</type>
      <id>FIPS:US</id>
      <displayName>United States</displayName>
    </locationLabels>
    <coverage>0.9732</coverage>
  </station>
  <station>
    <id>GHCND:USR0000GJON</id>
    <displayName>JONES ISLAND GEORGIA, GA US</displayName>
    <minDate>1999-10-06</minDate>
    <maxDate>2012-08-30</maxDate>
    <latitude>30.8289</latitude>
    <longitude>-82.36</longitude>
    <elevation>34.7</elevation>
    <locationLabels>
      <type>CNTRY</type>
      <id>FIPS:US</id>
      <displayName>United States</displayName>
    </locationLabels>
    <coverage>0.9325</coverage>
  </station>
  <station>
    <id>GHCND:USC00054397</id>
    <displayName>JONES PASS 2 E, CO US</displayName>
    <minDate>1961-09-01</minDate>
    <maxDate>1973-06-30</maxDate>
    <latitude>39.76667</latitude>
    <longitude>-105.85</longitude>
    <elevation>3148</elevation>
    <locationLabels>
      <type>CNTRY</type>
      <id>FIPS:US</id>
      <displayName>United States</displayName>
    </locationLabels>
    <coverage>0.9655</coverage>
  </station>
  <station>
    <id>GHCND:USS0005K21S</id>
    <displayName>JONES PASS, CO US</displayName>
    <minDate>2000-01-01</minDate>
    <maxDate>2013-01-13</maxDate>
    <latitude>39.7667</latitude>
    <longitude>-105.9</longitude>
    <elevation>3169.9</elevation>
    <locationLabels>
      <type>CNTRY</type>
      <id>FIPS:US</id>
      <displayName>United States</displayName>
    </locationLabels>
    <coverage>0.9456</coverage>
  </station>
  <station>
    <id>GHCND:USC00294400</id>
    <displayName>JONES RANCH, NM US</displayName>
    <minDate>1940-05-01</minDate>
    <maxDate>1949-04-10</maxDate>
    <latitude>33.58333</latitude>
    <longitude>-104.98333</longitude>
    <elevation>1495</elevation>
    <locationLabels>
      <type>CNTRY</type>
      <id>FIPS:US</id>
      <displayName>United States</displayName>
    </locationLabels>
    <coverage>0.3541</coverage>
  </station>
  <station>
    <id>GHCND:USC00294402</id>
    <displayName>JONES TRADING POST, NM US</displayName>
    <minDate>1949-06-05</minDate>
    <maxDate>1953-08-31</maxDate>
    <latitude>35.3</latitude>
    <longitude>-108.98333</longitude>
    <elevation>2135.1</elevation>
    <locationLabels>
      <type>CNTRY</type>
      <id>FIPS:US</id>
      <displayName>United States</displayName>
    </locationLabels>
    <coverage>0.816</coverage>
  </station>
  <station>
    <id>GHCND:USC00164730</id>
    <displayName>JONES, LA US</displayName>
    <minDate>1940-03-03</minDate>
    <maxDate>1950-08-31</maxDate>
    <latitude>32.96667</latitude>
    <longitude>-91.65</longitude>
    <elevation>31.1</elevation>
    <locationLabels>
      <type>CNTRY</type>
      <id>FIPS:US</id>
      <displayName>United States</displayName>
    </locationLabels>
    <coverage>0.8339</coverage>
  </station>
  <station>
    <id>GHCND:US1MEWS0018</id>
    <displayName>JONESBORO 1.1 E, ME US</displayName>
    <minDate>2012-08-01</minDate>
    <maxDate>2013-01-16</maxDate>
    <latitude>44.6628</latitude>
    <longitude>-67.5517</longitude>
    <elevation>14</elevation>
    <locationLabels>
      <type>CNTRY</type>
      <id>FIPS:US</id>
      <displayName>United States</displayName>
    </locationLabels>
    <coverage>0.9586</coverage>
  </station>
  <station>
    <id>GHCND:USC00033734</id>
    <displayName>JONESBORO 2 NE, AR US</displayName>
    <minDate>1890-01-26</minDate>
    <maxDate>2013-01-16</maxDate>
    <latitude>35.849</latitude>
    <longitude>-90.6589</longitude>
    <elevation>94.5</elevation>
    <locationLabels>
      <type>CNTRY</type>
      <id>FIPS:US</id>
      <displayName>United States</displayName>
    </locationLabels>
    <coverage>0.9228</coverage>
  </station>
  <station>
    <id>GHCND:USC00164732</id>
    <displayName>JONESBORO 4 ENE, LA US</displayName>
    <minDate>1970-04-01</minDate>
    <maxDate>2012-07-31</maxDate>
    <latitude>32.255</latitude>
    <longitude>-92.6544</longitude>
    <elevation>100.6</elevation>
    <locationLabels>
      <type>CNTRY</type>
      <id>FIPS:US</id>
      <displayName>United States</displayName>
    </locationLabels>
    <coverage>0.953</coverage>
  </station>
  <station>
    <id>GHCND:US1ARCG0002</id>
    <displayName>JONESBORO 4.7 NNW, AR US</displayName>
    <minDate>2009-05-18</minDate>
    <maxDate>2012-07-30</maxDate>
    <latitude>35.8868</latitude>
    <longitude>-90.7089</longitude>
    <elevation>114.6</elevation>
    <locationLabels>
      <type>CNTRY</type>
      <id>FIPS:US</id>
      <displayName>United States</displayName>
    </locationLabels>
    <coverage>0.8231</coverage>
  </station>
  <station>
    <id>GHCND:US1ARCG0003</id>
    <displayName>JONESBORO 4.8 ENE, AR US</displayName>
    <minDate>2009-07-19</minDate>
    <maxDate>2013-01-16</maxDate>
    <latitude>35.859</latitude>
    <longitude>-90.6144</longitude>
    <elevation>75.3</elevation>
    <locationLabels>
      <type>CNTRY</type>
      <id>FIPS:US</id>
      <displayName>United States</displayName>
    </locationLabels>
    <coverage>0.8787</coverage>
  </station>
  <station>
    <id>GHCND:USW00003953</id>
    <displayName>JONESBORO MUNICIPAL AIRPORT, AR US</displayName>
    <minDate>1998-11-01</minDate>
    <maxDate>2013-01-14</maxDate>
    <latitude>35.83111</latitude>
    <longitude>-90.64639</longitude>
    <elevation>79.9</elevation>
    <locationLabels>
      <type>CNTRY</type>
      <id>FIPS:US</id>
      <displayName>United States</displayName>
    </locationLabels>
    <coverage>0.9915</coverage>
  </station>
  <station>
    <id>GHCND:USC00164735</id>
    <displayName>JONESBORO NUMBER 2, LA US</displayName>
    <minDate>2002-06-01</minDate>
    <maxDate>2009-12-31</maxDate>
    <latitude>32.2238</latitude>
    <longitude>-92.7069</longitude>
    <elevation>75.9</elevation>
    <locationLabels>
      <type>CNTRY</type>
      <id>FIPS:US</id>
      <displayName>United States</displayName>
    </locationLabels>
    <coverage>0.8863</coverage>
  </station>
  <station>
    <id>GHCND:USC00094700</id>
    <displayName>JONESBORO, GA US</displayName>
    <minDate>1940-06-10</minDate>
    <maxDate>2013-01-16</maxDate>
    <latitude>33.5312</latitude>
    <longitude>-84.3545</longitude>
    <elevation>283.5</elevation>
    <locationLabels>
      <type>CNTRY</type>
      <id>FIPS:US</id>
      <displayName>United States</displayName>
    </locationLabels>
    <coverage>0.9689</coverage>
  </station>
  <station>
    <id>GHCND:USC00174183</id>
    <displayName>JONESBORO, ME US</displayName>
    <minDate>1948-06-01</minDate>
    <maxDate>2013-01-16</maxDate>
    <latitude>44.6454</latitude>
    <longitude>-67.6495</longitude>
    <elevation>59.1</elevation>
    <locationLabels>
      <type>CNTRY</type>
      <id>FIPS:US</id>
      <displayName>United States</displayName>
    </locationLabels>
    <coverage>0.9163</coverage>
  </station>
  <station>
    <id>GHCND:US1TNWS0012</id>
    <displayName>JONESBOROUGH 2.5 SSW, TN US</displayName>
    <minDate>2010-08-30</minDate>
    <maxDate>2012-12-25</maxDate>
    <latitude>36.2605</latitude>
    <longitude>-82.498</longitude>
    <elevation>513.6</elevation>
    <locationLabels>
      <type>CNTRY</type>
      <id>FIPS:US</id>
      <displayName>United States</displayName>
    </locationLabels>
    <coverage>1</coverage>
  </station>
  <station>
    <id>GHCND:US1TNWS0009</id>
    <displayName>JONESBOROUGH 3.7 N, TN US</displayName>
    <minDate>2010-01-01</minDate>
    <maxDate>2011-05-31</maxDate>
    <latitude>36.3465</latitude>
    <longitude>-82.4725</longitude>
    <elevation>537.1</elevation>
    <locationLabels>
      <type>CNTRY</type>
      <id>FIPS:US</id>
      <displayName>United States</displayName>
    </locationLabels>
    <coverage>0.9574</coverage>
  </station>
  <station>
    <id>GHCND:US1TXTV0061</id>
    <displayName>JONESTOWN 0.8 NE, TX US</displayName>
    <minDate>2008-05-06</minDate>
    <maxDate>2013-01-09</maxDate>
    <latitude>30.4964</latitude>
    <longitude>-97.9181</longitude>
    <elevation>245.1</elevation>
    <locationLabels>
      <type>CNTRY</type>
      <id>FIPS:US</id>
      <displayName>United States</displayName>
    </locationLabels>
    <coverage>0.6374</coverage>
  </station>
  <station>
    <id>GHCND:US1TXTV0021</id>
    <displayName>JONESTOWN 2.6 E, TX US</displayName>
    <minDate>2007-08-30</minDate>
    <maxDate>2013-01-16</maxDate>
    <latitude>30.4849</latitude>
    <longitude>-97.8845</longitude>
    <elevation>320</elevation>
    <locationLabels>
      <type>CNTRY</type>
      <id>FIPS:US</id>
      <displayName>United States</displayName>
    </locationLabels>
    <coverage>0.9807</coverage>
  </station>
  <station>
    <id>GHCND:USC00154309</id>
    <displayName>JONESVILLE 1 S, KY US</displayName>
    <minDate>1978-05-01</minDate>
    <maxDate>1984-09-30</maxDate>
    <latitude>38.65</latitude>
    <longitude>-84.78333</longitude>
    <elevation>287.1</elevation>
    <locationLabels>
      <type>CNTRY</type>
      <id>FIPS:US</id>
      <displayName>United States</displayName>
    </locationLabels>
    <coverage>0.9987</coverage>
  </station>
  <station>
    <id>GHCND:USC00444448</id>
    <displayName>JONESVILLE 2 SSE, VA US</displayName>
    <minDate>1949-01-01</minDate>
    <maxDate>1962-03-31</maxDate>
    <latitude>36.66667</latitude>
    <longitude>-83.1</longitude>
    <elevation>420.9</elevation>
    <locationLabels>
      <type>CNTRY</type>
      <id>FIPS:US</id>
      <displayName>United States</displayName>
    </locationLabels>
    <coverage>0.9979</coverage>
  </station>
  <station>
    <id>GHCND:US1VALE0002</id>
    <displayName>JONESVILLE 3.1 WSW, VA US</displayName>
    <minDate>2009-05-19</minDate>
    <maxDate>2012-08-05</maxDate>
    <latitude>36.6725</latitude>
    <longitude>-83.1678</longitude>
    <elevation>423.1</elevation>
    <locationLabels>
      <type>CNTRY</type>
      <id>FIPS:US</id>
      <displayName>United States</displayName>
    </locationLabels>
    <coverage>0.9472</coverage>
  </station>
  <station>
    <id>GHCND:US1VALE0001</id>
    <displayName>JONESVILLE 3.5 NE, VA US</displayName>
    <minDate>2008-03-20</minDate>
    <maxDate>2010-09-11</maxDate>
    <latitude>36.7214</latitude>
    <longitude>-83.0671</longitude>
    <elevation>501.4</elevation>
    <locationLabels>
      <type>CNTRY</type>
      <id>FIPS:US</id>
      <displayName>United States</displayName>
    </locationLabels>
    <coverage>0.5221</coverage>
  </station>
  <station>
    <id>GHCND:USC00164734</id>
    <displayName>JONESVILLE 4 N, LA US</displayName>
    <minDate>1931-01-01</minDate>
    <maxDate>1972-03-31</maxDate>
    <latitude>31.68333</latitude>
    <longitude>-91.83333</longitude>
    <elevation>21</elevation>
    <locationLabels>
      <type>CNTRY</type>
      <id>FIPS:US</id>
      <displayName>United States</displayName>
    </locationLabels>
    <coverage>0.9833</coverage>
  </station>
  <station>
    <id>GHCND:US1MIHL0004</id>
    <displayName>JONESVILLE 5.9 ENE, MI US</displayName>
    <minDate>2008-08-22</minDate>
    <maxDate>2013-01-16</maxDate>
    <latitude>42.0147</latitude>
    <longitude>-84.5619</longitude>
    <elevation>364.8</elevation>
    <locationLabels>
      <type>CNTRY</type>
      <id>FIPS:US</id>
      <displayName>United States</displayName>
    </locationLabels>
    <coverage>0.9161</coverage>
  </station>
  <station>
    <id>GHCND:USC00164739</id>
    <displayName>JONESVILLE LOCKS, LA US</displayName>
    <minDate>1972-04-01</minDate>
    <maxDate>2013-01-08</maxDate>
    <latitude>31.4825</latitude>
    <longitude>-91.8627</longitude>
    <elevation>21.3</elevation>
    <locationLabels>
      <type>CNTRY</type>
      <id>FIPS:US</id>
      <displayName>United States</displayName>
    </locationLabels>
    <coverage>0.9889</coverage>
  </station>
  <station>
    <id>GHCND:USC00444446</id>
    <displayName>JONESVILLE, VA US</displayName>
    <minDate>1949-01-01</minDate>
    <maxDate>1950-07-31</maxDate>
    <latitude>36.68333</latitude>
    <longitude>-83.1</longitude>
    <elevation>427</elevation>
    <locationLabels>
      <type>CNTRY</type>
      <id>FIPS:US</id>
      <displayName>United States</displayName>
    </locationLabels>
    <coverage>0.6603</coverage>
  </station>
  <station>
    <id>GHCND:US1MONW0014</id>
    <displayName>JOPLIN 2.8 SSW, MO US</displayName>
    <minDate>2011-01-24</minDate>
    <maxDate>2013-01-15</maxDate>
    <latitude>37.0475</latitude>
    <longitude>-94.5362</longitude>
    <elevation>311.5</elevation>
    <locationLabels>
      <type>CNTRY</type>
      <id>FIPS:US</id>
      <displayName>United States</displayName>
    </locationLabels>
    <coverage>0.982</coverage>
  </station>
  <station>
    <id>GHCND:USC00244515</id>
    <displayName>JOPLIN 23 N, MT US</displayName>
    <minDate>1939-01-01</minDate>
    <maxDate>1960-10-31</maxDate>
    <latitude>48.9</latitude>
    <longitude>-110.81667</longitude>
    <elevation>997</elevation>
    <locationLabels>
      <type>CNTRY</type>
      <id>FIPS:US</id>
      <displayName>United States</displayName>
    </locationLabels>
    <coverage>0.7452</coverage>
  </station>
  <station>
    <id>GHCND:USW00023908</id>
    <displayName>JOPLIN 24 N, MO US</displayName>
    <minDate>2007-05-26</minDate>
    <maxDate>2013-01-15</maxDate>
    <latitude>37.4277</latitude>
    <longitude>-94.5829</longitude>
    <elevation>290.2</elevation>
    <locationLabels>
      <type>CNTRY</type>
      <id>FIPS:US</id>
      <displayName>United States</displayName>
    </locationLabels>
    <coverage>0.985</coverage>
  </station>
  <station>
    <id>GHCND:US1MONW0015</id>
    <displayName>JOPLIN 3.0 S, MO US</displayName>
    <minDate>2011-01-29</minDate>
    <maxDate>2011-05-21</maxDate>
    <latitude>37.0411</latitude>
    <longitude>-94.5189</longitude>
    <elevation>314.6</elevation>
    <locationLabels>
      <type>CNTRY</type>
      <id>FIPS:US</id>
      <displayName>United States</displayName>
    </locationLabels>
    <coverage>1</coverage>
  </station>
  <station>
    <id>GHCND:US1MONW0017</id>
    <displayName>JOPLIN 4.2 SW, MO US</displayName>
    <minDate>2011-02-02</minDate>
    <maxDate>2013-01-12</maxDate>
    <latitude>37.0376</latitude>
    <longitude>-94.562</longitude>
    <elevation>263.7</elevation>
    <locationLabels>
      <type>CNTRY</type>
      <id>FIPS:US</id>
      <displayName>United States</displayName>
    </locationLabels>
    <coverage>0.8706</coverage>
  </station>
  <station>
    <id>GHCND:US1MONW0018</id>
    <displayName>JOPLIN 5.2 SSW, MO US</displayName>
    <minDate>2011-03-01</minDate>
    <maxDate>2012-12-21</maxDate>
    <latitude>37.0184</latitude>
    <longitude>-94.5595</longitude>
    <elevation>331.6</elevation>
    <locationLabels>
      <type>CNTRY</type>
      <id>FIPS:US</id>
      <displayName>United States</displayName>
    </locationLabels>
    <coverage>0.9909</coverage>
  </station>
  <station>
    <id>GHCND:USW00013987</id>
    <displayName>JOPLIN REGIONAL AIRPORT, MO US</displayName>
    <minDate>1948-01-01</minDate>
    <maxDate>2013-01-14</maxDate>
    <latitude>37.1466</latitude>
    <longitude>-94.5022</longitude>
    <elevation>298.7</elevation>
    <locationLabels>
      <type>CNTRY</type>
      <id>FIPS:US</id>
      <displayName>United States</displayName>
    </locationLabels>
    <coverage>0.9995</coverage>
  </station>
  <station>
    <id>GHCND:USC00234317</id>
    <displayName>JOPLIN, MO US</displayName>
    <minDate>1901-04-01</minDate>
    <maxDate>1947-12-31</maxDate>
    <latitude>37.083333</latitude>
    <longitude>-94.516667</longitude>
    <elevation>307.2</elevation>
    <locationLabels>
      <type>CNTRY</type>
      <id>FIPS:US</id>
      <displayName>United States</displayName>
    </locationLabels>
    <coverage>0.7132</coverage>
  </station>
  <station>
    <id>GHCND:USC00244512</id>
    <displayName>JOPLIN, MT US</displayName>
    <minDate>1932-01-01</minDate>
    <maxDate>2012-09-30</maxDate>
    <latitude>48.5617</latitude>
    <longitude>-110.767</longitude>
    <elevation>1012.9</elevation>
    <locationLabels>
      <type>CNTRY</type>
      <id>FIPS:US</id>
      <displayName>United States</displayName>
    </locationLabels>
    <coverage>0.9497</coverage>
  </station>
  <station>
    <id>GHCND:USC00404706</id>
    <displayName>JOPPA, TN US</displayName>
    <minDate>1949-01-01</minDate>
    <maxDate>1962-03-31</maxDate>
    <latitude>36.25</latitude>
    <longitude>-83.6</longitude>
    <elevation>287.1</elevation>
    <locationLabels>
      <type>CNTRY</type>
      <id>FIPS:US</id>
      <displayName>United States</displayName>
    </locationLabels>
    <coverage>0.9655</coverage>
  </station>
  <station>
    <id>GHCND:USC00214176</id>
    <displayName>JORDAN 2 E, MN US</displayName>
    <minDate>1942-01-11</minDate>
    <maxDate>2013-01-16</maxDate>
    <latitude>44.6501</latitude>
    <longitude>-93.6356</longitude>
    <elevation>271.3</elevation>
    <locationLabels>
      <type>CNTRY</type>
      <id>FIPS:US</id>
      <displayName>United States</displayName>
    </locationLabels>
    <coverage>0.9513</coverage>
  </station>
  <station>
    <id>GHCND:US1MNSC0010</id>
    <displayName>JORDAN 2.3 NNE, MN US</displayName>
    <minDate>2011-04-01</minDate>
    <maxDate>2012-10-31</maxDate>
    <latitude>44.6942</latitude>
    <longitude>-93.6127</longitude>
    <elevation>225.9</elevation>
    <locationLabels>
      <type>CNTRY</type>
      <id>FIPS:US</id>
      <displayName>United States</displayName>
    </locationLabels>
    <coverage>0.631</coverage>
  </station>
  <station>
    <id>GHCND:USC00244527</id>
    <displayName>JORDAN 22 E VAN NORM, MT US</displayName>
    <minDate>1965-09-01</minDate>
    <maxDate>1986-04-30</maxDate>
    <latitude>47.35</latitude>
    <longitude>-106.43333</longitude>
    <elevation>724.2</elevation>
    <locationLabels>
      <type>CNTRY</type>
      <id>FIPS:US</id>
      <displayName>United States</displayName>
    </locationLabels>
    <coverage>0.6212</coverage>
  </station>
  <station>
    <id>GHCND:USC00244530</id>
    <displayName>JORDAN 23 ENE, MT US</displayName>
    <minDate>1988-07-01</minDate>
    <maxDate>2000-12-31</maxDate>
    <latitude>47.48194</latitude>
    <longitude>-106.46806</longitude>
    <elevation>726.9</elevation>
    <locationLabels>
      <type>CNTRY</type>
      <id>FIPS:US</id>
      <displayName>United States</displayName>
    </locationLabels>
    <coverage>0.993</coverage>
  </station>
  <station>
    <id>GHCND:USW00094051</id>
    <displayName>JORDAN AIRPORT, MT US</displayName>
    <minDate>1997-09-01</minDate>
    <maxDate>2013-01-14</maxDate>
    <latitude>47.32583</latitude>
    <longitude>-106.9475</longitude>
    <elevation>811.4</elevation>
    <locationLabels>
      <type>CNTRY</type>
      <id>FIPS:US</id>
      <displayName>United States</displayName>
    </locationLabels>
    <coverage>0.9838</coverage>
  </station>
  <station>
    <id>GHCND:USR0000CJOR</id>
    <displayName>JORDAN CREEK CALIFORNIA, CA US</displayName>
    <minDate>1995-12-31</minDate>
    <maxDate>2002-03-20</maxDate>
    <latitude>39.7833</latitude>
    <longitude>-121.3667</longitude>
    <elevation>1341.1</elevation>
    <locationLabels>
      <type>CNTRY</type>
      <id>FIPS:US</id>
      <displayName>United States</displayName>
    </locationLabels>
    <coverage>0.6906</coverage>
  </station>
  <station>
    <id>GHCND:USC00014306</id>
    <displayName>JORDAN DAM, AL US</displayName>
    <minDate>1937-01-01</minDate>
    <maxDate>2013-01-16</maxDate>
    <latitude>32.61889</latitude>
    <longitude>-86.25417</longitude>
    <elevation>88.4</elevation>
    <locationLabels>
      <type>CNTRY</type>
      <id>FIPS:US</id>
      <displayName>United States</displayName>
    </locationLabels>
    <coverage>0.8347</coverage>
  </station>
  <station>
    <id>GHCND:USC00444452</id>
    <displayName>JORDAN MINES 1 NE, VA US</displayName>
    <minDate>1940-12-01</minDate>
    <maxDate>1951-09-30</maxDate>
    <latitude>37.68333</latitude>
    <longitude>-80.1</longitude>
    <elevation>427</elevation>
    <locationLabels>
      <type>CNTRY</type>
      <id>FIPS:US</id>
      <displayName>United States</displayName>
    </locationLabels>
    <coverage>0.3696</coverage>
  </station>
  <station>
    <id>GHCND:USC00354321</id>
    <displayName>JORDAN VALLEY, OR US</displayName>
    <minDate>1913-06-01</minDate>
    <maxDate>1951-09-30</maxDate>
    <latitude>42.9792</latitude>
    <longitude>-117.0533</longitude>
    <elevation>1338.1</elevation>
    <locationLabels>
      <type>CNTRY</type>
      <id>FIPS:US</id>
      <displayName>United States</displayName>
    </locationLabels>
    <coverage>0.0586</coverage>
  </station>
  <station>
    <id>GHCND:USC00244522</id>
    <displayName>JORDAN, MT US</displayName>
    <minDate>1905-01-01</minDate>
    <maxDate>2012-09-30</maxDate>
    <latitude>47.3144</latitude>
    <longitude>-106.9104</longitude>
    <elevation>798.6</elevation>
    <locationLabels>
      <type>CNTRY</type>
      <id>FIPS:US</id>
      <displayName>United States</displayName>
    </locationLabels>
    <coverage>0.8423</coverage>
  </station>
  <station>
    <id>GHCND:USC00294426</id>
    <displayName>JORNADA EXPERIMENTAL RANGE, NM US</displayName>
    <minDate>1914-06-01</minDate>
    <maxDate>2013-01-16</maxDate>
    <latitude>32.6161</latitude>
    <longitude>-106.7404</longitude>
    <elevation>1316.1</elevation>
    <locationLabels>
      <type>CNTRY</type>
      <id>FIPS:US</id>
      <displayName>United States</displayName>
    </locationLabels>
    <coverage>0.9259</coverage>
  </station>
  <station>
    <id>GHCND:RQC00664976</id>
    <displayName>JOSEFA, PR US</displayName>
    <minDate>1955-01-01</minDate>
    <maxDate>1969-01-31</maxDate>
    <latitude>17.96667</latitude>
    <longitude>-66.15</longitude>
    <elevation>9.1</elevation>
    <locationLabels>
      <type>CNTRY</type>
      <id>FIPS:US</id>
      <displayName>United States</displayName>
    </locationLabels>
    <coverage>0.9821</coverage>
  </station>
  <station>
    <id>GHCND:USC00354329</id>
    <displayName>JOSEPH, OR US</displayName>
    <minDate>1893-01-01</minDate>
    <maxDate>2012-12-11</maxDate>
    <latitude>45.3456</latitude>
    <longitude>-117.2247</longitude>
    <elevation>1298.4</elevation>
    <locationLabels>
      <type>CNTRY</type>
      <id>FIPS:US</id>
      <displayName>United States</displayName>
    </locationLabels>
    <coverage>0.63</coverage>
  </station>
  <station>
    <id>GHCND:USC00424370</id>
    <displayName>JOSEPH, UT US</displayName>
    <minDate>1915-07-01</minDate>
    <maxDate>1924-10-31</maxDate>
    <latitude>38.633333</latitude>
    <longitude>-112.216667</longitude>
    <elevation>1600.2</elevation>
    <locationLabels>
      <type>CNTRY</type>
      <id>FIPS:US</id>
      <displayName>United States</displayName>
    </locationLabels>
    <coverage>0.6925</coverage>
  </station>
  <station>
    <id>GHCND:US1TXJN0012</id>
    <displayName>JOSHUA 5.2 WSW, TX US</displayName>
    <minDate>2011-07-05</minDate>
    <maxDate>2013-01-16</maxDate>
    <latitude>32.4416</latitude>
    <longitude>-97.4657</longitude>
    <elevation>271</elevation>
    <locationLabels>
      <type>CNTRY</type>
      <id>FIPS:US</id>
      <displayName>United States</displayName>
    </locationLabels>
    <coverage>0.7171</coverage>
  </station>
  <station>
    <id>GHCND:US1CASR0014</id>
    <displayName>JOSHUA TREE 2.0 S, CA US</displayName>
    <minDate>2009-05-01</minDate>
    <maxDate>2013-01-16</maxDate>
    <latitude>34.0973</latitude>
    <longitude>-116.3178</longitude>
    <elevation>1039.1</elevation>
    <locationLabels>
      <type>CNTRY</type>
      <id>FIPS:US</id>
      <displayName>United States</displayName>
    </locationLabels>
    <coverage>0.9919</coverage>
  </station>
  <station>
    <id>GHCND:US1CASR0016</id>
    <displayName>JOSHUA TREE 2.8 ENE, CA US</displayName>
    <minDate>2009-10-01</minDate>
    <maxDate>2013-01-09</maxDate>
    <latitude>34.1472</latitude>
    <longitude>-116.2747</longitude>
    <elevation>781.8</elevation>
    <locationLabels>
      <type>CNTRY</type>
      <id>FIPS:US</id>
      <displayName>United States</displayName>
    </locationLabels>
    <coverage>0.9549</coverage>
  </station>
  <station>
    <id>GHCND:USC00044407</id>
    <displayName>JOSHUA TREE 3 S, CA US</displayName>
    <minDate>1974-04-01</minDate>
    <maxDate>1977-06-30</maxDate>
    <latitude>34.1</latitude>
    <longitude>-116.31667</longitude>
    <elevation>1064.1</elevation>
    <locationLabels>
      <type>CNTRY</type>
      <id>FIPS:US</id>
      <displayName>United States</displayName>
    </locationLabels>
    <coverage>1</coverage>
  </station>
  <station>
    <id>GHCND:USC00044405</id>
    <displayName>JOSHUA TREE, CA US</displayName>
    <minDate>1959-06-01</minDate>
    <maxDate>2013-01-16</maxDate>
    <latitude>34.14694</latitude>
    <longitude>-116.27472</longitude>
    <elevation>781.2</elevation>
    <locationLabels>
      <type>CNTRY</type>
      <id>FIPS:US</id>
      <displayName>United States</displayName>
    </locationLabels>
    <coverage>0.3468</coverage>
  </station>
  <station>
    <id>GHCND:US1TXAT0021</id>
    <displayName>JOURDANTON 5.2 NNW, TX US</displayName>
    <minDate>2012-03-28</minDate>
    <maxDate>2013-01-15</maxDate>
    <latitude>28.9789</latitude>
    <longitude>-98.5837</longitude>
    <elevation>139.6</elevation>
    <locationLabels>
      <type>CNTRY</type>
      <id>FIPS:US</id>
      <displayName>United States</displayName>
    </locationLabels>
    <coverage>0.7925</coverage>
  </station>
  <station>
    <id>GHCND:US1TXAT0005</id>
    <displayName>JOURDANTON 6.0 SSW, TX US</displayName>
    <minDate>2007-10-09</minDate>
    <maxDate>2012-11-04</maxDate>
    <latitude>28.8316</latitude>
    <longitude>-98.5792</longitude>
    <elevation>131.1</elevation>
    <locationLabels>
      <type>CNTRY</type>
      <id>FIPS:US</id>
      <displayName>United States</displayName>
    </locationLabels>
    <coverage>0.1446</coverage>
  </station>
  <station>
    <id>GHCND:USC00414647</id>
    <displayName>JOURDANTON, TX US</displayName>
    <minDate>1916-06-01</minDate>
    <maxDate>2011-08-31</maxDate>
    <latitude>28.9122</latitude>
    <longitude>-98.5425</longitude>
    <elevation>157.9</elevation>
    <locationLabels>
      <type>CNTRY</type>
      <id>FIPS:US</id>
      <displayName>United States</displayName>
    </locationLabels>
    <coverage>0.7087</coverage>
  </station>
  <station>
    <id>GHCND:USC00424375</id>
    <displayName>JOY, UT US</displayName>
    <minDate>1911-07-01</minDate>
    <maxDate>1913-05-31</maxDate>
    <latitude>39.566667</latitude>
    <longitude>-113.066667</longitude>
    <elevation>1798.3</elevation>
    <locationLabels>
      <type>CNTRY</type>
      <id>FIPS:US</id>
      <displayName>United States</displayName>
    </locationLabels>
    <coverage>0.6191</coverage>
  </station>
  <station>
    <id>GHCND:USC00424378</id>
    <displayName>JOZELLA RANCH, UT US</displayName>
    <minDate>1915-10-13</minDate>
    <maxDate>1923-11-30</maxDate>
    <latitude>37.933333</latitude>
    <longitude>-113.683333</longitude>
    <elevation>1585</elevation>
    <locationLabels>
      <type>CNTRY</type>
      <id>FIPS:US</id>
      <displayName>United States</displayName>
    </locationLabels>
    <coverage>0.797</coverage>
  </station>
  <station>
    <id>GHCND:USC00504062</id>
    <displayName>JUALIN, AK US</displayName>
    <minDate>1927-12-01</minDate>
    <maxDate>1929-08-31</maxDate>
    <latitude>58.85</latitude>
    <longitude>-135.3333</longitude>
    <elevation>216.4</elevation>
    <locationLabels>
      <type>CNTRY</type>
      <id>FIPS:US</id>
      <displayName>United States</displayName>
    </locationLabels>
    <coverage>0.9734</coverage>
  </station>
  <station>
    <id>GHCND:RQC00665020</id>
    <displayName>JUANA DIAZ CAMP, PR US</displayName>
    <minDate>1931-01-01</minDate>
    <maxDate>2012-11-30</maxDate>
    <latitude>18.0513</latitude>
    <longitude>-66.4986</longitude>
    <elevation>79.9</elevation>
    <locationLabels>
      <type>CNTRY</type>
      <id>FIPS:US</id>
      <displayName>United States</displayName>
    </locationLabels>
    <coverage>0.9183</coverage>
  </station>
  <station>
    <id>GHCND:USR0000CJUA</id>
    <displayName>JUANITA LAKE CALIFORNIA, CA US</displayName>
    <minDate>1988-12-30</minDate>
    <maxDate>2012-08-30</maxDate>
    <latitude>41.7861</latitude>
    <longitude>-122.0056</longitude>
    <elevation>1645.9</elevation>
    <locationLabels>
      <type>CNTRY</type>
      <id>FIPS:US</id>
      <displayName>United States</displayName>
    </locationLabels>
    <coverage>0.8843</coverage>
  </station>
  <station>
    <id>GHCND:USC00033761</id>
    <displayName>JUDD HILL, AR US</displayName>
    <minDate>1973-09-01</minDate>
    <maxDate>1985-04-30</maxDate>
    <latitude>35.6</latitude>
    <longitude>-90.51667</longitude>
    <elevation>65.5</elevation>
    <locationLabels>
      <type>CNTRY</type>
      <id>FIPS:US</id>
      <displayName>United States</displayName>
    </locationLabels>
    <coverage>0.8329</coverage>
  </station>
  <station>
    <id>GHCND:USC00244545</id>
    <displayName>JUDITH GAP 13 E, MT US</displayName>
    <minDate>1964-10-15</minDate>
    <maxDate>2013-01-16</maxDate>
    <latitude>46.6501</latitude>
    <longitude>-109.48</longitude>
    <elevation>1585.9</elevation>
    <locationLabels>
      <type>CNTRY</type>
      <id>FIPS:US</id>
      <displayName>United States</displayName>
    </locationLabels>
    <coverage>0.9234</coverage>
  </station>
  <station>
    <id>GHCND:USC00244538</id>
    <displayName>JUDITH GAP, MT US</displayName>
    <minDate>1950-07-01</minDate>
    <maxDate>2012-12-10</maxDate>
    <latitude>46.6755</latitude>
    <longitude>-109.7525</longitude>
    <elevation>1412.7</elevation>
    <locationLabels>
      <type>CNTRY</type>
      <id>FIPS:US</id>
      <displayName>United States</displayName>
    </locationLabels>
    <coverage>0.9066</coverage>
  </station>
  <station>
    <id>GHCND:USC00414661</id>
    <displayName>JUDKINS, TX US</displayName>
    <minDate>1943-09-02</minDate>
    <maxDate>1955-09-30</maxDate>
    <latitude>31.71667</latitude>
    <longitude>-102.63333</longitude>
    <elevation>885.1</elevation>
    <locationLabels>
      <type>CNTRY</type>
      <id>FIPS:US</id>
      <displayName>United States</displayName>
    </locationLabels>
    <coverage>0.9517</coverage>
  </station>
  <station>
    <id>GHCND:USC00484995</id>
    <displayName>JUDSON, SD US</displayName>
    <minDate>1920-12-06</minDate>
    <maxDate>1923-02-28</maxDate>
    <latitude>43.2</latitude>
    <longitude>-101.6667</longitude>
    <elevation>1706.9</elevation>
    <locationLabels>
      <type>CNTRY</type>
      <id>FIPS:US</id>
      <displayName>United States</displayName>
    </locationLabels>
    <coverage>0.6</coverage>
  </station>
  <station>
    <id>GHCND:USC00124449</id>
    <displayName>JUDYVILLE, IN US</displayName>
    <minDate>1907-06-01</minDate>
    <maxDate>1917-02-28</maxDate>
    <latitude>40.38333</latitude>
    <longitude>-87.41667</longitude>
    <locationLabels>
      <type>CNTRY</type>
      <id>FIPS:US</id>
      <displayName>United States</displayName>
    </locationLabels>
    <coverage>0.9905</coverage>
  </station>
  <station>
    <id>GHCND:US1COSG0005</id>
    <displayName>JULESBURG 0.1 NNW, CO US</displayName>
    <minDate>2003-02-01</minDate>
    <maxDate>2010-11-17</maxDate>
    <latitude>40.9895</latitude>
    <longitude>-102.265</longitude>
    <elevation>1061.9</elevation>
    <locationLabels>
      <type>CNTRY</type>
      <id>FIPS:US</id>
      <displayName>United States</displayName>
    </locationLabels>
    <coverage>0.2178</coverage>
  </station>
  <station>
    <id>GHCND:US1COSG0004</id>
    <displayName>JULESBURG 0.1 WNW, CO US</displayName>
    <minDate>2001-05-01</minDate>
    <maxDate>2012-12-27</maxDate>
    <latitude>40.9889</latitude>
    <longitude>-102.2667</longitude>
    <elevation>1061.9</elevation>
    <locationLabels>
      <type>CNTRY</type>
      <id>FIPS:US</id>
      <displayName>United States</displayName>
    </locationLabels>
    <coverage>0.0697</coverage>
  </station>
  <station>
    <id>GHCND:US1COSG0023</id>
    <displayName>JULESBURG 5.8 ENE, NE US</displayName>
    <minDate>2005-06-11</minDate>
    <maxDate>2008-08-16</maxDate>
    <latitude>41.0189</latitude>
    <longitude>-102.1623</longitude>
    <elevation>1043.9</elevation>
    <locationLabels>
      <type>CNTRY</type>
      <id>FIPS:US</id>
      <displayName>United States</displayName>
    </locationLabels>
    <coverage>0.1109</coverage>
  </station>
  <station>
    <id>GHCND:US1COSG0021</id>
    <displayName>JULESBURG 8.7 SE, CO US</displayName>
    <minDate>2005-04-20</minDate>
    <maxDate>2011-02-19</maxDate>
    <latitude>40.8951</latitude>
    <longitude>-102.1503</longitude>
    <elevation>1129</elevation>
    <locationLabels>
      <type>CNTRY</type>
      <id>FIPS:US</id>
      <displayName>United States</displayName>
    </locationLabels>
    <coverage>0.1426</coverage>
  </station>
  <station>
    <id>GHCND:US1COSG0003</id>
    <displayName>JULESBURG, CO US</displayName>
    <minDate>2000-05-01</minDate>
    <maxDate>2001-05-31</maxDate>
    <latitude>40.9871</latitude>
    <longitude>-102.2701</longitude>
    <elevation>1063.1</elevation>
    <locationLabels>
      <type>CNTRY</type>
      <id>FIPS:US</id>
      <displayName>United States</displayName>
    </locationLabels>
    <coverage>0.5404</coverage>
  </station>
  <station>
    <id>GHCND:USC00054413</id>
    <displayName>JULESBURG, CO US</displayName>
    <minDate>1893-01-01</minDate>
    <maxDate>2013-01-15</maxDate>
    <latitude>40.9866</latitude>
    <longitude>-102.2705</longitude>
    <elevation>1057.4</elevation>
    <locationLabels>
      <type>CNTRY</type>
      <id>FIPS:US</id>
      <displayName>United States</displayName>
    </locationLabels>
    <coverage>0.8048</coverage>
  </station>
  <station>
    <id>GHCND:US1IDNP0001</id>
    <displayName>JULIAETTA 4.1 SSE, ID US</displayName>
    <minDate>2009-12-08</minDate>
    <maxDate>2013-01-16</maxDate>
    <latitude>46.5203</latitude>
    <longitude>-116.6743</longitude>
    <elevation>287.4</elevation>
    <locationLabels>
      <type>CNTRY</type>
      <id>FIPS:US</id>
      <displayName>United States</displayName>
    </locationLabels>
    <coverage>0.9701</coverage>
  </station>
  <station>
    <id>GHCND:US10nema004</id>
    <displayName>JULIAN 0.4 SSE, NE US</displayName>
    <minDate>2007-01-01</minDate>
    <maxDate>2012-11-10</maxDate>
    <latitude>40.5175</latitude>
    <longitude>-95.8653</longitude>
    <elevation>319.1</elevation>
    <locationLabels>
      <type>CNTRY</type>
      <id>FIPS:US</id>
      <displayName>United States</displayName>
    </locationLabels>
    <coverage>0.6632</coverage>
  </station>
  <station>
    <id>GHCND:USR0000CJUL</id>
    <displayName>JULIAN CALIFORNIA, CA US</displayName>
    <minDate>1993-03-24</minDate>
    <maxDate>2012-08-30</maxDate>
    <latitude>33.0758</latitude>
    <longitude>-116.5908</longitude>
    <elevation>1292.4</elevation>
    <locationLabels>
      <type>CNTRY</type>
      <id>FIPS:US</id>
      <displayName>United States</displayName>
    </locationLabels>
    <coverage>0.9659</coverage>
  </station>
  <station>
    <id>GHCND:USC00044412</id>
    <displayName>JULIAN CDF, CA US</displayName>
    <minDate>1893-01-01</minDate>
    <maxDate>2013-01-16</maxDate>
    <latitude>33.0763</latitude>
    <longitude>-116.5925</longitude>
    <elevation>1284.7</elevation>
    <locationLabels>
      <type>CNTRY</type>
      <id>FIPS:US</id>
      <displayName>United States</displayName>
    </locationLabels>
    <coverage>0.3616</coverage>
  </station>
  <station>
    <id>GHCND:USC00044415</id>
    <displayName>JULIAN MANZANITA RAN, CA US</displayName>
    <minDate>1929-01-01</minDate>
    <maxDate>1949-12-31</maxDate>
    <latitude>33.06667</latitude>
    <longitude>-116.63333</longitude>
    <elevation>1286.9</elevation>
    <locationLabels>
      <type>CNTRY</type>
      <id>FIPS:US</id>
      <displayName>United States</displayName>
    </locationLabels>
    <coverage>0.9085</coverage>
  </station>
  <station>
    <id>GHCND:USC00044418</id>
    <displayName>JULIAN WYNOLA, CA US</displayName>
    <minDate>1949-09-01</minDate>
    <maxDate>1988-08-17</maxDate>
    <latitude>33.1</latitude>
    <longitude>-116.65</longitude>
    <elevation>1112.5</elevation>
    <locationLabels>
      <type>CNTRY</type>
      <id>FIPS:US</id>
      <displayName>United States</displayName>
    </locationLabels>
    <coverage>0.9914</coverage>
  </station>
  <station>
    <id>GHCND:USC00094728</id>
    <displayName>JULIETTE, GA US</displayName>
    <minDate>1958-01-01</minDate>
    <maxDate>2013-01-16</maxDate>
    <latitude>33.1139</latitude>
    <longitude>-83.7881</longitude>
    <elevation>137.2</elevation>
    <locationLabels>
      <type>CNTRY</type>
      <id>FIPS:US</id>
      <displayName>United States</displayName>
    </locationLabels>
    <coverage>0.9842</coverage>
  </station>
  <station>
    <id>GHCND:USC00504089</id>
    <displayName>JUMBO MINE, AK US</displayName>
    <minDate>1915-08-01</minDate>
    <maxDate>1919-01-31</maxDate>
    <latitude>55.2167</latitude>
    <longitude>-132.5333</longitude>
    <elevation>457.2</elevation>
    <locationLabels>
      <type>CNTRY</type>
      <id>FIPS:US</id>
      <displayName>United States</displayName>
    </locationLabels>
    <coverage>0.9867</coverage>
  </station>
  <station>
    <id>GHCND:USS0022E07S</id>
    <displayName>JUMP OFF JOE, OR US</displayName>
    <minDate>1978-10-01</minDate>
    <maxDate>2013-01-13</maxDate>
    <latitude>44.3833</latitude>
    <longitude>-122.1667</longitude>
    <elevation>1066.8</elevation>
    <locationLabels>
      <type>CNTRY</type>
      <id>FIPS:US</id>
      <displayName>United States</displayName>
    </locationLabels>
    <coverage>0.9215</coverage>
  </station>
  <station>
    <id>GHCND:USC00474080</id>
    <displayName>JUMP RIVER 3 E, WI US</displayName>
    <minDate>1948-08-01</minDate>
    <maxDate>2012-11-30</maxDate>
    <latitude>45.3497</latitude>
    <longitude>-90.7484</longitude>
    <elevation>385.6</elevation>
    <locationLabels>
      <type>CNTRY</type>
      <id>FIPS:US</id>
      <displayName>United States</displayName>
    </locationLabels>
    <coverage>0.9815</coverage>
  </station>
  <station>
    <id>GHCND:USC00044422</id>
    <displayName>JUNCAL DAM, CA US</displayName>
    <minDate>1941-06-01</minDate>
    <maxDate>2012-11-30</maxDate>
    <latitude>34.4908</latitude>
    <longitude>-119.5069</longitude>
    <elevation>688.8</elevation>
    <locationLabels>
      <type>CNTRY</type>
      <id>FIPS:US</id>
      <displayName>United States</displayName>
    </locationLabels>
    <coverage>0.9764</coverage>
  </station>
  <station>
    <id>GHCND:RQC00665064</id>
    <displayName>JUNCOS 1 SE, PR US</displayName>
    <minDate>1931-01-01</minDate>
    <maxDate>2012-11-30</maxDate>
    <latitude>18.2264</latitude>
    <longitude>-65.9114</longitude>
    <elevation>64.9</elevation>
    <locationLabels>
      <type>CNTRY</type>
      <id>FIPS:US</id>
      <displayName>United States</displayName>
    </locationLabels>
    <coverage>0.9215</coverage>
  </station>
  <station>
    <id>GHCND:US1TXKM0002</id>
    <displayName>JUNCTION 11.6 ENE, TX US</displayName>
    <minDate>2009-04-12</minDate>
    <maxDate>2013-01-16</maxDate>
    <latitude>30.5695</latitude>
    <longitude>-99.5996</longitude>
    <elevation>491</elevation>
    <locationLabels>
      <type>CNTRY</type>
      <id>FIPS:US</id>
      <displayName>United States</displayName>
    </locationLabels>
    <coverage>0.4964</coverage>
  </station>
  <station>
    <id>GHCND:US1TXKM0001</id>
    <displayName>JUNCTION 13.8 SE, TX US</displayName>
    <minDate>2009-01-15</minDate>
    <maxDate>2013-01-16</maxDate>
    <latitude>30.3572</latitude>
    <longitude>-99.5976</longitude>
    <elevation>608.7</elevation>
    <locationLabels>
      <type>CNTRY</type>
      <id>FIPS:US</id>
      <displayName>United States</displayName>
    </locationLabels>
    <coverage>0.9016</coverage>
  </station>
  <station>
    <id>GHCND:USC00414670</id>
    <displayName>JUNCTION 4 SSW, TX US</displayName>
    <minDate>1897-01-27</minDate>
    <maxDate>2013-01-14</maxDate>
    <latitude>30.4452</latitude>
    <longitude>-99.8044</longitude>
    <elevation>532.5</elevation>
    <locationLabels>
      <type>CNTRY</type>
      <id>FIPS:US</id>
      <displayName>United States</displayName>
    </locationLabels>
    <coverage>0.8126</coverage>
  </station>
  <station>
    <id>GHCND:US1KSGE0001</id>
    <displayName>JUNCTION CITY 1.1 SW, KS US</displayName>
    <minDate>2005-05-12</minDate>
    <maxDate>2012-09-26</maxDate>
    <latitude>39.0184</latitude>
    <longitude>-96.8568</longitude>
    <elevation>385</elevation>
    <locationLabels>
      <type>CNTRY</type>
      <id>FIPS:US</id>
      <displayName>United States</displayName>
    </locationLabels>
    <coverage>0.226</coverage>
  </station>
  <station>
    <id>GHCND:USC00144139</id>
    <displayName>JUNCTION CITY 4 SSW, KS US</displayName>
    <minDate>1980-10-01</minDate>
    <maxDate>1994-11-30</maxDate>
    <latitude>38.979</latitude>
    <longitude>-96.8572</longitude>
    <elevation>322.5</elevation>
    <locationLabels>
      <type>CNTRY</type>
      <id>FIPS:US</id>
      <displayName>United States</displayName>
    </locationLabels>
    <coverage>0.1237</coverage>
  </station>
  <station>
    <id>GHCND:USC00144140</id>
    <displayName>JUNCTION CITY 5 SE, KS US</displayName>
    <minDate>1975-04-06</minDate>
    <maxDate>2012-11-11</maxDate>
    <latitude>39.0079</latitude>
    <longitude>-96.7392</longitude>
    <elevation>332.8</elevation>
    <locationLabels>
      <type>CNTRY</type>
      <id>FIPS:US</id>
      <displayName>United States</displayName>
    </locationLabels>
    <coverage>0.0198</coverage>
  </station>
  <station>
    <id>GHCND:US1KSGE0003</id>
    <displayName>JUNCTION CITY 6.7 SSW, KS US</displayName>
    <minDate>2005-05-13</minDate>
    <maxDate>2009-06-21</maxDate>
    <latitude>38.9427</latitude>
    <longitude>-96.9025</longitude>
    <elevation>385</elevation>
    <locationLabels>
      <type>CNTRY</type>
      <id>FIPS:US</id>
      <displayName>United States</displayName>
    </locationLabels>
    <coverage>0.1099</coverage>
  </station>
  <station>
    <id>GHCND:US1ORLA0027</id>
    <displayName>JUNCTION CITY 9.8 SW, OR US</displayName>
    <minDate>2007-12-01</minDate>
    <maxDate>2013-01-16</maxDate>
    <latitude>44.1221</latitude>
    <longitude>-123.351</longitude>
    <elevation>176.8</elevation>
    <locationLabels>
      <type>CNTRY</type>
      <id>FIPS:US</id>
      <displayName>United States</displayName>
    </locationLabels>
    <coverage>0.8831</coverage>
  </station>
  <station>
    <id>GHCND:USC00144138</id>
    <displayName>JUNCTION CITY, KS US</displayName>
    <minDate>1925-05-01</minDate>
    <maxDate>1975-12-31</maxDate>
    <latitude>39.05</latitude>
    <longitude>-96.83333</longitude>
    <elevation>317</elevation>
    <locationLabels>
      <type>CNTRY</type>
      <id>FIPS:US</id>
      <displayName>United States</displayName>
    </locationLabels>
    <coverage>0.9841</coverage>
  </station>
</stationCollection>
