<?xml version="1.0" encoding="UTF-8" standalone="yes"?>
<stationCollection totalCount="46020" pageCount="461" pageSize="100" page="199">
  <station>
    <id>GHCND:US1WYCM0009</id>
    <displayName>HULETT 33.5 WNW, WY US</displayName>
    <minDate>2006-09-02</minDate>
    <maxDate>2013-01-16</maxDate>
    <latitude>44.7878</latitude>
    <longitude>-105.2674</longitude>
    <elevation>1121.1</elevation>
    <locationLabels>
      <type>CNTRY</type>
      <id>FIPS:US</id>
      <displayName>United States</displayName>
    </locationLabels>
    <coverage>0.9717</coverage>
  </station>
  <station>
    <id>GHCND:USC00484760</id>
    <displayName>HULETT, WY US</displayName>
    <minDate>1941-07-01</minDate>
    <maxDate>2012-06-29</maxDate>
    <latitude>44.6855</latitude>
    <longitude>-104.6027</longitude>
    <elevation>1145.4</elevation>
    <locationLabels>
      <type>CNTRY</type>
      <id>FIPS:US</id>
      <displayName>United States</displayName>
    </locationLabels>
    <coverage>0.7351</coverage>
  </station>
  <station>
    <id>GHCND:USC00044158</id>
    <displayName>HULLVILLE 7 SE, CA US</displayName>
    <minDate>1907-04-01</minDate>
    <maxDate>1909-10-09</maxDate>
    <latitude>39.35</latitude>
    <longitude>-122.866667</longitude>
    <elevation>685.8</elevation>
    <locationLabels>
      <type>CNTRY</type>
      <id>FIPS:US</id>
      <displayName>United States</displayName>
    </locationLabels>
    <coverage>1</coverage>
  </station>
  <station>
    <id>GHCND:RQC00664613</id>
    <displayName>HUMACAO 2 SSE, PR US</displayName>
    <minDate>1931-01-01</minDate>
    <maxDate>1996-01-31</maxDate>
    <latitude>18.13333</latitude>
    <longitude>-65.81667</longitude>
    <elevation>39.9</elevation>
    <locationLabels>
      <type>CNTRY</type>
      <id>FIPS:US</id>
      <displayName>United States</displayName>
    </locationLabels>
    <coverage>0.9186</coverage>
  </station>
  <station>
    <id>GHCND:USC00234101</id>
    <displayName>HUMANSVILLE, MO US</displayName>
    <minDate>1893-02-01</minDate>
    <maxDate>1898-04-30</maxDate>
    <latitude>37.794481</latitude>
    <longitude>-93.577982</longitude>
    <elevation>294.1</elevation>
    <locationLabels>
      <type>CNTRY</type>
      <id>FIPS:US</id>
      <displayName>United States</displayName>
    </locationLabels>
    <coverage>0.6668</coverage>
  </station>
  <station>
    <id>GHCND:USC00414363</id>
    <displayName>HUMBLE PUMP STATION 5 WN, TX US</displayName>
    <minDate>1948-03-01</minDate>
    <maxDate>2012-11-30</maxDate>
    <latitude>30.3605</latitude>
    <longitude>-100.3055</longitude>
    <elevation>670.6</elevation>
    <locationLabels>
      <type>CNTRY</type>
      <id>FIPS:US</id>
      <displayName>United States</displayName>
    </locationLabels>
    <coverage>0.8924</coverage>
  </station>
  <station>
    <id>GHCND:USC00414362</id>
    <displayName>HUMBLE, TX US</displayName>
    <minDate>1954-06-01</minDate>
    <maxDate>1985-05-31</maxDate>
    <latitude>30</latitude>
    <longitude>-95.25</longitude>
    <elevation>31.1</elevation>
    <locationLabels>
      <type>CNTRY</type>
      <id>FIPS:US</id>
      <displayName>United States</displayName>
    </locationLabels>
    <coverage>0.9816</coverage>
  </station>
  <station>
    <id>GHCND:US10rich001</id>
    <displayName>HUMBOLDT 2.2 SW, NE US</displayName>
    <minDate>2007-01-01</minDate>
    <maxDate>2013-01-11</maxDate>
    <latitude>40.1399</latitude>
    <longitude>-95.9726</longitude>
    <elevation>319.1</elevation>
    <locationLabels>
      <type>CNTRY</type>
      <id>FIPS:US</id>
      <displayName>United States</displayName>
    </locationLabels>
    <coverage>0.9614</coverage>
  </station>
  <station>
    <id>GHCND:USC00133985</id>
    <displayName>HUMBOLDT 3 W, IA US</displayName>
    <minDate>1893-05-01</minDate>
    <maxDate>1997-06-30</maxDate>
    <latitude>42.71806</latitude>
    <longitude>-94.26889</longitude>
    <elevation>338.3</elevation>
    <locationLabels>
      <type>CNTRY</type>
      <id>FIPS:US</id>
      <displayName>United States</displayName>
    </locationLabels>
    <coverage>0.8105</coverage>
  </station>
  <station>
    <id>GHCND:US1KSAL0002</id>
    <displayName>HUMBOLDT 4.6 ESE, KS US</displayName>
    <minDate>2005-10-31</minDate>
    <maxDate>2013-01-15</maxDate>
    <latitude>37.7913</latitude>
    <longitude>-95.3574</longitude>
    <elevation>312.1</elevation>
    <locationLabels>
      <type>CNTRY</type>
      <id>FIPS:US</id>
      <displayName>United States</displayName>
    </locationLabels>
    <coverage>0.5923</coverage>
  </station>
  <station>
    <id>GHCND:US10rich005</id>
    <displayName>HUMBOLDT 4.6 NNW, NE US</displayName>
    <minDate>2007-01-01</minDate>
    <maxDate>2013-01-11</maxDate>
    <latitude>40.2292</latitude>
    <longitude>-95.963</longitude>
    <elevation>356.9</elevation>
    <locationLabels>
      <type>CNTRY</type>
      <id>FIPS:US</id>
      <displayName>United States</displayName>
    </locationLabels>
    <coverage>0.9119</coverage>
  </station>
  <station>
    <id>GHCND:US10rich008</id>
    <displayName>HUMBOLDT 6.0 S, NE US</displayName>
    <minDate>2007-03-21</minDate>
    <maxDate>2012-12-19</maxDate>
    <latitude>40.0769</latitude>
    <longitude>-95.9322</longitude>
    <elevation>335</elevation>
    <locationLabels>
      <type>CNTRY</type>
      <id>FIPS:US</id>
      <displayName>United States</displayName>
    </locationLabels>
    <coverage>0.7011</coverage>
  </station>
  <station>
    <id>GHCND:US1SDMH0015</id>
    <displayName>HUMBOLDT 7.2 NNW, SD US</displayName>
    <minDate>2007-06-01</minDate>
    <maxDate>2011-07-20</maxDate>
    <latitude>43.7454</latitude>
    <longitude>-97.109</longitude>
    <elevation>520.9</elevation>
    <locationLabels>
      <type>CNTRY</type>
      <id>FIPS:US</id>
      <displayName>United States</displayName>
    </locationLabels>
    <coverage>0.0741</coverage>
  </station>
  <station>
    <id>GHCND:US10nema003</id>
    <displayName>HUMBOLDT 7.3 NNE, NE US</displayName>
    <minDate>2007-05-19</minDate>
    <maxDate>2012-08-09</maxDate>
    <latitude>40.266</latitude>
    <longitude>-95.911</longitude>
    <elevation>342.9</elevation>
    <locationLabels>
      <type>CNTRY</type>
      <id>FIPS:US</id>
      <displayName>United States</displayName>
    </locationLabels>
    <coverage>0.2241</coverage>
  </station>
  <station>
    <id>GHCND:USC00263853</id>
    <displayName>HUMBOLDT FIELD, NV US</displayName>
    <minDate>1940-01-01</minDate>
    <maxDate>1947-11-30</maxDate>
    <latitude>40.08333</latitude>
    <longitude>-118.15</longitude>
    <elevation>1268</elevation>
    <locationLabels>
      <type>CNTRY</type>
      <id>FIPS:US</id>
      <displayName>United States</displayName>
    </locationLabels>
    <coverage>0.9865</coverage>
  </station>
  <station>
    <id>GHCND:USS0015B21S</id>
    <displayName>HUMBOLDT GULCH, ID US</displayName>
    <minDate>1981-10-02</minDate>
    <maxDate>2013-01-13</maxDate>
    <latitude>47.5333</latitude>
    <longitude>-115.7833</longitude>
    <elevation>1295.4</elevation>
    <locationLabels>
      <type>CNTRY</type>
      <id>FIPS:US</id>
      <displayName>United States</displayName>
    </locationLabels>
    <coverage>0.8628</coverage>
  </station>
  <station>
    <id>GHCND:USC00133980</id>
    <displayName>HUMBOLDT WATER PLANT, IA US</displayName>
    <minDate>1997-06-01</minDate>
    <maxDate>2013-01-16</maxDate>
    <latitude>42.7197</latitude>
    <longitude>-94.2202</longitude>
    <elevation>335.3</elevation>
    <locationLabels>
      <type>CNTRY</type>
      <id>FIPS:US</id>
      <displayName>United States</displayName>
    </locationLabels>
    <coverage>0.804</coverage>
  </station>
  <station>
    <id>GHCND:USC00132037</id>
    <displayName>HUMBOLDT, IA US</displayName>
    <minDate>1939-09-01</minDate>
    <maxDate>1956-03-31</maxDate>
    <latitude>42.68333</latitude>
    <longitude>-94.2</longitude>
    <elevation>320</elevation>
    <locationLabels>
      <type>CNTRY</type>
      <id>FIPS:US</id>
      <displayName>United States</displayName>
    </locationLabels>
    <coverage>0.9982</coverage>
  </station>
  <station>
    <id>GHCND:USC00143867</id>
    <displayName>HUMBOLDT, KS US</displayName>
    <minDate>1982-09-01</minDate>
    <maxDate>2013-01-16</maxDate>
    <latitude>37.8118</latitude>
    <longitude>-95.4456</longitude>
    <elevation>286.5</elevation>
    <locationLabels>
      <type>CNTRY</type>
      <id>FIPS:US</id>
      <displayName>United States</displayName>
    </locationLabels>
    <coverage>0.6168</coverage>
  </station>
  <station>
    <id>GHCND:USC00203991</id>
    <displayName>HUMBOLDT, MI US</displayName>
    <minDate>1896-11-24</minDate>
    <maxDate>1929-08-31</maxDate>
    <latitude>46.48333</latitude>
    <longitude>-87.86667</longitude>
    <elevation>468.2</elevation>
    <locationLabels>
      <type>CNTRY</type>
      <id>FIPS:US</id>
      <displayName>United States</displayName>
    </locationLabels>
    <coverage>0.9616</coverage>
  </station>
  <station>
    <id>GHCND:USC00263840</id>
    <displayName>HUMBOLDT, NV US</displayName>
    <minDate>1892-01-01</minDate>
    <maxDate>1909-09-30</maxDate>
    <latitude>40.6</latitude>
    <longitude>-118.25</longitude>
    <elevation>1291.1</elevation>
    <locationLabels>
      <type>CNTRY</type>
      <id>FIPS:US</id>
      <displayName>United States</displayName>
    </locationLabels>
    <coverage>0.7181</coverage>
  </station>
  <station>
    <id>GHCND:USC00404392</id>
    <displayName>HUMBOLDT, TN US</displayName>
    <minDate>1938-01-01</minDate>
    <maxDate>1951-09-30</maxDate>
    <latitude>35.81667</latitude>
    <longitude>-88.93333</longitude>
    <elevation>100.9</elevation>
    <locationLabels>
      <type>CNTRY</type>
      <id>FIPS:US</id>
      <displayName>United States</displayName>
    </locationLabels>
    <coverage>0.3436</coverage>
  </station>
  <station>
    <id>GHCND:USR0000AHUM</id>
    <displayName>HUMBUG CREEK ARIZONA, AZ US</displayName>
    <minDate>1985-07-02</minDate>
    <maxDate>2012-08-30</maxDate>
    <latitude>34.1164</latitude>
    <longitude>-112.3006</longitude>
    <elevation>1600.2</elevation>
    <locationLabels>
      <type>CNTRY</type>
      <id>FIPS:US</id>
      <displayName>United States</displayName>
    </locationLabels>
    <coverage>0.9697</coverage>
  </station>
  <station>
    <id>GHCND:US1PADP0012</id>
    <displayName>HUMMELSTOWN 0.5 WSW, PA US</displayName>
    <minDate>2009-05-31</minDate>
    <maxDate>2009-10-18</maxDate>
    <latitude>40.2642</latitude>
    <longitude>-76.7212</longitude>
    <elevation>110.9</elevation>
    <locationLabels>
      <type>CNTRY</type>
      <id>FIPS:US</id>
      <displayName>United States</displayName>
    </locationLabels>
    <coverage>0.9007</coverage>
  </station>
  <station>
    <id>GHCND:US1PADP0011</id>
    <displayName>HUMMELSTOWN 0.6 ESE, PA US</displayName>
    <minDate>2007-02-14</minDate>
    <maxDate>2010-10-28</maxDate>
    <latitude>40.2629</latitude>
    <longitude>-76.7031</longitude>
    <elevation>124.1</elevation>
    <locationLabels>
      <type>CNTRY</type>
      <id>FIPS:US</id>
      <displayName>United States</displayName>
    </locationLabels>
    <coverage>0.7657</coverage>
  </station>
  <station>
    <id>GHCND:US10plat014</id>
    <displayName>HUMPHREY 4.4 SE, NE US</displayName>
    <minDate>2007-03-30</minDate>
    <maxDate>2013-01-11</maxDate>
    <latitude>41.6411</latitude>
    <longitude>-97.4321</longitude>
    <elevation>513</elevation>
    <locationLabels>
      <type>CNTRY</type>
      <id>FIPS:US</id>
      <displayName>United States</displayName>
    </locationLabels>
    <coverage>0.9475</coverage>
  </station>
  <station>
    <id>GHCND:USC00254055</id>
    <displayName>HUMPHREY 8 SW, NE US</displayName>
    <minDate>1948-08-01</minDate>
    <maxDate>1950-09-30</maxDate>
    <latitude>41.6</latitude>
    <longitude>-97.6</longitude>
    <locationLabels>
      <type>CNTRY</type>
      <id>FIPS:US</id>
      <displayName>United States</displayName>
    </locationLabels>
    <coverage>0.8824</coverage>
  </station>
  <station>
    <id>GHCND:USC00254052</id>
    <displayName>HUMPHREY, NE US</displayName>
    <minDate>2004-08-01</minDate>
    <maxDate>2013-01-16</maxDate>
    <latitude>41.6866</latitude>
    <longitude>-97.4773</longitude>
    <elevation>512.1</elevation>
    <locationLabels>
      <type>CNTRY</type>
      <id>FIPS:US</id>
      <displayName>United States</displayName>
    </locationLabels>
    <coverage>0.7066</coverage>
  </station>
  <station>
    <id>GHCND:USC00304045</id>
    <displayName>HUMPHREY, NY US</displayName>
    <minDate>1891-08-01</minDate>
    <maxDate>1902-10-31</maxDate>
    <latitude>42.233333</latitude>
    <longitude>-78.233333</longitude>
    <elevation>594.4</elevation>
    <locationLabels>
      <type>CNTRY</type>
      <id>FIPS:US</id>
      <displayName>United States</displayName>
    </locationLabels>
    <coverage>0.9878</coverage>
  </station>
  <station>
    <id>GHCND:USC00453826</id>
    <displayName>HUMPTULIPS SALMON HATCHERY, WA US</displayName>
    <minDate>1987-07-01</minDate>
    <maxDate>2013-01-16</maxDate>
    <latitude>47.2336</latitude>
    <longitude>-123.9897</longitude>
    <elevation>42.7</elevation>
    <locationLabels>
      <type>CNTRY</type>
      <id>FIPS:US</id>
      <displayName>United States</displayName>
    </locationLabels>
    <coverage>0.9815</coverage>
  </station>
  <station>
    <id>GHCND:USC00512182</id>
    <displayName>HUMUULA, HI US</displayName>
    <minDate>1905-06-11</minDate>
    <maxDate>1914-02-28</maxDate>
    <latitude>19.7167</latitude>
    <longitude>-155.4333</longitude>
    <elevation>2037.6</elevation>
    <locationLabels>
      <type>CNTRY</type>
      <id>FIPS:US</id>
      <displayName>United States</displayName>
    </locationLabels>
    <coverage>0.8308</coverage>
  </station>
  <station>
    <id>GHCND:USC00464372</id>
    <displayName>HUNDRED 1 N, WV US</displayName>
    <minDate>1982-01-16</minDate>
    <maxDate>1995-12-31</maxDate>
    <latitude>39.7</latitude>
    <longitude>-80.45</longitude>
    <elevation>320</elevation>
    <locationLabels>
      <type>CNTRY</type>
      <id>FIPS:US</id>
      <displayName>United States</displayName>
    </locationLabels>
    <coverage>0.8521</coverage>
  </station>
  <station>
    <id>GHCND:USC00464369</id>
    <displayName>HUNDRED, WV US</displayName>
    <minDate>1948-08-01</minDate>
    <maxDate>1951-09-30</maxDate>
    <latitude>39.7</latitude>
    <longitude>-80.46667</longitude>
    <elevation>304.8</elevation>
    <locationLabels>
      <type>CNTRY</type>
      <id>FIPS:US</id>
      <displayName>United States</displayName>
    </locationLabels>
    <coverage>0.9628</coverage>
  </station>
  <station>
    <id>GHCND:USC00244328</id>
    <displayName>HUNGRY HORSE DAM, MT US</displayName>
    <minDate>1947-06-01</minDate>
    <maxDate>2013-01-16</maxDate>
    <latitude>48.3426</latitude>
    <longitude>-114.0217</longitude>
    <elevation>963.2</elevation>
    <locationLabels>
      <type>CNTRY</type>
      <id>FIPS:US</id>
      <displayName>United States</displayName>
    </locationLabels>
    <coverage>0.9901</coverage>
  </station>
  <station>
    <id>GHCND:USR0000MHUN</id>
    <displayName>HUNGRY HORSE MONTANA, MT US</displayName>
    <minDate>1999-05-06</minDate>
    <maxDate>2012-08-31</maxDate>
    <latitude>48.3847</latitude>
    <longitude>-114.0575</longitude>
    <elevation>983</elevation>
    <locationLabels>
      <type>CNTRY</type>
      <id>FIPS:US</id>
      <displayName>United States</displayName>
    </locationLabels>
    <coverage>0.8075</coverage>
  </station>
  <station>
    <id>GHCND:US1PALZ0017</id>
    <displayName>HUNLOCK 4.3 N, PA US</displayName>
    <minDate>2011-12-14</minDate>
    <maxDate>2013-01-14</maxDate>
    <latitude>41.2662</latitude>
    <longitude>-76.0658</longitude>
    <elevation>379.2</elevation>
    <locationLabels>
      <type>CNTRY</type>
      <id>FIPS:US</id>
      <displayName>United States</displayName>
    </locationLabels>
    <coverage>0.7161</coverage>
  </station>
  <station>
    <id>GHCND:USC00364141</id>
    <displayName>HUNLOCK CREEK 4 N, PA US</displayName>
    <minDate>1971-05-01</minDate>
    <maxDate>1973-08-31</maxDate>
    <latitude>41.25</latitude>
    <longitude>-76.05</longitude>
    <elevation>360</elevation>
    <locationLabels>
      <type>CNTRY</type>
      <id>FIPS:US</id>
      <displayName>United States</displayName>
    </locationLabels>
    <coverage>0.6417</coverage>
  </station>
  <station>
    <id>GHCND:USC00414375</id>
    <displayName>HUNT 10 W, TX US</displayName>
    <minDate>1992-01-01</minDate>
    <maxDate>2012-11-30</maxDate>
    <latitude>30.0627</latitude>
    <longitude>-99.505</longitude>
    <elevation>612.6</elevation>
    <locationLabels>
      <type>CNTRY</type>
      <id>FIPS:US</id>
      <displayName>United States</displayName>
    </locationLabels>
    <coverage>0.9903</coverage>
  </station>
  <station>
    <id>GHCND:US1TXKR0032</id>
    <displayName>HUNT 2.6 WSW, TX US</displayName>
    <minDate>2009-02-20</minDate>
    <maxDate>2013-01-10</maxDate>
    <latitude>30.0401</latitude>
    <longitude>-99.4631</longitude>
    <elevation>344.7</elevation>
    <locationLabels>
      <type>CNTRY</type>
      <id>FIPS:US</id>
      <displayName>United States</displayName>
    </locationLabels>
    <coverage>0.4117</coverage>
  </station>
  <station>
    <id>GHCND:USC00414374</id>
    <displayName>HUNT 3 SW, TX US</displayName>
    <minDate>1941-12-01</minDate>
    <maxDate>1999-05-31</maxDate>
    <latitude>30.02944</latitude>
    <longitude>-99.36139</longitude>
    <elevation>570</elevation>
    <locationLabels>
      <type>CNTRY</type>
      <id>FIPS:US</id>
      <displayName>United States</displayName>
    </locationLabels>
    <coverage>0.9449</coverage>
  </station>
  <station>
    <id>GHCND:US1TXKR0011</id>
    <displayName>HUNT 5.8 WSW, TX US</displayName>
    <minDate>2007-11-05</minDate>
    <maxDate>2012-12-03</maxDate>
    <latitude>30.0592</latitude>
    <longitude>-99.4306</longitude>
    <elevation>585.2</elevation>
    <locationLabels>
      <type>CNTRY</type>
      <id>FIPS:US</id>
      <displayName>United States</displayName>
    </locationLabels>
    <coverage>0.7268</coverage>
  </station>
  <station>
    <id>GHCND:USC00114292</id>
    <displayName>HUNT DRAINAGE DIST, IL US</displayName>
    <minDate>1951-11-06</minDate>
    <maxDate>1953-12-31</maxDate>
    <latitude>40.28333</latitude>
    <longitude>-91.48333</longitude>
    <locationLabels>
      <type>CNTRY</type>
      <id>FIPS:US</id>
      <displayName>United States</displayName>
    </locationLabels>
    <coverage>0.9149</coverage>
  </station>
  <station>
    <id>GHCND:US1OKGT0001</id>
    <displayName>HUNTER 6.0 NNE, OK US</displayName>
    <minDate>2006-09-20</minDate>
    <maxDate>2013-01-16</maxDate>
    <latitude>36.6361</latitude>
    <longitude>-97.6036</longitude>
    <elevation>317.9</elevation>
    <locationLabels>
      <type>CNTRY</type>
      <id>FIPS:US</id>
      <displayName>United States</displayName>
    </locationLabels>
    <coverage>0.955</coverage>
  </station>
  <station>
    <id>GHCND:USR0000CHUN</id>
    <displayName>HUNTER CREEK COLORADO, CO US</displayName>
    <minDate>1984-07-09</minDate>
    <maxDate>2012-08-31</maxDate>
    <latitude>39.7667</latitude>
    <longitude>-108.3167</longitude>
    <elevation>2231.1</elevation>
    <locationLabels>
      <type>CNTRY</type>
      <id>FIPS:US</id>
      <displayName>United States</displayName>
    </locationLabels>
    <coverage>0.97</coverage>
  </station>
  <station>
    <id>GHCND:USC00044166</id>
    <displayName>HUNTER DISTR GRAVES, CA US</displayName>
    <minDate>1960-09-01</minDate>
    <maxDate>1970-09-30</maxDate>
    <latitude>40.18333</latitude>
    <longitude>-122.55</longitude>
    <elevation>235</elevation>
    <locationLabels>
      <type>CNTRY</type>
      <id>FIPS:US</id>
      <displayName>United States</displayName>
    </locationLabels>
    <coverage>0.9973</coverage>
  </station>
  <station>
    <id>GHCND:USR0000CHNM</id>
    <displayName>HUNTER MOUNTAIN CALIFORNIA, CA US</displayName>
    <minDate>1989-02-15</minDate>
    <maxDate>2011-05-10</maxDate>
    <latitude>36.5625</latitude>
    <longitude>-117.4736</longitude>
    <elevation>2097</elevation>
    <locationLabels>
      <type>CNTRY</type>
      <id>FIPS:US</id>
      <displayName>United States</displayName>
    </locationLabels>
    <coverage>0.9634</coverage>
  </station>
  <station>
    <id>GHCND:USC00304052</id>
    <displayName>HUNTER MOUNTAIN, NY US</displayName>
    <minDate>1963-10-01</minDate>
    <maxDate>1964-12-31</maxDate>
    <latitude>42.2</latitude>
    <longitude>-74.21667</longitude>
    <elevation>499.9</elevation>
    <locationLabels>
      <type>CNTRY</type>
      <id>FIPS:US</id>
      <displayName>United States</displayName>
    </locationLabels>
    <coverage>1</coverage>
  </station>
  <station>
    <id>GHCND:USC00143897</id>
    <displayName>HUNTER, KS US</displayName>
    <minDate>1957-03-01</minDate>
    <maxDate>2013-01-11</maxDate>
    <latitude>39.2333</latitude>
    <longitude>-98.3933</longitude>
    <elevation>495.3</elevation>
    <locationLabels>
      <type>CNTRY</type>
      <id>FIPS:US</id>
      <displayName>United States</displayName>
    </locationLabels>
    <coverage>0.7805</coverage>
  </station>
  <station>
    <id>GHCND:USC00164453</id>
    <displayName>HUNTER, LA US</displayName>
    <minDate>1949-06-03</minDate>
    <maxDate>1951-09-30</maxDate>
    <latitude>31.98333</latitude>
    <longitude>-93.83333</longitude>
    <elevation>82</elevation>
    <locationLabels>
      <type>CNTRY</type>
      <id>FIPS:US</id>
      <displayName>United States</displayName>
    </locationLabels>
    <coverage>0.3812</coverage>
  </station>
  <station>
    <id>GHCND:US1WAST0006</id>
    <displayName>HUNTERS 0.7 ENE, WA US</displayName>
    <minDate>2009-03-15</minDate>
    <maxDate>2010-08-14</maxDate>
    <latitude>48.1189</latitude>
    <longitude>-118.1854</longitude>
    <elevation>512.4</elevation>
    <locationLabels>
      <type>CNTRY</type>
      <id>FIPS:US</id>
      <displayName>United States</displayName>
    </locationLabels>
    <coverage>0.39</coverage>
  </station>
  <station>
    <id>GHCND:USC00044170</id>
    <displayName>HUNTERS DAM, CA US</displayName>
    <minDate>1959-06-01</minDate>
    <maxDate>1975-04-30</maxDate>
    <latitude>38.2</latitude>
    <longitude>-120.36667</longitude>
    <elevation>982.1</elevation>
    <locationLabels>
      <type>CNTRY</type>
      <id>FIPS:US</id>
      <displayName>United States</displayName>
    </locationLabels>
    <coverage>1</coverage>
  </station>
  <station>
    <id>GHCND:USC00484770</id>
    <displayName>HUNTERS STATION, WY US</displayName>
    <minDate>1906-02-01</minDate>
    <maxDate>1952-01-23</maxDate>
    <latitude>44.36667</latitude>
    <longitude>-106.95</longitude>
    <elevation>2257</elevation>
    <locationLabels>
      <type>CNTRY</type>
      <id>FIPS:US</id>
      <displayName>United States</displayName>
    </locationLabels>
    <coverage>0.7887</coverage>
  </station>
  <station>
    <id>GHCND:USC00453850</id>
    <displayName>HUNTERS, WA US</displayName>
    <minDate>1915-05-01</minDate>
    <maxDate>1921-02-28</maxDate>
    <latitude>48.116667</latitude>
    <longitude>-118.2</longitude>
    <elevation>490.7</elevation>
    <locationLabels>
      <type>CNTRY</type>
      <id>FIPS:US</id>
      <displayName>United States</displayName>
    </locationLabels>
    <coverage>0.9427</coverage>
  </station>
  <station>
    <id>GHCND:US1NCMK0017</id>
    <displayName>HUNTERSVILLE 0.6 ESE, NC US</displayName>
    <minDate>2009-04-10</minDate>
    <maxDate>2012-12-27</maxDate>
    <latitude>35.4138</latitude>
    <longitude>-80.8351</longitude>
    <elevation>234.1</elevation>
    <locationLabels>
      <type>CNTRY</type>
      <id>FIPS:US</id>
      <displayName>United States</displayName>
    </locationLabels>
    <coverage>0.2032</coverage>
  </station>
  <station>
    <id>GHCND:USC00314328</id>
    <displayName>HUNTERSVILLE 2 S, NC US</displayName>
    <minDate>1948-09-01</minDate>
    <maxDate>1949-03-31</maxDate>
    <latitude>35.38333</latitude>
    <longitude>-80.83333</longitude>
    <locationLabels>
      <type>CNTRY</type>
      <id>FIPS:US</id>
      <displayName>United States</displayName>
    </locationLabels>
    <coverage>1</coverage>
  </station>
  <station>
    <id>GHCND:US1INAL0016</id>
    <displayName>HUNTERTOWN 0.2 SSW, IN US</displayName>
    <minDate>2007-10-19</minDate>
    <maxDate>2013-01-16</maxDate>
    <latitude>41.2285</latitude>
    <longitude>-85.1722</longitude>
    <elevation>260</elevation>
    <locationLabels>
      <type>CNTRY</type>
      <id>FIPS:US</id>
      <displayName>United States</displayName>
    </locationLabels>
    <coverage>0.7225</coverage>
  </station>
  <station>
    <id>GHCND:US1INAL0018</id>
    <displayName>HUNTERTOWN 2.2 ESE, IN US</displayName>
    <minDate>2007-10-19</minDate>
    <maxDate>2011-06-23</maxDate>
    <latitude>41.2224</latitude>
    <longitude>-85.1295</longitude>
    <elevation>264</elevation>
    <locationLabels>
      <type>CNTRY</type>
      <id>FIPS:US</id>
      <displayName>United States</displayName>
    </locationLabels>
    <coverage>0.8058</coverage>
  </station>
  <station>
    <id>GHCND:US1INAL0024</id>
    <displayName>HUNTERTOWN 2.5 ESE, IN US</displayName>
    <minDate>2008-06-04</minDate>
    <maxDate>2012-08-17</maxDate>
    <latitude>41.2144</latitude>
    <longitude>-85.1269</longitude>
    <elevation>260.3</elevation>
    <locationLabels>
      <type>CNTRY</type>
      <id>FIPS:US</id>
      <displayName>United States</displayName>
    </locationLabels>
    <coverage>0.2461</coverage>
  </station>
  <station>
    <id>GHCND:US1INAL0005</id>
    <displayName>HUNTERTOWN 2.6 ESE, IN US</displayName>
    <minDate>2006-10-05</minDate>
    <maxDate>2013-01-16</maxDate>
    <latitude>41.2144</latitude>
    <longitude>-85.1242</longitude>
    <elevation>257.9</elevation>
    <locationLabels>
      <type>CNTRY</type>
      <id>FIPS:US</id>
      <displayName>United States</displayName>
    </locationLabels>
    <coverage>0.9582</coverage>
  </station>
  <station>
    <id>GHCND:US1INDB0001</id>
    <displayName>HUNTINGBURG 0.4 SSW, IN US</displayName>
    <minDate>2006-03-01</minDate>
    <maxDate>2013-01-16</maxDate>
    <latitude>38.2929</latitude>
    <longitude>-86.9611</longitude>
    <elevation>153.3</elevation>
    <locationLabels>
      <type>CNTRY</type>
      <id>FIPS:US</id>
      <displayName>United States</displayName>
    </locationLabels>
    <coverage>0.9948</coverage>
  </station>
  <station>
    <id>GHCND:US1INDB0004</id>
    <displayName>HUNTINGBURG 6.2 WSW, IN US</displayName>
    <minDate>2007-04-26</minDate>
    <maxDate>2013-01-16</maxDate>
    <latitude>38.2797</latitude>
    <longitude>-87.0709</longitude>
    <elevation>162.2</elevation>
    <locationLabels>
      <type>CNTRY</type>
      <id>FIPS:US</id>
      <displayName>United States</displayName>
    </locationLabels>
    <coverage>0.8514</coverage>
  </station>
  <station>
    <id>GHCND:USC00124168</id>
    <displayName>HUNTINGBURG AIRPORT, IN US</displayName>
    <minDate>1893-01-01</minDate>
    <maxDate>1957-09-30</maxDate>
    <latitude>38.26667</latitude>
    <longitude>-86.95</longitude>
    <elevation>159.1</elevation>
    <locationLabels>
      <type>CNTRY</type>
      <id>FIPS:US</id>
      <displayName>United States</displayName>
    </locationLabels>
    <coverage>0.7634</coverage>
  </station>
  <station>
    <id>GHCND:CA001103635</id>
    <displayName>HUNTINGDON METER STATION, WA US</displayName>
    <minDate>1961-03-01</minDate>
    <maxDate>1968-08-30</maxDate>
    <latitude>49</latitude>
    <longitude>-122.22</longitude>
    <elevation>8</elevation>
    <locationLabels>
      <type>CNTRY</type>
      <id>FIPS:US</id>
      <displayName>United States</displayName>
    </locationLabels>
    <coverage>0.9474</coverage>
  </station>
  <station>
    <id>GHCND:USC00404412</id>
    <displayName>HUNTINGDON WATER PLA, TN US</displayName>
    <minDate>1949-01-01</minDate>
    <maxDate>1962-03-31</maxDate>
    <latitude>36.0027</latitude>
    <longitude>-88.4252</longitude>
    <elevation>134.1</elevation>
    <locationLabels>
      <type>CNTRY</type>
      <id>FIPS:US</id>
      <displayName>United States</displayName>
    </locationLabels>
    <coverage>0.993</coverage>
  </station>
  <station>
    <id>GHCND:USC00404417</id>
    <displayName>HUNTINGDON WATER PLA, TN US</displayName>
    <minDate>1962-06-01</minDate>
    <maxDate>2013-01-16</maxDate>
    <latitude>36.0027</latitude>
    <longitude>-88.4252</longitude>
    <elevation>134.1</elevation>
    <locationLabels>
      <type>CNTRY</type>
      <id>FIPS:US</id>
      <displayName>United States</displayName>
    </locationLabels>
    <coverage>0.9905</coverage>
  </station>
  <station>
    <id>GHCND:USC00364159</id>
    <displayName>HUNTINGDON, PA US</displayName>
    <minDate>1894-01-01</minDate>
    <maxDate>2012-06-30</maxDate>
    <latitude>40.5153</latitude>
    <longitude>-78.0025</longitude>
    <elevation>208.8</elevation>
    <locationLabels>
      <type>CNTRY</type>
      <id>FIPS:US</id>
      <displayName>United States</displayName>
    </locationLabels>
    <coverage>0.6878</coverage>
  </station>
  <station>
    <id>GHCND:USC00404432</id>
    <displayName>HUNTINGDON, TN US</displayName>
    <minDate>1917-08-08</minDate>
    <maxDate>1922-12-31</maxDate>
    <latitude>35.966667</latitude>
    <longitude>-88.433333</longitude>
    <elevation>129.2</elevation>
    <locationLabels>
      <type>CNTRY</type>
      <id>FIPS:US</id>
      <displayName>United States</displayName>
    </locationLabels>
    <coverage>0.9914</coverage>
  </station>
  <station>
    <id>GHCND:US1INHT0001</id>
    <displayName>HUNTINGTON 0.3 W, IN US</displayName>
    <minDate>2006-05-12</minDate>
    <maxDate>2013-01-16</maxDate>
    <latitude>40.8802</latitude>
    <longitude>-85.5112</longitude>
    <elevation>241.1</elevation>
    <locationLabels>
      <type>CNTRY</type>
      <id>FIPS:US</id>
      <displayName>United States</displayName>
    </locationLabels>
    <coverage>0.9943</coverage>
  </station>
  <station>
    <id>GHCND:US1WVCB0008</id>
    <displayName>HUNTINGTON 0.6 WSW, WV US</displayName>
    <minDate>2010-03-23</minDate>
    <maxDate>2013-01-16</maxDate>
    <latitude>38.4082</latitude>
    <longitude>-82.4443</longitude>
    <elevation>173.4</elevation>
    <locationLabels>
      <type>CNTRY</type>
      <id>FIPS:US</id>
      <displayName>United States</displayName>
    </locationLabels>
    <coverage>0.9185</coverage>
  </station>
  <station>
    <id>GHCND:US1VTCH0015</id>
    <displayName>HUNTINGTON 0.7 NNE, VT US</displayName>
    <minDate>2010-08-22</minDate>
    <maxDate>2013-01-16</maxDate>
    <latitude>44.3358</latitude>
    <longitude>-72.9842</longitude>
    <elevation>216.7</elevation>
    <locationLabels>
      <type>CNTRY</type>
      <id>FIPS:US</id>
      <displayName>United States</displayName>
    </locationLabels>
    <coverage>0.9124</coverage>
  </station>
  <station>
    <id>GHCND:USC00464378</id>
    <displayName>HUNTINGTON 1, WV US</displayName>
    <minDate>1891-12-03</minDate>
    <maxDate>1957-09-30</maxDate>
    <latitude>38.41667</latitude>
    <longitude>-82.36667</longitude>
    <elevation>207</elevation>
    <locationLabels>
      <type>CNTRY</type>
      <id>FIPS:US</id>
      <displayName>United States</displayName>
    </locationLabels>
    <coverage>0.9223</coverage>
  </station>
  <station>
    <id>GHCND:US1WVCB0011</id>
    <displayName>HUNTINGTON 1.0 S, WV US</displayName>
    <minDate>2010-04-18</minDate>
    <maxDate>2013-01-11</maxDate>
    <latitude>38.398</latitude>
    <longitude>-82.434</longitude>
    <elevation>267.6</elevation>
    <locationLabels>
      <type>CNTRY</type>
      <id>FIPS:US</id>
      <displayName>United States</displayName>
    </locationLabels>
    <coverage>0.658</coverage>
  </station>
  <station>
    <id>GHCND:US1VTCH0007</id>
    <displayName>HUNTINGTON 1.1 E, VT US</displayName>
    <minDate>2009-04-04</minDate>
    <maxDate>2012-12-30</maxDate>
    <latitude>44.3249</latitude>
    <longitude>-72.9657</longitude>
    <elevation>302.1</elevation>
    <locationLabels>
      <type>CNTRY</type>
      <id>FIPS:US</id>
      <displayName>United States</displayName>
    </locationLabels>
    <coverage>0.1624</coverage>
  </station>
  <station>
    <id>GHCND:US1INHT0002</id>
    <displayName>HUNTINGTON 1.4 NNE, IN US</displayName>
    <minDate>2006-09-17</minDate>
    <maxDate>2009-11-25</maxDate>
    <latitude>40.9009</latitude>
    <longitude>-85.4985</longitude>
    <elevation>242.9</elevation>
    <locationLabels>
      <type>CNTRY</type>
      <id>FIPS:US</id>
      <displayName>United States</displayName>
    </locationLabels>
    <coverage>0.9511</coverage>
  </station>
  <station>
    <id>GHCND:US1VTCH0012</id>
    <displayName>HUNTINGTON 1.6 SW, VT US</displayName>
    <minDate>2009-08-12</minDate>
    <maxDate>2012-12-05</maxDate>
    <latitude>44.3065</latitude>
    <longitude>-73.0052</longitude>
    <elevation>229.2</elevation>
    <locationLabels>
      <type>CNTRY</type>
      <id>FIPS:US</id>
      <displayName>United States</displayName>
    </locationLabels>
    <coverage>0.1403</coverage>
  </station>
  <station>
    <id>GHCND:USC00464383</id>
    <displayName>HUNTINGTON 2, WV US</displayName>
    <minDate>1943-05-01</minDate>
    <maxDate>1951-06-10</maxDate>
    <latitude>38.41667</latitude>
    <longitude>-82.43333</longitude>
    <elevation>182.9</elevation>
    <locationLabels>
      <type>CNTRY</type>
      <id>FIPS:US</id>
      <displayName>United States</displayName>
    </locationLabels>
    <coverage>0.9426</coverage>
  </station>
  <station>
    <id>GHCND:US1WVCB0002</id>
    <displayName>HUNTINGTON 2.9 E, WV US</displayName>
    <minDate>2009-05-17</minDate>
    <maxDate>2013-01-16</maxDate>
    <latitude>38.406</latitude>
    <longitude>-82.3813</longitude>
    <elevation>178.6</elevation>
    <locationLabels>
      <type>CNTRY</type>
      <id>FIPS:US</id>
      <displayName>United States</displayName>
    </locationLabels>
    <coverage>0.9903</coverage>
  </station>
  <station>
    <id>GHCND:US1WVCB0006</id>
    <displayName>HUNTINGTON 7.7 E, WV US</displayName>
    <minDate>2010-03-22</minDate>
    <maxDate>2010-12-02</maxDate>
    <latitude>38.4347</latitude>
    <longitude>-82.2939</longitude>
    <elevation>177.1</elevation>
    <locationLabels>
      <type>CNTRY</type>
      <id>FIPS:US</id>
      <displayName>United States</displayName>
    </locationLabels>
    <coverage>0.918</coverage>
  </station>
  <station>
    <id>GHCND:USC00434052</id>
    <displayName>HUNTINGTON CENTER, VT US</displayName>
    <minDate>1955-11-01</minDate>
    <maxDate>1995-03-30</maxDate>
    <latitude>44.31667</latitude>
    <longitude>-73</longitude>
    <elevation>222.5</elevation>
    <locationLabels>
      <type>CNTRY</type>
      <id>FIPS:US</id>
      <displayName>United States</displayName>
    </locationLabels>
    <coverage>0.9489</coverage>
  </station>
  <station>
    <id>GHCND:USC00424125</id>
    <displayName>HUNTINGTON FARM UP AND L, UT US</displayName>
    <minDate>1980-06-01</minDate>
    <maxDate>1983-12-31</maxDate>
    <latitude>39.36667</latitude>
    <longitude>-111.06667</longitude>
    <elevation>1899.5</elevation>
    <locationLabels>
      <type>CNTRY</type>
      <id>FIPS:US</id>
      <displayName>United States</displayName>
    </locationLabels>
    <coverage>0.8495</coverage>
  </station>
  <station>
    <id>GHCND:USC00464388</id>
    <displayName>HUNTINGTON FEDERAL B, WV US</displayName>
    <minDate>1949-04-02</minDate>
    <maxDate>1967-02-15</maxDate>
    <latitude>38.41667</latitude>
    <longitude>-82.45</longitude>
    <elevation>172.2</elevation>
    <locationLabels>
      <type>CNTRY</type>
      <id>FIPS:US</id>
      <displayName>United States</displayName>
    </locationLabels>
    <coverage>0.9591</coverage>
  </station>
  <station>
    <id>GHCND:USC00044176</id>
    <displayName>HUNTINGTON LAKE, CA US</displayName>
    <minDate>1915-06-01</minDate>
    <maxDate>2013-01-16</maxDate>
    <latitude>37.2275</latitude>
    <longitude>-119.22056</longitude>
    <elevation>2139.7</elevation>
    <locationLabels>
      <type>CNTRY</type>
      <id>FIPS:US</id>
      <displayName>United States</displayName>
    </locationLabels>
    <coverage>0.9497</coverage>
  </station>
  <station>
    <id>GHCND:USC00464397</id>
    <displayName>HUNTINGTON SEWAGE PLANT, WV US</displayName>
    <minDate>1967-07-01</minDate>
    <maxDate>2013-01-16</maxDate>
    <latitude>38.4014</latitude>
    <longitude>-82.5266</longitude>
    <elevation>158.5</elevation>
    <locationLabels>
      <type>CNTRY</type>
      <id>FIPS:US</id>
      <displayName>United States</displayName>
    </locationLabels>
    <coverage>0.8539</coverage>
  </station>
  <station>
    <id>GHCND:USW00003860</id>
    <displayName>HUNTINGTON TRI STATE AIRPORT, WV US</displayName>
    <minDate>1961-01-04</minDate>
    <maxDate>2013-01-15</maxDate>
    <latitude>38.365</latitude>
    <longitude>-82.555</longitude>
    <elevation>251.2</elevation>
    <locationLabels>
      <type>CNTRY</type>
      <id>FIPS:US</id>
      <displayName>United States</displayName>
    </locationLabels>
    <coverage>0.9995</coverage>
  </station>
  <station>
    <id>GHCND:USC00124181</id>
    <displayName>HUNTINGTON, IN US</displayName>
    <minDate>1948-07-01</minDate>
    <maxDate>2013-01-16</maxDate>
    <latitude>40.8555</latitude>
    <longitude>-85.498</longitude>
    <elevation>221</elevation>
    <locationLabels>
      <type>CNTRY</type>
      <id>FIPS:US</id>
      <displayName>United States</displayName>
    </locationLabels>
    <coverage>0.5534</coverage>
  </station>
  <station>
    <id>GHCND:USC00124176</id>
    <displayName>HUNTINGTON, IN US</displayName>
    <minDate>1893-11-01</minDate>
    <maxDate>1979-04-30</maxDate>
    <latitude>40.88333</latitude>
    <longitude>-85.5</longitude>
    <elevation>244.1</elevation>
    <locationLabels>
      <type>CNTRY</type>
      <id>FIPS:US</id>
      <displayName>United States</displayName>
    </locationLabels>
    <coverage>0.9811</coverage>
  </station>
  <station>
    <id>GHCND:USC00333908</id>
    <displayName>HUNTINGTON, OH US</displayName>
    <minDate>1975-05-01</minDate>
    <maxDate>1978-11-30</maxDate>
    <latitude>41.11667</latitude>
    <longitude>-82.23333</longitude>
    <elevation>292.9</elevation>
    <locationLabels>
      <type>CNTRY</type>
      <id>FIPS:US</id>
      <displayName>United States</displayName>
    </locationLabels>
    <coverage>0.5649</coverage>
  </station>
  <station>
    <id>GHCND:USC00354098</id>
    <displayName>HUNTINGTON, OR US</displayName>
    <minDate>1901-02-01</minDate>
    <maxDate>2012-11-30</maxDate>
    <latitude>44.3564</latitude>
    <longitude>-117.2549</longitude>
    <elevation>643.1</elevation>
    <locationLabels>
      <type>CNTRY</type>
      <id>FIPS:US</id>
      <displayName>United States</displayName>
    </locationLabels>
    <coverage>0.8824</coverage>
  </station>
  <station>
    <id>GHCND:US1MDCV0015</id>
    <displayName>HUNTINGTOWN 1.0 N, MD US</displayName>
    <minDate>2010-03-01</minDate>
    <maxDate>2011-08-28</maxDate>
    <latitude>38.6305</latitude>
    <longitude>-76.6127</longitude>
    <elevation>37.8</elevation>
    <locationLabels>
      <type>CNTRY</type>
      <id>FIPS:US</id>
      <displayName>United States</displayName>
    </locationLabels>
    <coverage>0.7729</coverage>
  </station>
  <station>
    <id>GHCND:USC00184485</id>
    <displayName>HUNTINGTOWN, MD US</displayName>
    <minDate>1936-07-01</minDate>
    <maxDate>1953-01-31</maxDate>
    <latitude>38.61667</latitude>
    <longitude>-76.61667</longitude>
    <elevation>49.1</elevation>
    <locationLabels>
      <type>CNTRY</type>
      <id>FIPS:US</id>
      <displayName>United States</displayName>
    </locationLabels>
    <coverage>0.9889</coverage>
  </station>
  <station>
    <id>GHCND:US1TNFK0002</id>
    <displayName>HUNTLAND 0.6 ESE, TN US</displayName>
    <minDate>2007-05-12</minDate>
    <maxDate>2009-04-09</maxDate>
    <latitude>35.0517</latitude>
    <longitude>-86.2601</longitude>
    <elevation>281.9</elevation>
    <locationLabels>
      <type>CNTRY</type>
      <id>FIPS:US</id>
      <displayName>United States</displayName>
    </locationLabels>
    <coverage>0.834</coverage>
  </station>
  <station>
    <id>GHCND:US1TNFK0008</id>
    <displayName>HUNTLAND 0.9 NNW, TN US</displayName>
    <minDate>2007-08-25</minDate>
    <maxDate>2013-01-17</maxDate>
    <latitude>35.0681</latitude>
    <longitude>-86.2745</longitude>
    <elevation>281.9</elevation>
    <locationLabels>
      <type>CNTRY</type>
      <id>FIPS:US</id>
      <displayName>United States</displayName>
    </locationLabels>
    <coverage>0.9802</coverage>
  </station>
  <station>
    <id>GHCND:US1ILMCH024</id>
    <displayName>HUNTLEY 4.3 W, IL US</displayName>
    <minDate>2007-07-17</minDate>
    <maxDate>2013-01-16</maxDate>
    <latitude>42.1788</latitude>
    <longitude>-88.5061</longitude>
    <elevation>276.1</elevation>
    <locationLabels>
      <type>CNTRY</type>
      <id>FIPS:US</id>
      <displayName>United States</displayName>
    </locationLabels>
    <coverage>0.9453</coverage>
  </station>
  <station>
    <id>GHCND:USC00244345</id>
    <displayName>HUNTLEY EXPERIMENTAL STATION, MT US</displayName>
    <minDate>1911-01-01</minDate>
    <maxDate>2013-01-16</maxDate>
    <latitude>45.9227</latitude>
    <longitude>-108.2444</longitude>
    <elevation>924.8</elevation>
    <locationLabels>
      <type>CNTRY</type>
      <id>FIPS:US</id>
      <displayName>United States</displayName>
    </locationLabels>
    <coverage>0.978</coverage>
  </station>
  <station>
    <id>GHCND:USC00244343</id>
    <displayName>HUNTLEY, MT US</displayName>
    <minDate>1906-04-19</minDate>
    <maxDate>1918-11-30</maxDate>
    <latitude>45.9</latitude>
    <longitude>-109.316667</longitude>
    <elevation>925.7</elevation>
    <locationLabels>
      <type>CNTRY</type>
      <id>FIPS:US</id>
      <displayName>United States</displayName>
    </locationLabels>
    <coverage>0.9885</coverage>
  </station>
  <station>
    <id>GHCND:USC00384296</id>
    <displayName>HUNTS BRIDGE, SC US</displayName>
    <minDate>2010-05-01</minDate>
    <maxDate>2013-01-16</maxDate>
    <latitude>34.928</latitude>
    <longitude>-82.478</longitude>
    <elevation>313</elevation>
    <locationLabels>
      <type>CNTRY</type>
      <id>FIPS:US</id>
      <displayName>United States</displayName>
    </locationLabels>
    <coverage>0.9859</coverage>
  </station>
  <station>
    <id>GHCND:USC00304070</id>
    <displayName>HUNTS CORNERS, NY US</displayName>
    <minDate>1948-05-01</minDate>
    <maxDate>1951-09-30</maxDate>
    <latitude>42.4271</latitude>
    <longitude>-76.1254</longitude>
    <elevation>424.9</elevation>
    <locationLabels>
      <type>CNTRY</type>
      <id>FIPS:US</id>
      <displayName>United States</displayName>
    </locationLabels>
    <coverage>0.9038</coverage>
  </station>
  <station>
    <id>GHCND:USC00364166</id>
    <displayName>HUNTSDALE, PA US</displayName>
    <minDate>1941-01-01</minDate>
    <maxDate>1986-04-30</maxDate>
    <latitude>40.1</latitude>
    <longitude>-77.3</longitude>
    <elevation>189</elevation>
    <locationLabels>
      <type>CNTRY</type>
      <id>FIPS:US</id>
      <displayName>United States</displayName>
    </locationLabels>
    <coverage>0.9884</coverage>
  </station>
  <station>
    <id>GHCND:USR0000CHUM</id>
    <displayName>HUNTSMAN MESA COLORADO, CO US</displayName>
    <minDate>1991-05-28</minDate>
    <maxDate>2012-08-31</maxDate>
    <latitude>38.3319</latitude>
    <longitude>-107.0889</longitude>
    <elevation>2865.1</elevation>
    <locationLabels>
      <type>CNTRY</type>
      <id>FIPS:US</id>
      <displayName>United States</displayName>
    </locationLabels>
    <coverage>0.9556</coverage>
  </station>
  <station>
    <id>GHCND:US1MORN0001</id>
    <displayName>HUNTSVILLE 0.2 NNW, MO US</displayName>
    <minDate>2006-06-28</minDate>
    <maxDate>2007-09-26</maxDate>
    <latitude>39.4406</latitude>
    <longitude>-92.545</longitude>
    <elevation>239.9</elevation>
    <locationLabels>
      <type>CNTRY</type>
      <id>FIPS:US</id>
      <displayName>United States</displayName>
    </locationLabels>
    <coverage>0.7654</coverage>
  </station>
</stationCollection>
