<?xml version="1.0" encoding="UTF-8" standalone="yes"?>
<stationCollection totalCount="46020" pageCount="461" pageSize="100" page="436">
  <station>
    <id>GHCND:US1MIMB0015</id>
    <displayName>WASHINGTON 0.2 NW, MI US</displayName>
    <minDate>2009-03-28</minDate>
    <maxDate>2010-12-04</maxDate>
    <latitude>42.7257</latitude>
    <longitude>-83.0397</longitude>
    <elevation>214.9</elevation>
    <locationLabels>
      <type>CNTRY</type>
      <id>FIPS:US</id>
      <displayName>United States</displayName>
    </locationLabels>
    <coverage>0.3955</coverage>
  </station>
  <station>
    <id>GHCND:US1KSWS0009</id>
    <displayName>WASHINGTON 0.3 NE, KS US</displayName>
    <minDate>2008-05-31</minDate>
    <maxDate>2010-06-21</maxDate>
    <latitude>39.8196</latitude>
    <longitude>-97.0487</longitude>
    <elevation>398.4</elevation>
    <locationLabels>
      <type>CNTRY</type>
      <id>FIPS:US</id>
      <displayName>United States</displayName>
    </locationLabels>
    <coverage>0.5505</coverage>
  </station>
  <station>
    <id>GHCND:US1VTOG0002</id>
    <displayName>WASHINGTON 0.4 WSW, VT US</displayName>
    <minDate>2009-04-13</minDate>
    <maxDate>2010-06-10</maxDate>
    <latitude>44.1046</latitude>
    <longitude>-72.44</longitude>
    <elevation>413.9</elevation>
    <locationLabels>
      <type>CNTRY</type>
      <id>FIPS:US</id>
      <displayName>United States</displayName>
    </locationLabels>
    <coverage>0.3467</coverage>
  </station>
  <station>
    <id>GHCND:US1INDV0008</id>
    <displayName>WASHINGTON 0.5 E, IN US</displayName>
    <minDate>2006-05-25</minDate>
    <maxDate>2006-09-20</maxDate>
    <latitude>38.6588</latitude>
    <longitude>-87.1634</longitude>
    <elevation>166.1</elevation>
    <locationLabels>
      <type>CNTRY</type>
      <id>FIPS:US</id>
      <displayName>United States</displayName>
    </locationLabels>
    <coverage>0.9244</coverage>
  </station>
  <station>
    <id>GHCND:US1NJWR0021</id>
    <displayName>WASHINGTON 0.6 ENE, NJ US</displayName>
    <minDate>2009-12-04</minDate>
    <maxDate>2013-01-16</maxDate>
    <latitude>40.7623</latitude>
    <longitude>-74.9719</longitude>
    <elevation>143.9</elevation>
    <locationLabels>
      <type>CNTRY</type>
      <id>FIPS:US</id>
      <displayName>United States</displayName>
    </locationLabels>
    <coverage>0.9491</coverage>
  </station>
  <station>
    <id>GHCND:USC00129253</id>
    <displayName>WASHINGTON 1 W, IN US</displayName>
    <minDate>1896-06-01</minDate>
    <maxDate>2013-01-15</maxDate>
    <latitude>38.6489</latitude>
    <longitude>-87.1989</longitude>
    <elevation>152.4</elevation>
    <locationLabels>
      <type>CNTRY</type>
      <id>FIPS:US</id>
      <displayName>United States</displayName>
    </locationLabels>
    <coverage>0.9764</coverage>
  </station>
  <station>
    <id>GHCND:US1INDV0004</id>
    <displayName>WASHINGTON 1.0 ENE, IN US</displayName>
    <minDate>2006-05-24</minDate>
    <maxDate>2007-12-14</maxDate>
    <latitude>38.6629</latitude>
    <longitude>-87.1548</longitude>
    <elevation>175</elevation>
    <locationLabels>
      <type>CNTRY</type>
      <id>FIPS:US</id>
      <displayName>United States</displayName>
    </locationLabels>
    <coverage>0.6123</coverage>
  </station>
  <station>
    <id>GHCND:US1DCDC0007</id>
    <displayName>WASHINGTON 1.2 SE, DC US</displayName>
    <minDate>2007-03-05</minDate>
    <maxDate>2007-09-17</maxDate>
    <latitude>38.8943</latitude>
    <longitude>-76.9982</longitude>
    <elevation>25</elevation>
    <locationLabels>
      <type>CNTRY</type>
      <id>FIPS:US</id>
      <displayName>United States</displayName>
    </locationLabels>
    <coverage>0.7259</coverage>
  </station>
  <station>
    <id>GHCND:US1MOFR0018</id>
    <displayName>WASHINGTON 1.4 NW, MO US</displayName>
    <minDate>2011-03-14</minDate>
    <maxDate>2013-01-16</maxDate>
    <latitude>38.5685</latitude>
    <longitude>-91.0281</longitude>
    <elevation>164.3</elevation>
    <locationLabels>
      <type>CNTRY</type>
      <id>FIPS:US</id>
      <displayName>United States</displayName>
    </locationLabels>
    <coverage>0.963</coverage>
  </station>
  <station>
    <id>GHCND:US1INDV0001</id>
    <displayName>WASHINGTON 1.5 NW, IN US</displayName>
    <minDate>2006-03-09</minDate>
    <maxDate>2013-01-16</maxDate>
    <latitude>38.6754</latitude>
    <longitude>-87.19</longitude>
    <elevation>145.1</elevation>
    <locationLabels>
      <type>CNTRY</type>
      <id>FIPS:US</id>
      <displayName>United States</displayName>
    </locationLabels>
    <coverage>0.9916</coverage>
  </station>
  <station>
    <id>GHCND:US1MOFR0008</id>
    <displayName>WASHINGTON 1.6 SE, MO US</displayName>
    <minDate>2009-02-10</minDate>
    <maxDate>2013-01-16</maxDate>
    <latitude>38.5361</latitude>
    <longitude>-90.9926</longitude>
    <elevation>166.4</elevation>
    <locationLabels>
      <type>CNTRY</type>
      <id>FIPS:US</id>
      <displayName>United States</displayName>
    </locationLabels>
    <coverage>0.858</coverage>
  </station>
  <station>
    <id>GHCND:US1GAWS0003</id>
    <displayName>WASHINGTON 1.9 NE, GA US</displayName>
    <minDate>2009-11-16</minDate>
    <maxDate>2012-07-06</maxDate>
    <latitude>33.7533</latitude>
    <longitude>-82.7181</longitude>
    <elevation>176.5</elevation>
    <locationLabels>
      <type>CNTRY</type>
      <id>FIPS:US</id>
      <displayName>United States</displayName>
    </locationLabels>
    <coverage>0.1795</coverage>
  </station>
  <station>
    <id>GHCND:US1DCDC0015</id>
    <displayName>WASHINGTON 1.9 WNW, DC US</displayName>
    <minDate>2011-09-23</minDate>
    <maxDate>2013-01-13</maxDate>
    <latitude>38.9203</latitude>
    <longitude>-77.0456</longitude>
    <elevation>50.6</elevation>
    <locationLabels>
      <type>CNTRY</type>
      <id>FIPS:US</id>
      <displayName>United States</displayName>
    </locationLabels>
    <coverage>0.5866</coverage>
  </station>
  <station>
    <id>GHCND:US1NCBF0004</id>
    <displayName>WASHINGTON 10.5 ESE, NC US</displayName>
    <minDate>2010-12-30</minDate>
    <maxDate>2013-01-16</maxDate>
    <latitude>35.4776</latitude>
    <longitude>-76.8908</longitude>
    <elevation>5.2</elevation>
    <locationLabels>
      <type>CNTRY</type>
      <id>FIPS:US</id>
      <displayName>United States</displayName>
    </locationLabels>
    <coverage>0.6876</coverage>
  </station>
  <station>
    <id>GHCND:USC00118990</id>
    <displayName>WASHINGTON 2 W, IL US</displayName>
    <minDate>1948-07-01</minDate>
    <maxDate>2008-06-25</maxDate>
    <latitude>40.6994</latitude>
    <longitude>-89.4477</longitude>
    <elevation>230.1</elevation>
    <locationLabels>
      <type>CNTRY</type>
      <id>FIPS:US</id>
      <displayName>United States</displayName>
    </locationLabels>
    <coverage>0.159</coverage>
  </station>
  <station>
    <id>GHCND:USC00198843</id>
    <displayName>WASHINGTON 2, MA US</displayName>
    <minDate>1951-06-01</minDate>
    <maxDate>1973-06-30</maxDate>
    <latitude>42.36667</latitude>
    <longitude>-73.15</longitude>
    <elevation>598</elevation>
    <locationLabels>
      <type>CNTRY</type>
      <id>FIPS:US</id>
      <displayName>United States</displayName>
    </locationLabels>
    <coverage>0.8139</coverage>
  </station>
  <station>
    <id>GHCND:US1DCDC0006</id>
    <displayName>WASHINGTON 2.0 ESE, DC US</displayName>
    <minDate>2007-03-01</minDate>
    <maxDate>2007-12-31</maxDate>
    <latitude>38.8928</latitude>
    <longitude>-76.9834</longitude>
    <elevation>21.9</elevation>
    <locationLabels>
      <type>CNTRY</type>
      <id>FIPS:US</id>
      <displayName>United States</displayName>
    </locationLabels>
    <coverage>0.7092</coverage>
  </station>
  <station>
    <id>GHCND:US1DCDC0008</id>
    <displayName>WASHINGTON 2.0 ESE, DC US</displayName>
    <minDate>2007-08-21</minDate>
    <maxDate>2008-10-01</maxDate>
    <latitude>38.8901</latitude>
    <longitude>-76.9854</longitude>
    <elevation>27.1</elevation>
    <locationLabels>
      <type>CNTRY</type>
      <id>FIPS:US</id>
      <displayName>United States</displayName>
    </locationLabels>
    <coverage>0.4216</coverage>
  </station>
  <station>
    <id>GHCND:US1DCDC0009</id>
    <displayName>WASHINGTON 2.0 SSW, DC US</displayName>
    <minDate>2008-01-14</minDate>
    <maxDate>2011-06-22</maxDate>
    <latitude>38.8775</latitude>
    <longitude>-77.024</longitude>
    <elevation>3</elevation>
    <locationLabels>
      <type>CNTRY</type>
      <id>FIPS:US</id>
      <displayName>United States</displayName>
    </locationLabels>
    <coverage>0.199</coverage>
  </station>
  <station>
    <id>GHCND:US1TXWA0007</id>
    <displayName>WASHINGTON 2.0 WSW, TX US</displayName>
    <minDate>2008-03-03</minDate>
    <maxDate>2013-01-16</maxDate>
    <latitude>30.3118</latitude>
    <longitude>-96.1864</longitude>
    <elevation>89.9</elevation>
    <locationLabels>
      <type>CNTRY</type>
      <id>FIPS:US</id>
      <displayName>United States</displayName>
    </locationLabels>
    <coverage>0.9837</coverage>
  </station>
  <station>
    <id>GHCND:US1INDV0006</id>
    <displayName>WASHINGTON 2.6 SSW, IN US</displayName>
    <minDate>2006-05-25</minDate>
    <maxDate>2012-08-14</maxDate>
    <latitude>38.6217</latitude>
    <longitude>-87.1829</longitude>
    <elevation>143</elevation>
    <locationLabels>
      <type>CNTRY</type>
      <id>FIPS:US</id>
      <displayName>United States</displayName>
    </locationLabels>
    <coverage>0.8298</coverage>
  </station>
  <station>
    <id>GHCND:US1MOFR0010</id>
    <displayName>WASHINGTON 2.7 ESE, MO US</displayName>
    <minDate>2009-02-11</minDate>
    <maxDate>2013-01-16</maxDate>
    <latitude>38.5386</latitude>
    <longitude>-90.9669</longitude>
    <elevation>161.2</elevation>
    <locationLabels>
      <type>CNTRY</type>
      <id>FIPS:US</id>
      <displayName>United States</displayName>
    </locationLabels>
    <coverage>0.8496</coverage>
  </station>
  <station>
    <id>GHCND:USC00369318</id>
    <displayName>WASHINGTON 3 NE, PA US</displayName>
    <minDate>1975-04-01</minDate>
    <maxDate>2013-01-16</maxDate>
    <latitude>40.1789</latitude>
    <longitude>-80.1889</longitude>
    <elevation>396.2</elevation>
    <locationLabels>
      <type>CNTRY</type>
      <id>FIPS:US</id>
      <displayName>United States</displayName>
    </locationLabels>
    <coverage>0.8601</coverage>
  </station>
  <station>
    <id>GHCND:USC00448902</id>
    <displayName>WASHINGTON 3 SSW, VA US</displayName>
    <minDate>1944-11-01</minDate>
    <maxDate>1995-01-15</maxDate>
    <latitude>38.66667</latitude>
    <longitude>-78.18333</longitude>
    <elevation>195.1</elevation>
    <locationLabels>
      <type>CNTRY</type>
      <id>FIPS:US</id>
      <displayName>United States</displayName>
    </locationLabels>
    <coverage>0.7013</coverage>
  </station>
  <station>
    <id>GHCND:US1DCDC0001</id>
    <displayName>WASHINGTON 3.0 ENE, DC US</displayName>
    <minDate>2006-05-01</minDate>
    <maxDate>2006-08-31</maxDate>
    <latitude>38.9171</latitude>
    <longitude>-76.9626</longitude>
    <elevation>17.1</elevation>
    <locationLabels>
      <type>CNTRY</type>
      <id>FIPS:US</id>
      <displayName>United States</displayName>
    </locationLabels>
    <coverage>0.9919</coverage>
  </station>
  <station>
    <id>GHCND:US1TXWA0012</id>
    <displayName>WASHINGTON 3.1 SSW, TX US</displayName>
    <minDate>2011-10-20</minDate>
    <maxDate>2013-01-16</maxDate>
    <latitude>30.2821</latitude>
    <longitude>-96.171</longitude>
    <elevation>82.9</elevation>
    <locationLabels>
      <type>CNTRY</type>
      <id>FIPS:US</id>
      <displayName>United States</displayName>
    </locationLabels>
    <coverage>0.9209</coverage>
  </station>
  <station>
    <id>GHCND:US1VARP0004</id>
    <displayName>WASHINGTON 3.2 W, VA US</displayName>
    <minDate>2009-02-06</minDate>
    <maxDate>2012-12-27</maxDate>
    <latitude>38.7086</latitude>
    <longitude>-78.2196</longitude>
    <elevation>263</elevation>
    <locationLabels>
      <type>CNTRY</type>
      <id>FIPS:US</id>
      <displayName>United States</displayName>
    </locationLabels>
    <coverage>0.9726</coverage>
  </station>
  <station>
    <id>GHCND:US1INDV0017</id>
    <displayName>WASHINGTON 3.3 SE, IN US</displayName>
    <minDate>2011-09-16</minDate>
    <maxDate>2013-01-16</maxDate>
    <latitude>38.6205</latitude>
    <longitude>-87.1359</longitude>
    <elevation>149</elevation>
    <locationLabels>
      <type>CNTRY</type>
      <id>FIPS:US</id>
      <displayName>United States</displayName>
    </locationLabels>
    <coverage>0.953</coverage>
  </station>
  <station>
    <id>GHCND:US1OHFY0003</id>
    <displayName>WASHINGTON 3.4 W, OH US</displayName>
    <minDate>2011-02-28</minDate>
    <maxDate>2013-01-16</maxDate>
    <latitude>39.5348</latitude>
    <longitude>-83.4942</longitude>
    <elevation>314.2</elevation>
    <locationLabels>
      <type>CNTRY</type>
      <id>FIPS:US</id>
      <displayName>United States</displayName>
    </locationLabels>
    <coverage>0.6357</coverage>
  </station>
  <station>
    <id>GHCND:US1DCDC0002</id>
    <displayName>WASHINGTON 3.7 NNW, DC US</displayName>
    <minDate>2006-05-01</minDate>
    <maxDate>2007-03-17</maxDate>
    <latitude>38.9574</latitude>
    <longitude>-77.0337</longitude>
    <elevation>85</elevation>
    <locationLabels>
      <type>CNTRY</type>
      <id>FIPS:US</id>
      <displayName>United States</displayName>
    </locationLabels>
    <coverage>0.3333</coverage>
  </station>
  <station>
    <id>GHCND:US1MOFR0015</id>
    <displayName>WASHINGTON 4.0 S, MO US</displayName>
    <minDate>2010-09-16</minDate>
    <maxDate>2013-01-16</maxDate>
    <latitude>38.4956</latitude>
    <longitude>-90.9988</longitude>
    <elevation>199.9</elevation>
    <locationLabels>
      <type>CNTRY</type>
      <id>FIPS:US</id>
      <displayName>United States</displayName>
    </locationLabels>
    <coverage>0.945</coverage>
  </station>
  <station>
    <id>GHCND:US1DCDC0011</id>
    <displayName>WASHINGTON 4.0 WNW, DC US</displayName>
    <minDate>2008-10-09</minDate>
    <maxDate>2010-10-22</maxDate>
    <latitude>38.9303</latitude>
    <longitude>-77.0831</longitude>
    <elevation>81.4</elevation>
    <locationLabels>
      <type>CNTRY</type>
      <id>FIPS:US</id>
      <displayName>United States</displayName>
    </locationLabels>
    <coverage>0.1613</coverage>
  </station>
  <station>
    <id>GHCND:US1GAWS0001</id>
    <displayName>WASHINGTON 4.8 ESE, GA US</displayName>
    <minDate>2008-09-14</minDate>
    <maxDate>2013-01-16</maxDate>
    <latitude>33.6994</latitude>
    <longitude>-82.6717</longitude>
    <elevation>167</elevation>
    <locationLabels>
      <type>CNTRY</type>
      <id>FIPS:US</id>
      <displayName>United States</displayName>
    </locationLabels>
    <coverage>0.7219</coverage>
  </station>
  <station>
    <id>GHCND:US1DCDC0010</id>
    <displayName>WASHINGTON 5.0 N, DC US</displayName>
    <minDate>2008-07-21</minDate>
    <maxDate>2012-10-09</maxDate>
    <latitude>38.9773</latitude>
    <longitude>-77.0245</longitude>
    <elevation>88.1</elevation>
    <locationLabels>
      <type>CNTRY</type>
      <id>FIPS:US</id>
      <displayName>United States</displayName>
    </locationLabels>
    <coverage>0.1582</coverage>
  </station>
  <station>
    <id>GHCND:US1DCDC0003</id>
    <displayName>WASHINGTON 5.0 WNW, DC US</displayName>
    <minDate>2006-05-01</minDate>
    <maxDate>2006-08-31</maxDate>
    <latitude>38.9377</latitude>
    <longitude>-77.0991</longitude>
    <elevation>91.1</elevation>
    <locationLabels>
      <type>CNTRY</type>
      <id>FIPS:US</id>
      <displayName>United States</displayName>
    </locationLabels>
    <coverage>0.9024</coverage>
  </station>
  <station>
    <id>GHCND:US1DCDC0014</id>
    <displayName>WASHINGTON 5.1 NW, DC US</displayName>
    <minDate>2011-06-15</minDate>
    <maxDate>2013-01-16</maxDate>
    <latitude>38.9581</latitude>
    <longitude>-77.0817</longitude>
    <elevation>106.4</elevation>
    <locationLabels>
      <type>CNTRY</type>
      <id>FIPS:US</id>
      <displayName>United States</displayName>
    </locationLabels>
    <coverage>0.9399</coverage>
  </station>
  <station>
    <id>GHCND:US1INDV0002</id>
    <displayName>WASHINGTON 5.7 SSE, IN US</displayName>
    <minDate>2006-05-30</minDate>
    <maxDate>2008-05-27</maxDate>
    <latitude>38.5796</latitude>
    <longitude>-87.1417</longitude>
    <elevation>141.1</elevation>
    <locationLabels>
      <type>CNTRY</type>
      <id>FIPS:US</id>
      <displayName>United States</displayName>
    </locationLabels>
    <coverage>0.856</coverage>
  </station>
  <station>
    <id>GHCND:US1INDV0007</id>
    <displayName>WASHINGTON 5.8 SSE, IN US</displayName>
    <minDate>2006-05-25</minDate>
    <maxDate>2007-02-06</maxDate>
    <latitude>38.5766</latitude>
    <longitude>-87.1481</longitude>
    <elevation>139.9</elevation>
    <locationLabels>
      <type>CNTRY</type>
      <id>FIPS:US</id>
      <displayName>United States</displayName>
    </locationLabels>
    <coverage>0.9535</coverage>
  </station>
  <station>
    <id>GHCND:USC00349346</id>
    <displayName>WASHINGTON 6 SSW MESONET, OK US</displayName>
    <minDate>2009-02-01</minDate>
    <maxDate>2012-12-28</maxDate>
    <latitude>34.98194</latitude>
    <longitude>-97.52083</longitude>
    <elevation>344.7</elevation>
    <locationLabels>
      <type>CNTRY</type>
      <id>FIPS:US</id>
      <displayName>United States</displayName>
    </locationLabels>
    <coverage>0.9404</coverage>
  </station>
  <station>
    <id>GHCND:US1NCBF0005</id>
    <displayName>WASHINGTON 6.5 SE, NC US</displayName>
    <minDate>2011-03-30</minDate>
    <maxDate>2012-02-05</maxDate>
    <latitude>35.4849</latitude>
    <longitude>-76.9762</longitude>
    <elevation>0.3</elevation>
    <locationLabels>
      <type>CNTRY</type>
      <id>FIPS:US</id>
      <displayName>United States</displayName>
    </locationLabels>
    <coverage>0.5559</coverage>
  </station>
  <station>
    <id>GHCND:US1VARP0001</id>
    <displayName>WASHINGTON 6.9 SSE, VA US</displayName>
    <minDate>2006-01-15</minDate>
    <maxDate>2008-06-05</maxDate>
    <latitude>38.62</latitude>
    <longitude>-78.11</longitude>
    <elevation>274.3</elevation>
    <locationLabels>
      <type>CNTRY</type>
      <id>FIPS:US</id>
      <displayName>United States</displayName>
    </locationLabels>
    <coverage>0.2955</coverage>
  </station>
  <station>
    <id>GHCND:US1KSWS0005</id>
    <displayName>WASHINGTON 7.3 NNE, KS US</displayName>
    <minDate>2007-01-21</minDate>
    <maxDate>2013-01-16</maxDate>
    <latitude>39.9181</latitude>
    <longitude>-97.0125</longitude>
    <elevation>397.8</elevation>
    <locationLabels>
      <type>CNTRY</type>
      <id>FIPS:US</id>
      <displayName>United States</displayName>
    </locationLabels>
    <coverage>0.9639</coverage>
  </station>
  <station>
    <id>GHCND:US1NCBF0003</id>
    <displayName>WASHINGTON 7.5 SE, NC US</displayName>
    <minDate>2010-07-14</minDate>
    <maxDate>2013-01-16</maxDate>
    <latitude>35.4855</latitude>
    <longitude>-76.9489</longitude>
    <elevation>1.2</elevation>
    <locationLabels>
      <type>CNTRY</type>
      <id>FIPS:US</id>
      <displayName>United States</displayName>
    </locationLabels>
    <coverage>0.8181</coverage>
  </station>
  <station>
    <id>GHCND:US1NCBF0002</id>
    <displayName>WASHINGTON 7.6 SE, NC US</displayName>
    <minDate>2009-09-11</minDate>
    <maxDate>2013-01-16</maxDate>
    <latitude>35.483</latitude>
    <longitude>-76.949</longitude>
    <elevation>1.8</elevation>
    <locationLabels>
      <type>CNTRY</type>
      <id>FIPS:US</id>
      <displayName>United States</displayName>
    </locationLabels>
    <coverage>0.9567</coverage>
  </station>
  <station>
    <id>GHCND:USC00338794</id>
    <displayName>WASHINGTON COURT HOUSE, OH US</displayName>
    <minDate>1916-01-01</minDate>
    <maxDate>2012-11-07</maxDate>
    <latitude>39.5466</latitude>
    <longitude>-83.4154</longitude>
    <elevation>301.8</elevation>
    <locationLabels>
      <type>CNTRY</type>
      <id>FIPS:US</id>
      <displayName>United States</displayName>
    </locationLabels>
    <coverage>0.8735</coverage>
  </station>
  <station>
    <id>GHCND:USC00469309</id>
    <displayName>WASHINGTON DAM 19, OH US</displayName>
    <minDate>1916-11-13</minDate>
    <maxDate>1968-06-30</maxDate>
    <latitude>39.25</latitude>
    <longitude>-81.7</longitude>
    <elevation>182.9</elevation>
    <locationLabels>
      <type>CNTRY</type>
      <id>FIPS:US</id>
      <displayName>United States</displayName>
    </locationLabels>
    <coverage>0.9854</coverage>
  </station>
  <station>
    <id>GHCND:USW00013710</id>
    <displayName>WASHINGTON DC BOLLING FIELD AFB, DC US</displayName>
    <minDate>1947-08-20</minDate>
    <maxDate>1969-09-04</maxDate>
    <latitude>38.83333</latitude>
    <longitude>-77.01667</longitude>
    <elevation>18</elevation>
    <locationLabels>
      <type>CNTRY</type>
      <id>FIPS:US</id>
      <displayName>United States</displayName>
    </locationLabels>
    <coverage>0.4639</coverage>
  </station>
  <station>
    <id>GHCND:USW00093738</id>
    <displayName>WASHINGTON DC DULLES INTERNATIONAL AIRPORT, VA US</displayName>
    <minDate>1962-11-17</minDate>
    <maxDate>2013-01-15</maxDate>
    <latitude>38.9408</latitude>
    <longitude>-77.4636</longitude>
    <elevation>88.4</elevation>
    <locationLabels>
      <type>CNTRY</type>
      <id>FIPS:US</id>
      <displayName>United States</displayName>
    </locationLabels>
    <coverage>0.9996</coverage>
  </station>
  <station>
    <id>GHCND:USW00093725</id>
    <displayName>WASHINGTON DC WEATHER BUREAU CITY, DC US</displayName>
    <minDate>1851-03-21</minDate>
    <maxDate>1965-12-31</maxDate>
    <latitude>38.9</latitude>
    <longitude>-77.05</longitude>
    <elevation>21.9</elevation>
    <locationLabels>
      <type>CNTRY</type>
      <id>FIPS:US</id>
      <displayName>United States</displayName>
    </locationLabels>
    <coverage>0.3463</coverage>
  </station>
  <station>
    <id>GHCND:USR0000GWAS</id>
    <displayName>WASHINGTON GEORGIA, GA US</displayName>
    <minDate>2003-02-20</minDate>
    <maxDate>2012-08-31</maxDate>
    <latitude>33.7806</latitude>
    <longitude>-82.8161</longitude>
    <elevation>180.7</elevation>
    <locationLabels>
      <type>CNTRY</type>
      <id>FIPS:US</id>
      <displayName>United States</displayName>
    </locationLabels>
    <coverage>0.9207</coverage>
  </station>
  <station>
    <id>GHCND:USC00429302</id>
    <displayName>WASHINGTON GROVE, UT US</displayName>
    <minDate>1941-12-01</minDate>
    <maxDate>1942-10-31</maxDate>
    <latitude>40.75</latitude>
    <longitude>-111.71667</longitude>
    <elevation>1692.9</elevation>
    <locationLabels>
      <type>CNTRY</type>
      <id>FIPS:US</id>
      <displayName>United States</displayName>
    </locationLabels>
    <coverage>0.6507</coverage>
  </station>
  <station>
    <id>GHCND:USC00478905</id>
    <displayName>WASHINGTON ISLAND, WI US</displayName>
    <minDate>1944-10-15</minDate>
    <maxDate>2013-01-16</maxDate>
    <latitude>45.358</latitude>
    <longitude>-86.8911</longitude>
    <elevation>209.1</elevation>
    <locationLabels>
      <type>CNTRY</type>
      <id>FIPS:US</id>
      <displayName>United States</displayName>
    </locationLabels>
    <coverage>0.988</coverage>
  </station>
  <station>
    <id>GHCND:USR0000NWAS</id>
    <displayName>WASHINGTON NEVADA, NV US</displayName>
    <minDate>1994-08-08</minDate>
    <maxDate>2006-06-30</maxDate>
    <latitude>39.15</latitude>
    <longitude>-117.2583</longitude>
    <elevation>2182.4</elevation>
    <locationLabels>
      <type>CNTRY</type>
      <id>FIPS:US</id>
      <displayName>United States</displayName>
    </locationLabels>
    <coverage>0.9547</coverage>
  </station>
  <station>
    <id>GHCND:USW00013743</id>
    <displayName>WASHINGTON REAGAN NATIONAL AIRPORT, VA US</displayName>
    <minDate>1945-07-01</minDate>
    <maxDate>2013-01-15</maxDate>
    <latitude>38.8483</latitude>
    <longitude>-77.0341</longitude>
    <elevation>3</elevation>
    <locationLabels>
      <type>CNTRY</type>
      <id>FIPS:US</id>
      <displayName>United States</displayName>
    </locationLabels>
    <coverage>0.9998</coverage>
  </station>
  <station>
    <id>GHCND:USC00419491</id>
    <displayName>WASHINGTON STATE PARK, TX US</displayName>
    <minDate>1915-04-01</minDate>
    <maxDate>2013-01-15</maxDate>
    <latitude>30.3237</latitude>
    <longitude>-96.1594</longitude>
    <elevation>65.5</elevation>
    <locationLabels>
      <type>CNTRY</type>
      <id>FIPS:US</id>
      <displayName>United States</displayName>
    </locationLabels>
    <coverage>0.6484</coverage>
  </station>
  <station>
    <id>GHCND:USC00208653</id>
    <displayName>WASHINGTON TOWNSHIP, MI US</displayName>
    <minDate>2010-01-01</minDate>
    <maxDate>2010-09-30</maxDate>
    <latitude>42.7256</latitude>
    <longitude>-83.0394</longitude>
    <elevation>228.6</elevation>
    <locationLabels>
      <type>CNTRY</type>
      <id>FIPS:US</id>
      <displayName>United States</displayName>
    </locationLabels>
    <coverage>0.8864</coverage>
  </station>
  <station>
    <id>GHCND:US1NJGL0007</id>
    <displayName>WASHINGTON TWP 1.5 N, NJ US</displayName>
    <minDate>2008-06-29</minDate>
    <maxDate>2011-01-12</maxDate>
    <latitude>39.7678</latitude>
    <longitude>-75.0685</longitude>
    <elevation>28.7</elevation>
    <locationLabels>
      <type>CNTRY</type>
      <id>FIPS:US</id>
      <displayName>United States</displayName>
    </locationLabels>
    <coverage>0.7586</coverage>
  </station>
  <station>
    <id>GHCND:US1NJGL0030</id>
    <displayName>WASHINGTON TWP 1.7 SSE, NJ US</displayName>
    <minDate>2012-07-05</minDate>
    <maxDate>2012-12-27</maxDate>
    <latitude>39.7242</latitude>
    <longitude>-75.0607</longitude>
    <elevation>45.4</elevation>
    <locationLabels>
      <type>CNTRY</type>
      <id>FIPS:US</id>
      <displayName>United States</displayName>
    </locationLabels>
    <coverage>0.6477</coverage>
  </station>
  <station>
    <id>GHCND:US1NJMC0016</id>
    <displayName>WASHINGTON TWP 1.7 WSW, NJ US</displayName>
    <minDate>2008-08-05</minDate>
    <maxDate>2013-01-16</maxDate>
    <latitude>40.2104</latitude>
    <longitude>-74.6204</longitude>
    <elevation>38.7</elevation>
    <locationLabels>
      <type>CNTRY</type>
      <id>FIPS:US</id>
      <displayName>United States</displayName>
    </locationLabels>
    <coverage>0.9514</coverage>
  </station>
  <station>
    <id>GHCND:US1NJGL0012</id>
    <displayName>WASHINGTON TWP 2.1 NNW, NJ US</displayName>
    <minDate>2011-08-17</minDate>
    <maxDate>2012-12-27</maxDate>
    <latitude>39.7739</latitude>
    <longitude>-75.0925</longitude>
    <elevation>27.4</elevation>
    <locationLabels>
      <type>CNTRY</type>
      <id>FIPS:US</id>
      <displayName>United States</displayName>
    </locationLabels>
    <coverage>0.2946</coverage>
  </station>
  <station>
    <id>GHCND:US1NJMS0017</id>
    <displayName>WASHINGTON TWP 3.8 SE, NJ US</displayName>
    <minDate>2009-05-05</minDate>
    <maxDate>2010-06-17</maxDate>
    <latitude>40.7556</latitude>
    <longitude>-74.7335</longitude>
    <elevation>196.9</elevation>
    <locationLabels>
      <type>CNTRY</type>
      <id>FIPS:US</id>
      <displayName>United States</displayName>
    </locationLabels>
    <coverage>0.7042</coverage>
  </station>
  <station>
    <id>GHCND:USC00319100</id>
    <displayName>WASHINGTON WWTP 4 W, NC US</displayName>
    <minDate>1893-07-01</minDate>
    <maxDate>2013-01-15</maxDate>
    <latitude>35.55528</latitude>
    <longitude>-77.07222</longitude>
    <elevation>3</elevation>
    <locationLabels>
      <type>CNTRY</type>
      <id>FIPS:US</id>
      <displayName>United States</displayName>
    </locationLabels>
    <coverage>0.6557</coverage>
  </station>
  <station>
    <id>GHCND:USC00068859</id>
    <displayName>WASHINGTON, CT US</displayName>
    <minDate>1942-08-01</minDate>
    <maxDate>1953-10-31</maxDate>
    <latitude>41.63333</latitude>
    <longitude>-73.31667</longitude>
    <elevation>189</elevation>
    <locationLabels>
      <type>CNTRY</type>
      <id>FIPS:US</id>
      <displayName>United States</displayName>
    </locationLabels>
    <coverage>0.8577</coverage>
  </station>
  <station>
    <id>GHCND:USC00099157</id>
    <displayName>WASHINGTON, GA US</displayName>
    <minDate>1892-04-01</minDate>
    <maxDate>2013-01-16</maxDate>
    <latitude>33.7264</latitude>
    <longitude>-82.7059</longitude>
    <elevation>189</elevation>
    <locationLabels>
      <type>CNTRY</type>
      <id>FIPS:US</id>
      <displayName>United States</displayName>
    </locationLabels>
    <coverage>0.9277</coverage>
  </station>
  <station>
    <id>GHCND:USC00138688</id>
    <displayName>WASHINGTON, IA US</displayName>
    <minDate>1893-01-01</minDate>
    <maxDate>2013-01-16</maxDate>
    <latitude>41.2824</latitude>
    <longitude>-91.7078</longitude>
    <elevation>209.4</elevation>
    <locationLabels>
      <type>CNTRY</type>
      <id>FIPS:US</id>
      <displayName>United States</displayName>
    </locationLabels>
    <coverage>0.9907</coverage>
  </station>
  <station>
    <id>GHCND:USC00148578</id>
    <displayName>WASHINGTON, KS US</displayName>
    <minDate>1893-04-01</minDate>
    <maxDate>2013-01-16</maxDate>
    <latitude>39.8088</latitude>
    <longitude>-97.055</longitude>
    <elevation>399.9</elevation>
    <locationLabels>
      <type>CNTRY</type>
      <id>FIPS:US</id>
      <displayName>United States</displayName>
    </locationLabels>
    <coverage>0.5192</coverage>
  </station>
  <station>
    <id>GHCND:USC00198842</id>
    <displayName>WASHINGTON, MA US</displayName>
    <minDate>1948-06-01</minDate>
    <maxDate>1951-05-31</maxDate>
    <latitude>42.36667</latitude>
    <longitude>-73.13333</longitude>
    <elevation>548.9</elevation>
    <locationLabels>
      <type>CNTRY</type>
      <id>FIPS:US</id>
      <displayName>United States</displayName>
    </locationLabels>
    <coverage>0.99</coverage>
  </station>
  <station>
    <id>GHCND:USC00208648</id>
    <displayName>WASHINGTON, MI US</displayName>
    <minDate>1891-09-01</minDate>
    <maxDate>1893-11-30</maxDate>
    <latitude>42.72444</latitude>
    <longitude>-83.03611</longitude>
    <elevation>214</elevation>
    <locationLabels>
      <type>CNTRY</type>
      <id>FIPS:US</id>
      <displayName>United States</displayName>
    </locationLabels>
    <coverage>0.7433</coverage>
  </station>
  <station>
    <id>GHCND:USC00208650</id>
    <displayName>WASHINGTON, MI US</displayName>
    <minDate>1974-01-01</minDate>
    <maxDate>1987-11-30</maxDate>
    <latitude>42.73333</latitude>
    <longitude>-83.03333</longitude>
    <elevation>227.1</elevation>
    <locationLabels>
      <type>CNTRY</type>
      <id>FIPS:US</id>
      <displayName>United States</displayName>
    </locationLabels>
    <coverage>0.8607</coverage>
  </station>
  <station>
    <id>GHCND:USC00238746</id>
    <displayName>WASHINGTON, MO US</displayName>
    <minDate>1948-08-01</minDate>
    <maxDate>2013-01-16</maxDate>
    <latitude>38.5416</latitude>
    <longitude>-90.9752</longitude>
    <elevation>148.4</elevation>
    <locationLabels>
      <type>CNTRY</type>
      <id>FIPS:US</id>
      <displayName>United States</displayName>
    </locationLabels>
    <coverage>0.3457</coverage>
  </station>
  <station>
    <id>GHCND:USC00229384</id>
    <displayName>WASHINGTON, MS US</displayName>
    <minDate>1891-02-01</minDate>
    <maxDate>1893-05-31</maxDate>
    <latitude>31.58333</latitude>
    <longitude>-91.28333</longitude>
    <elevation>85</elevation>
    <locationLabels>
      <type>CNTRY</type>
      <id>FIPS:US</id>
      <displayName>United States</displayName>
    </locationLabels>
    <coverage>0.5523</coverage>
  </station>
  <station>
    <id>GHCND:USC00369312</id>
    <displayName>WASHINGTON, PA US</displayName>
    <minDate>1921-07-01</minDate>
    <maxDate>1981-06-30</maxDate>
    <latitude>40.18333</latitude>
    <longitude>-80.23333</longitude>
    <elevation>350.5</elevation>
    <locationLabels>
      <type>CNTRY</type>
      <id>FIPS:US</id>
      <displayName>United States</displayName>
    </locationLabels>
    <coverage>0.2043</coverage>
  </station>
  <station>
    <id>GHCND:USC00037592</id>
    <displayName>WASHITA, AR US</displayName>
    <minDate>1951-02-14</minDate>
    <maxDate>2013-01-13</maxDate>
    <latitude>34.6508</latitude>
    <longitude>-93.535</longitude>
    <elevation>185.9</elevation>
    <locationLabels>
      <type>CNTRY</type>
      <id>FIPS:US</id>
      <displayName>United States</displayName>
    </locationLabels>
    <coverage>0.7955</coverage>
  </station>
  <station>
    <id>GHCND:US1WACK0027</id>
    <displayName>WASHOUGAL 3.7 NNW, WA US</displayName>
    <minDate>2009-03-11</minDate>
    <maxDate>2013-01-16</maxDate>
    <latitude>45.6297</latitude>
    <longitude>-122.3698</longitude>
    <elevation>125.3</elevation>
    <locationLabels>
      <type>CNTRY</type>
      <id>FIPS:US</id>
      <displayName>United States</displayName>
    </locationLabels>
    <coverage>0.9702</coverage>
  </station>
  <station>
    <id>GHCND:USC00458999</id>
    <displayName>WASHOUGAL 8 ENE, WA US</displayName>
    <minDate>1950-05-01</minDate>
    <maxDate>1964-12-31</maxDate>
    <latitude>45.6</latitude>
    <longitude>-122.18333</longitude>
    <elevation>232</elevation>
    <locationLabels>
      <type>CNTRY</type>
      <id>FIPS:US</id>
      <displayName>United States</displayName>
    </locationLabels>
    <coverage>0.9371</coverage>
  </station>
  <station>
    <id>GHCND:USC00456753</id>
    <displayName>WASHOUGAL 8 ENE, WA US</displayName>
    <minDate>1933-03-07</minDate>
    <maxDate>1949-12-23</maxDate>
    <latitude>45.6</latitude>
    <longitude>-122.18333</longitude>
    <elevation>232</elevation>
    <locationLabels>
      <type>CNTRY</type>
      <id>FIPS:US</id>
      <displayName>United States</displayName>
    </locationLabels>
    <coverage>0.8595</coverage>
  </station>
  <station>
    <id>GHCND:USC00138693</id>
    <displayName>WASHTA, IA US</displayName>
    <minDate>1897-05-01</minDate>
    <maxDate>2012-06-30</maxDate>
    <latitude>42.575</latitude>
    <longitude>-95.7152</longitude>
    <elevation>353.6</elevation>
    <locationLabels>
      <type>CNTRY</type>
      <id>FIPS:US</id>
      <displayName>United States</displayName>
    </locationLabels>
    <coverage>0.3743</coverage>
  </station>
  <station>
    <id>GHCND:USC00509765</id>
    <displayName>WASILLA 2 NE, AK US</displayName>
    <minDate>1968-07-01</minDate>
    <maxDate>1984-05-31</maxDate>
    <latitude>61.61667</latitude>
    <longitude>-149.4</longitude>
    <elevation>152.4</elevation>
    <locationLabels>
      <type>CNTRY</type>
      <id>FIPS:US</id>
      <displayName>United States</displayName>
    </locationLabels>
    <coverage>0.9983</coverage>
  </station>
  <station>
    <id>GHCND:USC00505735</id>
    <displayName>WASILLA 3 S, AK US</displayName>
    <minDate>1951-07-01</minDate>
    <maxDate>1954-10-31</maxDate>
    <latitude>61.53333</latitude>
    <longitude>-149.43333</longitude>
    <elevation>15.2</elevation>
    <locationLabels>
      <type>CNTRY</type>
      <id>FIPS:US</id>
      <displayName>United States</displayName>
    </locationLabels>
    <coverage>0.9598</coverage>
  </station>
  <station>
    <id>GHCND:USC00509759</id>
    <displayName>WASILLA 3 S, AK US</displayName>
    <minDate>1944-10-18</minDate>
    <maxDate>1999-06-30</maxDate>
    <latitude>61.53333</latitude>
    <longitude>-149.43333</longitude>
    <elevation>15.2</elevation>
    <locationLabels>
      <type>CNTRY</type>
      <id>FIPS:US</id>
      <displayName>United States</displayName>
    </locationLabels>
    <coverage>0.8918</coverage>
  </station>
  <station>
    <id>GHCND:US1AKMS0010</id>
    <displayName>WASILLA 3.1 SSE, AK US</displayName>
    <minDate>2010-05-01</minDate>
    <maxDate>2011-10-30</maxDate>
    <latitude>61.5419</latitude>
    <longitude>-149.4133</longitude>
    <elevation>22.9</elevation>
    <locationLabels>
      <type>CNTRY</type>
      <id>FIPS:US</id>
      <displayName>United States</displayName>
    </locationLabels>
    <coverage>0.8412</coverage>
  </station>
  <station>
    <id>GHCND:USC00509767</id>
    <displayName>WASILLA 4 N, AK US</displayName>
    <minDate>2006-04-01</minDate>
    <maxDate>2006-11-30</maxDate>
    <latitude>61.65083</latitude>
    <longitude>-149.41917</longitude>
    <elevation>148.1</elevation>
    <locationLabels>
      <type>CNTRY</type>
      <id>FIPS:US</id>
      <displayName>United States</displayName>
    </locationLabels>
    <coverage>0.4877</coverage>
  </station>
  <station>
    <id>GHCND:USC00509763</id>
    <displayName>WASILLA, AK US</displayName>
    <minDate>1964-07-01</minDate>
    <maxDate>1968-06-30</maxDate>
    <latitude>61.58333</latitude>
    <longitude>-149.45</longitude>
    <elevation>107</elevation>
    <locationLabels>
      <type>CNTRY</type>
      <id>FIPS:US</id>
      <displayName>United States</displayName>
    </locationLabels>
    <coverage>0.9938</coverage>
  </station>
  <station>
    <id>GHCND:USC00049456</id>
    <displayName>WASIOJA FORBES RANCH, CA US</displayName>
    <minDate>1904-01-01</minDate>
    <maxDate>1951-09-30</maxDate>
    <latitude>34.96667</latitude>
    <longitude>-119.86667</longitude>
    <elevation>719.3</elevation>
    <locationLabels>
      <type>CNTRY</type>
      <id>FIPS:US</id>
      <displayName>United States</displayName>
    </locationLabels>
    <coverage>0.1408</coverage>
  </station>
  <station>
    <id>GHCND:USC00218700</id>
    <displayName>WASKISH 4 NE, MN US</displayName>
    <minDate>1923-07-17</minDate>
    <maxDate>2013-01-15</maxDate>
    <latitude>48.2063</latitude>
    <longitude>-94.3938</longitude>
    <elevation>365.8</elevation>
    <locationLabels>
      <type>CNTRY</type>
      <id>FIPS:US</id>
      <displayName>United States</displayName>
    </locationLabels>
    <coverage>0.5074</coverage>
  </station>
  <station>
    <id>GHCND:US1TXHRS004</id>
    <displayName>WASKOM 4.4 S, TX US</displayName>
    <minDate>2009-04-04</minDate>
    <maxDate>2013-01-13</maxDate>
    <latitude>32.4146</latitude>
    <longitude>-94.0788</longitude>
    <elevation>100.9</elevation>
    <locationLabels>
      <type>CNTRY</type>
      <id>FIPS:US</id>
      <displayName>United States</displayName>
    </locationLabels>
    <coverage>0.5807</coverage>
  </station>
  <station>
    <id>GHCND:USC00238754</id>
    <displayName>WASOLA, MO US</displayName>
    <minDate>1939-06-01</minDate>
    <maxDate>2013-01-16</maxDate>
    <latitude>36.858</latitude>
    <longitude>-92.5874</longitude>
    <elevation>362.7</elevation>
    <locationLabels>
      <type>CNTRY</type>
      <id>FIPS:US</id>
      <displayName>United States</displayName>
    </locationLabels>
    <coverage>0.8971</coverage>
  </station>
  <station>
    <id>GHCND:US1SDPN0019</id>
    <displayName>WASTA 21.6 SSW, SD US</displayName>
    <minDate>2007-07-19</minDate>
    <maxDate>2013-01-16</maxDate>
    <latitude>43.781</latitude>
    <longitude>-102.6168</longitude>
    <elevation>894</elevation>
    <locationLabels>
      <type>CNTRY</type>
      <id>FIPS:US</id>
      <displayName>United States</displayName>
    </locationLabels>
    <coverage>0.9905</coverage>
  </station>
  <station>
    <id>GHCND:US1SDPN0008</id>
    <displayName>WASTA 22.0 NNE, SD US</displayName>
    <minDate>2007-07-12</minDate>
    <maxDate>2010-09-15</maxDate>
    <latitude>44.3699</latitude>
    <longitude>-102.2973</longitude>
    <elevation>633.1</elevation>
    <locationLabels>
      <type>CNTRY</type>
      <id>FIPS:US</id>
      <displayName>United States</displayName>
    </locationLabels>
    <coverage>0.2375</coverage>
  </station>
  <station>
    <id>GHCND:USC00398911</id>
    <displayName>WASTA, SD US</displayName>
    <minDate>1925-07-01</minDate>
    <maxDate>2012-11-30</maxDate>
    <latitude>44.0697</latitude>
    <longitude>-102.4478</longitude>
    <elevation>714.5</elevation>
    <locationLabels>
      <type>CNTRY</type>
      <id>FIPS:US</id>
      <displayName>United States</displayName>
    </locationLabels>
    <coverage>0.689</coverage>
  </station>
  <station>
    <id>GHCND:USC00299569</id>
    <displayName>WASTE ISOLTN PILOT PLANT, NM US</displayName>
    <minDate>1986-09-01</minDate>
    <maxDate>2012-11-30</maxDate>
    <latitude>32.3779</latitude>
    <longitude>-103.7987</longitude>
    <elevation>1039.7</elevation>
    <locationLabels>
      <type>CNTRY</type>
      <id>FIPS:US</id>
      <displayName>United States</displayName>
    </locationLabels>
    <coverage>0.942</coverage>
  </station>
  <station>
    <id>GHCND:US1TXTN0030</id>
    <displayName>WATAUGA 1.9 NW, TX US</displayName>
    <minDate>2008-03-24</minDate>
    <maxDate>2013-01-14</maxDate>
    <latitude>32.8899</latitude>
    <longitude>-97.2742</longitude>
    <elevation>207.9</elevation>
    <locationLabels>
      <type>CNTRY</type>
      <id>FIPS:US</id>
      <displayName>United States</displayName>
    </locationLabels>
    <coverage>0.7793</coverage>
  </station>
  <station>
    <id>GHCND:US1TXTN0007</id>
    <displayName>WATAUGA 2.4 WNW, TX US</displayName>
    <minDate>2006-10-10</minDate>
    <maxDate>2012-07-23</maxDate>
    <latitude>32.8878</latitude>
    <longitude>-97.2867</longitude>
    <elevation>199.9</elevation>
    <locationLabels>
      <type>CNTRY</type>
      <id>FIPS:US</id>
      <displayName>United States</displayName>
    </locationLabels>
    <coverage>0.4007</coverage>
  </station>
  <station>
    <id>GHCND:US1TXTN0005</id>
    <displayName>WATAUGA 2.4 WNW, TX US</displayName>
    <minDate>2006-08-27</minDate>
    <maxDate>2013-01-16</maxDate>
    <latitude>32.8863</latitude>
    <longitude>-97.2878</longitude>
    <elevation>203</elevation>
    <locationLabels>
      <type>CNTRY</type>
      <id>FIPS:US</id>
      <displayName>United States</displayName>
    </locationLabels>
    <coverage>0.9576</coverage>
  </station>
  <station>
    <id>GHCND:USC00409455</id>
    <displayName>WATAUGA DAM, TN US</displayName>
    <minDate>1949-01-01</minDate>
    <maxDate>1982-03-31</maxDate>
    <latitude>36.33333</latitude>
    <longitude>-82.11667</longitude>
    <elevation>522.1</elevation>
    <locationLabels>
      <type>CNTRY</type>
      <id>FIPS:US</id>
      <displayName>United States</displayName>
    </locationLabels>
    <coverage>0.9908</coverage>
  </station>
  <station>
    <id>GHCND:USC00329219</id>
    <displayName>WATAUGA S DAK 8 N, ND US</displayName>
    <minDate>1950-07-25</minDate>
    <maxDate>2012-09-30</maxDate>
    <latitude>46.0233</latitude>
    <longitude>-101.5663</longitude>
    <elevation>630.9</elevation>
    <locationLabels>
      <type>CNTRY</type>
      <id>FIPS:US</id>
      <displayName>United States</displayName>
    </locationLabels>
    <coverage>0.987</coverage>
  </station>
  <station>
    <id>GHCND:USC00289271</id>
    <displayName>WATCHUNG, NJ US</displayName>
    <minDate>1948-08-01</minDate>
    <maxDate>1951-09-30</maxDate>
    <latitude>40.66222</latitude>
    <longitude>-74.41639</longitude>
    <elevation>79.2</elevation>
    <locationLabels>
      <type>CNTRY</type>
      <id>FIPS:US</id>
      <displayName>United States</displayName>
    </locationLabels>
    <coverage>0.9948</coverage>
  </station>
  <station>
    <id>GHCND:US1COLR0435</id>
    <displayName>WATER TREATMENT PLANT, CO US</displayName>
    <minDate>2001-05-27</minDate>
    <maxDate>2004-11-03</maxDate>
    <latitude>40.595</latitude>
    <longitude>-105.1553</longitude>
    <elevation>1584</elevation>
    <locationLabels>
      <type>CNTRY</type>
      <id>FIPS:US</id>
      <displayName>United States</displayName>
    </locationLabels>
    <coverage>0.4805</coverage>
  </station>
  <station>
    <id>GHCND:USC00419500</id>
    <displayName>WATER VALLEY 11 ENE, TX US</displayName>
    <minDate>1949-04-02</minDate>
    <maxDate>1958-07-31</maxDate>
    <latitude>31.7</latitude>
    <longitude>-100.53333</longitude>
    <elevation>652.9</elevation>
    <locationLabels>
      <type>CNTRY</type>
      <id>FIPS:US</id>
      <displayName>United States</displayName>
    </locationLabels>
    <coverage>0.6813</coverage>
  </station>
  <station>
    <id>GHCND:USC00419501</id>
    <displayName>WATER VALLEY 11 NNE, TX US</displayName>
    <minDate>1959-02-01</minDate>
    <maxDate>2013-01-10</maxDate>
    <latitude>31.8136</latitude>
    <longitude>-100.6286</longitude>
    <elevation>748.3</elevation>
    <locationLabels>
      <type>CNTRY</type>
      <id>FIPS:US</id>
      <displayName>United States</displayName>
    </locationLabels>
    <coverage>0.9726</coverage>
  </station>
</stationCollection>
