<?xml version="1.0" encoding="UTF-8" standalone="yes"?>
<stationCollection totalCount="46020" pageCount="461" pageSize="100" page="76">
  <station>
    <id>GHCND:US1ILSG0011</id>
    <displayName>CHATHAM 1.4 ESE, IL US</displayName>
    <minDate>2007-01-13</minDate>
    <maxDate>2013-01-13</maxDate>
    <latitude>39.6688</latitude>
    <longitude>-89.6711</longitude>
    <elevation>178.9</elevation>
    <locationLabels>
      <type>CNTRY</type>
      <id>FIPS:US</id>
      <displayName>United States</displayName>
    </locationLabels>
    <coverage>0.4505</coverage>
  </station>
  <station>
    <id>GHCND:USC00441619</id>
    <displayName>CHATHAM 2 N, VA US</displayName>
    <minDate>1948-08-01</minDate>
    <maxDate>1951-09-30</maxDate>
    <latitude>36.85</latitude>
    <longitude>-79.4</longitude>
    <elevation>259.1</elevation>
    <locationLabels>
      <type>CNTRY</type>
      <id>FIPS:US</id>
      <displayName>United States</displayName>
    </locationLabels>
    <coverage>0.9412</coverage>
  </station>
  <station>
    <id>GHCND:USC00221623</id>
    <displayName>CHATHAM 2 NE, MS US</displayName>
    <minDate>1947-04-01</minDate>
    <maxDate>1951-07-01</maxDate>
    <latitude>33.11667</latitude>
    <longitude>-91.08333</longitude>
    <elevation>36.9</elevation>
    <locationLabels>
      <type>CNTRY</type>
      <id>FIPS:US</id>
      <displayName>United States</displayName>
    </locationLabels>
    <coverage>0.6008</coverage>
  </station>
  <station>
    <id>GHCND:USC00281592</id>
    <displayName>CHATHAM 2 W, NJ US</displayName>
    <minDate>2000-04-01</minDate>
    <maxDate>2013-01-01</maxDate>
    <latitude>40.74389</latitude>
    <longitude>-74.41583</longitude>
    <elevation>108.2</elevation>
    <locationLabels>
      <type>CNTRY</type>
      <id>FIPS:US</id>
      <displayName>United States</displayName>
    </locationLabels>
    <coverage>0.7047</coverage>
  </station>
  <station>
    <id>GHCND:US1VAPT0002</id>
    <displayName>CHATHAM 4.5 WNW, VA US</displayName>
    <minDate>2007-09-29</minDate>
    <maxDate>2013-01-16</maxDate>
    <latitude>36.8434</latitude>
    <longitude>-79.4745</longitude>
    <elevation>242.9</elevation>
    <locationLabels>
      <type>CNTRY</type>
      <id>FIPS:US</id>
      <displayName>United States</displayName>
    </locationLabels>
    <coverage>0.5643</coverage>
  </station>
  <station>
    <id>GHCND:USC00201484</id>
    <displayName>CHATHAM EXPERIMENT F, MI US</displayName>
    <minDate>1900-07-01</minDate>
    <maxDate>2005-03-23</maxDate>
    <latitude>46.35</latitude>
    <longitude>-86.93333</longitude>
    <elevation>268.2</elevation>
    <locationLabels>
      <type>CNTRY</type>
      <id>FIPS:US</id>
      <displayName>United States</displayName>
    </locationLabels>
    <coverage>0.746</coverage>
  </station>
  <station>
    <id>GHCND:USC00201486</id>
    <displayName>CHATHAM EXPERIMENTAL FARM 2, MI US</displayName>
    <minDate>1987-08-01</minDate>
    <maxDate>2013-01-16</maxDate>
    <latitude>46.3414</latitude>
    <longitude>-86.9242</longitude>
    <elevation>265.2</elevation>
    <locationLabels>
      <type>CNTRY</type>
      <id>FIPS:US</id>
      <displayName>United States</displayName>
    </locationLabels>
    <coverage>0.9933</coverage>
  </station>
  <station>
    <id>GHCND:USW00094624</id>
    <displayName>CHATHAM MUNICIPAL AIRPORT, MA US</displayName>
    <minDate>1996-07-01</minDate>
    <maxDate>2013-01-14</maxDate>
    <latitude>41.6875</latitude>
    <longitude>-69.99333</longitude>
    <elevation>20.7</elevation>
    <locationLabels>
      <type>CNTRY</type>
      <id>FIPS:US</id>
      <displayName>United States</displayName>
    </locationLabels>
    <coverage>0.9856</coverage>
  </station>
  <station>
    <id>GHCND:USC00191386</id>
    <displayName>CHATHAM WSMO, MA US</displayName>
    <minDate>1972-08-01</minDate>
    <maxDate>2013-01-16</maxDate>
    <latitude>41.657</latitude>
    <longitude>-69.959</longitude>
    <elevation>12.2</elevation>
    <locationLabels>
      <type>CNTRY</type>
      <id>FIPS:US</id>
      <displayName>United States</displayName>
    </locationLabels>
    <coverage>0.9548</coverage>
  </station>
  <station>
    <id>GHCND:USC00311700</id>
    <displayName>CHATHAM WTP, NC US</displayName>
    <minDate>2007-07-01</minDate>
    <maxDate>2012-11-30</maxDate>
    <latitude>35.7369</latitude>
    <longitude>-79.0047</longitude>
    <elevation>93.9</elevation>
    <locationLabels>
      <type>CNTRY</type>
      <id>FIPS:US</id>
      <displayName>United States</displayName>
    </locationLabels>
    <coverage>0.8071</coverage>
  </station>
  <station>
    <id>GHCND:USC00161703</id>
    <displayName>CHATHAM, LA US</displayName>
    <minDate>1941-08-01</minDate>
    <maxDate>1975-06-30</maxDate>
    <latitude>32.31667</latitude>
    <longitude>-92.45</longitude>
    <elevation>54.9</elevation>
    <locationLabels>
      <type>CNTRY</type>
      <id>FIPS:US</id>
      <displayName>United States</displayName>
    </locationLabels>
    <coverage>0.9254</coverage>
  </station>
  <station>
    <id>GHCND:USC00271450</id>
    <displayName>CHATHAM, NH US</displayName>
    <minDate>1901-05-01</minDate>
    <maxDate>1905-04-30</maxDate>
    <latitude>44.15</latitude>
    <longitude>-71.016667</longitude>
    <elevation>304.8</elevation>
    <locationLabels>
      <type>CNTRY</type>
      <id>FIPS:US</id>
      <displayName>United States</displayName>
    </locationLabels>
    <coverage>0.9986</coverage>
  </station>
  <station>
    <id>GHCND:USC00281590</id>
    <displayName>CHATHAM, NJ US</displayName>
    <minDate>1903-02-12</minDate>
    <maxDate>1963-02-24</maxDate>
    <latitude>40.75</latitude>
    <longitude>-74.36667</longitude>
    <elevation>57.9</elevation>
    <locationLabels>
      <type>CNTRY</type>
      <id>FIPS:US</id>
      <displayName>United States</displayName>
    </locationLabels>
    <coverage>0.9433</coverage>
  </station>
  <station>
    <id>GHCND:USC00301391</id>
    <displayName>CHATHAM, NY US</displayName>
    <minDate>1904-07-01</minDate>
    <maxDate>1970-03-31</maxDate>
    <latitude>42.36667</latitude>
    <longitude>-73.6</longitude>
    <elevation>128</elevation>
    <locationLabels>
      <type>CNTRY</type>
      <id>FIPS:US</id>
      <displayName>United States</displayName>
    </locationLabels>
    <coverage>0.4212</coverage>
  </station>
  <station>
    <id>GHCND:USC00441614</id>
    <displayName>CHATHAM, VA US</displayName>
    <minDate>1922-07-01</minDate>
    <maxDate>2013-01-16</maxDate>
    <latitude>36.8224</latitude>
    <longitude>-79.4104</longitude>
    <elevation>198.4</elevation>
    <locationLabels>
      <type>CNTRY</type>
      <id>FIPS:US</id>
      <displayName>United States</displayName>
    </locationLabels>
    <coverage>0.9824</coverage>
  </station>
  <station>
    <id>GHCND:USC00011566</id>
    <displayName>CHATOM, AL US</displayName>
    <minDate>1949-09-01</minDate>
    <maxDate>2013-01-15</maxDate>
    <latitude>31.4715</latitude>
    <longitude>-88.2504</longitude>
    <elevation>86.9</elevation>
    <locationLabels>
      <type>CNTRY</type>
      <id>FIPS:US</id>
      <displayName>United States</displayName>
    </locationLabels>
    <coverage>0.9625</coverage>
  </station>
  <station>
    <id>GHCND:USC00091863</id>
    <displayName>CHATSWORTH 2, GA US</displayName>
    <minDate>1979-03-01</minDate>
    <maxDate>2013-01-16</maxDate>
    <latitude>34.7582</latitude>
    <longitude>-84.7642</longitude>
    <elevation>216.4</elevation>
    <locationLabels>
      <type>CNTRY</type>
      <id>FIPS:US</id>
      <displayName>United States</displayName>
    </locationLabels>
    <coverage>0.9976</coverage>
  </station>
  <station>
    <id>GHCND:USC00041680</id>
    <displayName>CHATSWORTH FC 24 F, CA US</displayName>
    <minDate>1927-10-01</minDate>
    <maxDate>2013-01-16</maxDate>
    <latitude>34.25</latitude>
    <longitude>-118.6</longitude>
    <elevation>289.6</elevation>
    <locationLabels>
      <type>CNTRY</type>
      <id>FIPS:US</id>
      <displayName>United States</displayName>
    </locationLabels>
    <coverage>0.5275</coverage>
  </station>
  <station>
    <id>GHCND:USR0000GCHS</id>
    <displayName>CHATSWORTH GEORGIA, GA US</displayName>
    <minDate>2003-02-20</minDate>
    <maxDate>2012-08-31</maxDate>
    <latitude>34.77</latitude>
    <longitude>-84.5833</longitude>
    <elevation>609.6</elevation>
    <locationLabels>
      <type>CNTRY</type>
      <id>FIPS:US</id>
      <displayName>United States</displayName>
    </locationLabels>
    <coverage>0.9216</coverage>
  </station>
  <station>
    <id>GHCND:USC00041679</id>
    <displayName>CHATSWORTH HEYNEMANN, CA US</displayName>
    <minDate>1945-11-01</minDate>
    <maxDate>1959-07-31</maxDate>
    <latitude>34.26667</latitude>
    <longitude>-118.6</longitude>
    <elevation>305.1</elevation>
    <locationLabels>
      <type>CNTRY</type>
      <id>FIPS:US</id>
      <displayName>United States</displayName>
    </locationLabels>
    <coverage>0.9964</coverage>
  </station>
  <station>
    <id>GHCND:USC00041682</id>
    <displayName>CHATSWORTH RESERVOIR, CA US</displayName>
    <minDate>1948-07-01</minDate>
    <maxDate>1951-08-31</maxDate>
    <latitude>34.2263</latitude>
    <longitude>-118.6169</longitude>
    <elevation>277.4</elevation>
    <locationLabels>
      <type>CNTRY</type>
      <id>FIPS:US</id>
      <displayName>United States</displayName>
    </locationLabels>
    <coverage>0.962</coverage>
  </station>
  <station>
    <id>GHCND:USC00091856</id>
    <displayName>CHATSWORTH, GA US</displayName>
    <minDate>1937-06-15</minDate>
    <maxDate>1979-01-31</maxDate>
    <latitude>34.76667</latitude>
    <longitude>-84.78333</longitude>
    <elevation>235</elevation>
    <locationLabels>
      <type>CNTRY</type>
      <id>FIPS:US</id>
      <displayName>United States</displayName>
    </locationLabels>
    <coverage>0.9692</coverage>
  </station>
  <station>
    <id>GHCND:USC00111447</id>
    <displayName>CHATSWORTH, IL US</displayName>
    <minDate>1996-02-01</minDate>
    <maxDate>2013-01-16</maxDate>
    <latitude>40.75</latitude>
    <longitude>-88.2886</longitude>
    <elevation>219.5</elevation>
    <locationLabels>
      <type>CNTRY</type>
      <id>FIPS:US</id>
      <displayName>United States</displayName>
    </locationLabels>
    <coverage>0.9884</coverage>
  </station>
  <station>
    <id>GHCND:USC00281598</id>
    <displayName>CHATSWORTH, NJ US</displayName>
    <minDate>1948-08-01</minDate>
    <maxDate>1979-07-31</maxDate>
    <latitude>39.81667</latitude>
    <longitude>-74.53333</longitude>
    <elevation>31.1</elevation>
    <locationLabels>
      <type>CNTRY</type>
      <id>FIPS:US</id>
      <displayName>United States</displayName>
    </locationLabels>
    <coverage>0.8668</coverage>
  </station>
  <station>
    <id>GHCND:USC00081502</id>
    <displayName>CHATTAHOOCHEE 1 W, FL US</displayName>
    <minDate>1893-02-01</minDate>
    <maxDate>1959-07-29</maxDate>
    <latitude>30.7</latitude>
    <longitude>-84.86667</longitude>
    <elevation>27.1</elevation>
    <locationLabels>
      <type>CNTRY</type>
      <id>FIPS:US</id>
      <displayName>United States</displayName>
    </locationLabels>
    <coverage>0.3332</coverage>
  </station>
  <station>
    <id>GHCND:USC00341706</id>
    <displayName>CHATTANOOGA 3 NE, OK US</displayName>
    <minDate>1905-12-01</minDate>
    <maxDate>2013-01-15</maxDate>
    <latitude>34.4224</latitude>
    <longitude>-98.6496</longitude>
    <elevation>349.9</elevation>
    <locationLabels>
      <type>CNTRY</type>
      <id>FIPS:US</id>
      <displayName>United States</displayName>
    </locationLabels>
    <coverage>0.9816</coverage>
  </station>
  <station>
    <id>GHCND:US1TNHL0015</id>
    <displayName>CHATTANOOGA 3.6 E, TN US</displayName>
    <minDate>2009-09-08</minDate>
    <maxDate>2013-01-16</maxDate>
    <latitude>35.0672</latitude>
    <longitude>-85.1999</longitude>
    <elevation>220.1</elevation>
    <locationLabels>
      <type>CNTRY</type>
      <id>FIPS:US</id>
      <displayName>United States</displayName>
    </locationLabels>
    <coverage>0.4393</coverage>
  </station>
  <station>
    <id>GHCND:US1TNHL0013</id>
    <displayName>CHATTANOOGA 3.6 N, TN US</displayName>
    <minDate>2009-03-24</minDate>
    <maxDate>2010-12-26</maxDate>
    <latitude>35.1175</latitude>
    <longitude>-85.2624</longitude>
    <elevation>242</elevation>
    <locationLabels>
      <type>CNTRY</type>
      <id>FIPS:US</id>
      <displayName>United States</displayName>
    </locationLabels>
    <coverage>0.1649</coverage>
  </station>
  <station>
    <id>GHCND:US1TNHL0002</id>
    <displayName>CHATTANOOGA 5.0 E, TN US</displayName>
    <minDate>2003-08-07</minDate>
    <maxDate>2013-01-16</maxDate>
    <latitude>35.0764</latitude>
    <longitude>-85.1696</longitude>
    <elevation>253.9</elevation>
    <locationLabels>
      <type>CNTRY</type>
      <id>FIPS:US</id>
      <displayName>United States</displayName>
    </locationLabels>
    <coverage>0.1434</coverage>
  </station>
  <station>
    <id>GHCND:US1TNHL0020</id>
    <displayName>CHATTANOOGA 9.4 ESE, TN US</displayName>
    <minDate>2010-12-10</minDate>
    <maxDate>2013-01-16</maxDate>
    <latitude>35.014</latitude>
    <longitude>-85.1492</longitude>
    <elevation>213.1</elevation>
    <locationLabels>
      <type>CNTRY</type>
      <id>FIPS:US</id>
      <displayName>United States</displayName>
    </locationLabels>
    <coverage>0.8726</coverage>
  </station>
  <station>
    <id>GHCND:USW00013882</id>
    <displayName>CHATTANOOGA LOVELL FIELD AIRPORT, TN US</displayName>
    <minDate>1928-01-01</minDate>
    <maxDate>2013-01-15</maxDate>
    <latitude>35.03111</latitude>
    <longitude>-85.20139</longitude>
    <elevation>204.5</elevation>
    <locationLabels>
      <type>CNTRY</type>
      <id>FIPS:US</id>
      <displayName>United States</displayName>
    </locationLabels>
    <coverage>0.9998</coverage>
  </station>
  <station>
    <id>GHCND:US1WASP0024</id>
    <displayName>CHATTAROY 6.3 NE, WA US</displayName>
    <minDate>2010-02-26</minDate>
    <maxDate>2013-01-14</maxDate>
    <latitude>47.9461</latitude>
    <longitude>-117.2509</longitude>
    <elevation>672.7</elevation>
    <locationLabels>
      <type>CNTRY</type>
      <id>FIPS:US</id>
      <displayName>United States</displayName>
    </locationLabels>
    <coverage>0.9839</coverage>
  </station>
  <station>
    <id>GHCND:USR0000GCHA</id>
    <displayName>CHATTOOGA NUMBER 1 GEORGIA, GA US</displayName>
    <minDate>2001-08-24</minDate>
    <maxDate>2012-08-31</maxDate>
    <latitude>34.6403</latitude>
    <longitude>-83.5219</longitude>
    <elevation>457.2</elevation>
    <locationLabels>
      <type>CNTRY</type>
      <id>FIPS:US</id>
      <displayName>United States</displayName>
    </locationLabels>
    <coverage>0.9106</coverage>
  </station>
  <station>
    <id>GHCND:USC00311703</id>
    <displayName>CHATUGE DAM, NC US</displayName>
    <minDate>1949-01-01</minDate>
    <maxDate>1956-03-31</maxDate>
    <latitude>35.01667</latitude>
    <longitude>-83.8</longitude>
    <elevation>558.1</elevation>
    <locationLabels>
      <type>CNTRY</type>
      <id>FIPS:US</id>
      <displayName>United States</displayName>
    </locationLabels>
    <coverage>0.9207</coverage>
  </station>
  <station>
    <id>GHCND:US1GADG0004</id>
    <displayName>CHAUNCEY 2.6 SW, GA US</displayName>
    <minDate>2010-03-21</minDate>
    <maxDate>2013-01-16</maxDate>
    <latitude>32.0791</latitude>
    <longitude>-83.0949</longitude>
    <elevation>104.5</elevation>
    <locationLabels>
      <type>CNTRY</type>
      <id>FIPS:US</id>
      <displayName>United States</displayName>
    </locationLabels>
    <coverage>0.971</coverage>
  </station>
  <station>
    <id>GHCND:USR0000ICHA</id>
    <displayName>CHAUSSE IDAHO, ID US</displayName>
    <minDate>1985-08-20</minDate>
    <maxDate>1997-05-07</maxDate>
    <latitude>42.1744</latitude>
    <longitude>-111.1167</longitude>
    <elevation>1975.1</elevation>
    <locationLabels>
      <type>CNTRY</type>
      <id>FIPS:US</id>
      <displayName>United States</displayName>
    </locationLabels>
    <coverage>0.9881</coverage>
  </station>
  <station>
    <id>GHCND:USC00141460</id>
    <displayName>CHAUTAUQUA, KS US</displayName>
    <minDate>2008-07-01</minDate>
    <maxDate>2013-01-11</maxDate>
    <latitude>37.02028</latitude>
    <longitude>-96.175</longitude>
    <elevation>286.5</elevation>
    <locationLabels>
      <type>CNTRY</type>
      <id>FIPS:US</id>
      <displayName>United States</displayName>
    </locationLabels>
    <coverage>0.9517</coverage>
  </station>
  <station>
    <id>GHCND:USC00301395</id>
    <displayName>CHAUTAUQUA, NY US</displayName>
    <minDate>1940-06-16</minDate>
    <maxDate>1943-10-31</maxDate>
    <latitude>42.216667</latitude>
    <longitude>-79.466667</longitude>
    <elevation>405.4</elevation>
    <locationLabels>
      <type>CNTRY</type>
      <id>FIPS:US</id>
      <displayName>United States</displayName>
    </locationLabels>
    <coverage>0.4655</coverage>
  </station>
  <station>
    <id>GHCND:USC00301401</id>
    <displayName>CHAZY, NY US</displayName>
    <minDate>1902-12-01</minDate>
    <maxDate>2011-09-17</maxDate>
    <latitude>44.8786</latitude>
    <longitude>-73.3953</longitude>
    <elevation>47.9</elevation>
    <locationLabels>
      <type>CNTRY</type>
      <id>FIPS:US</id>
      <displayName>United States</displayName>
    </locationLabels>
    <coverage>0.9491</coverage>
  </station>
  <station>
    <id>GHCND:USC00411671</id>
    <displayName>CHEAPSIDE, TX US</displayName>
    <minDate>1948-06-01</minDate>
    <maxDate>2013-01-16</maxDate>
    <latitude>29.3091</latitude>
    <longitude>-97.4062</longitude>
    <elevation>112.2</elevation>
    <locationLabels>
      <type>CNTRY</type>
      <id>FIPS:US</id>
      <displayName>United States</displayName>
    </locationLabels>
    <coverage>0.2714</coverage>
  </station>
  <station>
    <id>GHCND:USC00461591</id>
    <displayName>CHEAT BRIDGE, WV US</displayName>
    <minDate>1912-07-01</minDate>
    <maxDate>1997-12-31</maxDate>
    <latitude>38.61056</latitude>
    <longitude>-79.87722</longitude>
    <elevation>1086.6</elevation>
    <locationLabels>
      <type>CNTRY</type>
      <id>FIPS:US</id>
      <displayName>United States</displayName>
    </locationLabels>
    <coverage>0.167</coverage>
  </station>
  <station>
    <id>GHCND:USC00361392</id>
    <displayName>CHEAT HAVEN, WV US</displayName>
    <minDate>1912-12-01</minDate>
    <maxDate>1926-10-31</maxDate>
    <latitude>39.716667</latitude>
    <longitude>-79.85</longitude>
    <elevation>274.3</elevation>
    <locationLabels>
      <type>CNTRY</type>
      <id>FIPS:US</id>
      <displayName>United States</displayName>
    </locationLabels>
    <coverage>0.2668</coverage>
  </station>
  <station>
    <id>GHCND:USC00406454</id>
    <displayName>CHEATHAM LOCK AND DAM, TN US</displayName>
    <minDate>1936-01-01</minDate>
    <maxDate>1971-04-30</maxDate>
    <latitude>36.3211</latitude>
    <longitude>-87.2218</longitude>
    <elevation>119.5</elevation>
    <locationLabels>
      <type>CNTRY</type>
      <id>FIPS:US</id>
      <displayName>United States</displayName>
    </locationLabels>
    <coverage>0.9973</coverage>
  </station>
  <station>
    <id>GHCND:USC00401663</id>
    <displayName>CHEATHAM LOCK AND DAM, TN US</displayName>
    <minDate>1971-05-01</minDate>
    <maxDate>2013-01-16</maxDate>
    <latitude>36.3211</latitude>
    <longitude>-87.2218</longitude>
    <elevation>119.5</elevation>
    <locationLabels>
      <type>CNTRY</type>
      <id>FIPS:US</id>
      <displayName>United States</displayName>
    </locationLabels>
    <coverage>0.9585</coverage>
  </station>
  <station>
    <id>GHCND:USC00111458</id>
    <displayName>CHEBANSE 5 E RIVER, IL US</displayName>
    <minDate>1990-10-01</minDate>
    <maxDate>2013-01-16</maxDate>
    <latitude>41.00917</latitude>
    <longitude>-87.82417</longitude>
    <elevation>181.4</elevation>
    <locationLabels>
      <type>CNTRY</type>
      <id>FIPS:US</id>
      <displayName>United States</displayName>
    </locationLabels>
    <coverage>0.4557</coverage>
  </station>
  <station>
    <id>GHCND:USC00111455</id>
    <displayName>CHEBANSE, IL US</displayName>
    <minDate>1994-04-01</minDate>
    <maxDate>1995-10-31</maxDate>
    <latitude>41</latitude>
    <longitude>-87.9</longitude>
    <elevation>181.4</elevation>
    <locationLabels>
      <type>CNTRY</type>
      <id>FIPS:US</id>
      <displayName>United States</displayName>
    </locationLabels>
    <coverage>0.6632</coverage>
  </station>
  <station>
    <id>GHCND:US1MECM0078</id>
    <displayName>CHEBEAGUE ISLAND 1.2 SW, ME US</displayName>
    <minDate>2010-09-22</minDate>
    <maxDate>2012-06-01</maxDate>
    <latitude>43.7288</latitude>
    <longitude>-70.128</longitude>
    <elevation>39.9</elevation>
    <locationLabels>
      <type>CNTRY</type>
      <id>FIPS:US</id>
      <displayName>United States</displayName>
    </locationLabels>
    <coverage>0.2116</coverage>
  </station>
  <station>
    <id>GHCND:US1MICB0001</id>
    <displayName>CHEBOYGAN 2.9 S, MI US</displayName>
    <minDate>2008-07-22</minDate>
    <maxDate>2013-01-16</maxDate>
    <latitude>45.6</latitude>
    <longitude>-84.4628</longitude>
    <elevation>181.1</elevation>
    <locationLabels>
      <type>CNTRY</type>
      <id>FIPS:US</id>
      <displayName>United States</displayName>
    </locationLabels>
    <coverage>0.7549</coverage>
  </station>
  <station>
    <id>GHCND:USC00201497</id>
    <displayName>CHEBOYGAN POWER PLAN, MI US</displayName>
    <minDate>1948-07-01</minDate>
    <maxDate>1951-09-30</maxDate>
    <latitude>45.63333</latitude>
    <longitude>-84.48333</longitude>
    <elevation>185.9</elevation>
    <locationLabels>
      <type>CNTRY</type>
      <id>FIPS:US</id>
      <displayName>United States</displayName>
    </locationLabels>
    <coverage>0.9562</coverage>
  </station>
  <station>
    <id>GHCND:USC00201492</id>
    <displayName>CHEBOYGAN, MI US</displayName>
    <minDate>1891-09-01</minDate>
    <maxDate>2013-01-16</maxDate>
    <latitude>45.6527</latitude>
    <longitude>-84.4725</longitude>
    <elevation>179.2</elevation>
    <locationLabels>
      <type>CNTRY</type>
      <id>FIPS:US</id>
      <displayName>United States</displayName>
    </locationLabels>
    <coverage>0.925</coverage>
  </station>
  <station>
    <id>GHCND:USC00341713</id>
    <displayName>CHECOTAH NEAR, OK US</displayName>
    <minDate>1941-08-01</minDate>
    <maxDate>1942-02-28</maxDate>
    <latitude>35.466667</latitude>
    <longitude>-95.533333</longitude>
    <elevation>203</elevation>
    <locationLabels>
      <type>CNTRY</type>
      <id>FIPS:US</id>
      <displayName>United States</displayName>
    </locationLabels>
    <coverage>1</coverage>
  </station>
  <station>
    <id>GHCND:USC00341711</id>
    <displayName>CHECOTAH, OK US</displayName>
    <minDate>1948-01-01</minDate>
    <maxDate>2004-08-31</maxDate>
    <latitude>35.47222</latitude>
    <longitude>-95.52194</longitude>
    <elevation>193.5</elevation>
    <locationLabels>
      <type>CNTRY</type>
      <id>FIPS:US</id>
      <displayName>United States</displayName>
    </locationLabels>
    <coverage>0.9954</coverage>
  </station>
  <station>
    <id>GHCND:USR0000CCHB</id>
    <displayName>CHEESEBORO CALIFORNIA, CA US</displayName>
    <minDate>1995-09-25</minDate>
    <maxDate>2012-08-30</maxDate>
    <latitude>34.1847</latitude>
    <longitude>-118.7172</longitude>
    <elevation>502.9</elevation>
    <locationLabels>
      <type>CNTRY</type>
      <id>FIPS:US</id>
      <displayName>United States</displayName>
    </locationLabels>
    <coverage>0.9458</coverage>
  </station>
  <station>
    <id>GHCND:USR0000CCHE</id>
    <displayName>CHEESEMAN COLORADO, CO US</displayName>
    <minDate>1987-02-27</minDate>
    <maxDate>2012-08-31</maxDate>
    <latitude>39.1814</latitude>
    <longitude>-105.2672</longitude>
    <elevation>2286</elevation>
    <locationLabels>
      <type>CNTRY</type>
      <id>FIPS:US</id>
      <displayName>United States</displayName>
    </locationLabels>
    <coverage>0.9652</coverage>
  </station>
  <station>
    <id>GHCND:USC00051528</id>
    <displayName>CHEESMAN, CO US</displayName>
    <minDate>1902-08-01</minDate>
    <maxDate>2013-01-16</maxDate>
    <latitude>39.2202</latitude>
    <longitude>-105.2783</longitude>
    <elevation>2097</elevation>
    <locationLabels>
      <type>CNTRY</type>
      <id>FIPS:US</id>
      <displayName>United States</displayName>
    </locationLabels>
    <coverage>0.9902</coverage>
  </station>
  <station>
    <id>GHCND:US1WALW0018</id>
    <displayName>CHEHALIS 1.4 SSE, WA US</displayName>
    <minDate>2012-01-04</minDate>
    <maxDate>2013-01-16</maxDate>
    <latitude>46.6465</latitude>
    <longitude>-122.9535</longitude>
    <elevation>61.6</elevation>
    <locationLabels>
      <type>CNTRY</type>
      <id>FIPS:US</id>
      <displayName>United States</displayName>
    </locationLabels>
    <coverage>0.7652</coverage>
  </station>
  <station>
    <id>GHCND:US1WALW0008</id>
    <displayName>CHEHALIS 5.9 S, WA US</displayName>
    <minDate>2001-08-15</minDate>
    <maxDate>2009-06-20</maxDate>
    <latitude>46.5798</latitude>
    <longitude>-122.9656</longitude>
    <elevation>124.4</elevation>
    <locationLabels>
      <type>CNTRY</type>
      <id>FIPS:US</id>
      <displayName>United States</displayName>
    </locationLabels>
    <coverage>0.0896</coverage>
  </station>
  <station>
    <id>GHCND:USC00451330</id>
    <displayName>CHEHALIS, WA US</displayName>
    <minDate>1893-01-01</minDate>
    <maxDate>1951-09-30</maxDate>
    <latitude>46.66667</latitude>
    <longitude>-122.98333</longitude>
    <elevation>54.9</elevation>
    <locationLabels>
      <type>CNTRY</type>
      <id>FIPS:US</id>
      <displayName>United States</displayName>
    </locationLabels>
    <coverage>0.1748</coverage>
  </station>
  <station>
    <id>GHCND:USR0000FCHE</id>
    <displayName>CHEKIKA FLORIDA, FL US</displayName>
    <minDate>2002-10-02</minDate>
    <maxDate>2012-08-31</maxDate>
    <latitude>25.625</latitude>
    <longitude>-80.5797</longitude>
    <elevation>1.5</elevation>
    <locationLabels>
      <type>CNTRY</type>
      <id>FIPS:US</id>
      <displayName>United States</displayName>
    </locationLabels>
    <coverage>0.9351</coverage>
  </station>
  <station>
    <id>GHCND:USC00451350</id>
    <displayName>CHELAN, WA US</displayName>
    <minDate>1890-07-24</minDate>
    <maxDate>2013-01-16</maxDate>
    <latitude>47.8362</latitude>
    <longitude>-120.0381</longitude>
    <elevation>335</elevation>
    <locationLabels>
      <type>CNTRY</type>
      <id>FIPS:US</id>
      <displayName>United States</displayName>
    </locationLabels>
    <coverage>0.4415</coverage>
  </station>
  <station>
    <id>GHCND:USC00454430</id>
    <displayName>CHELAN, WA US</displayName>
    <minDate>1891-07-01</minDate>
    <maxDate>1958-04-30</maxDate>
    <latitude>47.8362</latitude>
    <longitude>-120.0381</longitude>
    <elevation>335</elevation>
    <locationLabels>
      <type>CNTRY</type>
      <id>FIPS:US</id>
      <displayName>United States</displayName>
    </locationLabels>
    <coverage>0.9551</coverage>
  </station>
  <station>
    <id>GHCND:US1ALSH0037</id>
    <displayName>CHELSEA 0.8 NE, AL US</displayName>
    <minDate>2008-01-01</minDate>
    <maxDate>2010-08-28</maxDate>
    <latitude>33.335</latitude>
    <longitude>-86.627</longitude>
    <elevation>156.7</elevation>
    <locationLabels>
      <type>CNTRY</type>
      <id>FIPS:US</id>
      <displayName>United States</displayName>
    </locationLabels>
    <coverage>0.8455</coverage>
  </station>
  <station>
    <id>GHCND:USC00431363</id>
    <displayName>CHELSEA 2 NW, VT US</displayName>
    <minDate>2000-04-01</minDate>
    <maxDate>2013-01-16</maxDate>
    <latitude>44.0108</latitude>
    <longitude>-72.4833</longitude>
    <elevation>438.9</elevation>
    <locationLabels>
      <type>CNTRY</type>
      <id>FIPS:US</id>
      <displayName>United States</displayName>
    </locationLabels>
    <coverage>0.988</coverage>
  </station>
  <station>
    <id>GHCND:USC00341717</id>
    <displayName>CHELSEA 4 S, OK US</displayName>
    <minDate>1983-08-01</minDate>
    <maxDate>2006-01-31</maxDate>
    <latitude>36.48056</latitude>
    <longitude>-95.42111</longitude>
    <elevation>224</elevation>
    <locationLabels>
      <type>CNTRY</type>
      <id>FIPS:US</id>
      <displayName>United States</displayName>
    </locationLabels>
    <coverage>0.9956</coverage>
  </station>
  <station>
    <id>GHCND:USC00201502</id>
    <displayName>CHELSEA, MI US</displayName>
    <minDate>1978-05-01</minDate>
    <maxDate>2013-01-16</maxDate>
    <latitude>42.3263</latitude>
    <longitude>-84.0133</longitude>
    <elevation>274.3</elevation>
    <locationLabels>
      <type>CNTRY</type>
      <id>FIPS:US</id>
      <displayName>United States</displayName>
    </locationLabels>
    <coverage>0.9141</coverage>
  </station>
  <station>
    <id>GHCND:USC00341716</id>
    <displayName>CHELSEA, OK US</displayName>
    <minDate>1941-09-01</minDate>
    <maxDate>1944-08-31</maxDate>
    <latitude>36.533333</latitude>
    <longitude>-95.433333</longitude>
    <elevation>220.1</elevation>
    <locationLabels>
      <type>CNTRY</type>
      <id>FIPS:US</id>
      <displayName>United States</displayName>
    </locationLabels>
    <coverage>0.5821</coverage>
  </station>
  <station>
    <id>GHCND:USC00431360</id>
    <displayName>CHELSEA, VT US</displayName>
    <minDate>1893-01-01</minDate>
    <maxDate>2000-01-31</maxDate>
    <latitude>43.98333</latitude>
    <longitude>-72.45</longitude>
    <elevation>243.8</elevation>
    <locationLabels>
      <type>CNTRY</type>
      <id>FIPS:US</id>
      <displayName>United States</displayName>
    </locationLabels>
    <coverage>0.9594</coverage>
  </station>
  <station>
    <id>GHCND:USC00181710</id>
    <displayName>CHELTENHAM 1 NW, MD US</displayName>
    <minDate>1901-05-01</minDate>
    <maxDate>1956-09-30</maxDate>
    <latitude>38.73333</latitude>
    <longitude>-76.85</longitude>
    <elevation>70.1</elevation>
    <locationLabels>
      <type>CNTRY</type>
      <id>FIPS:US</id>
      <displayName>United States</displayName>
    </locationLabels>
    <coverage>0.9976</coverage>
  </station>
  <station>
    <id>GHCND:USC00351548</id>
    <displayName>CHEMULT 20 SE, OR US</displayName>
    <minDate>1963-04-18</minDate>
    <maxDate>1964-05-31</maxDate>
    <latitude>42.96667</latitude>
    <longitude>-121.58333</longitude>
    <elevation>1385</elevation>
    <locationLabels>
      <type>CNTRY</type>
      <id>FIPS:US</id>
      <displayName>United States</displayName>
    </locationLabels>
    <coverage>1</coverage>
  </station>
  <station>
    <id>GHCND:USS0021F22S</id>
    <displayName>CHEMULT ALTERNATE, OR US</displayName>
    <minDate>1980-10-01</minDate>
    <maxDate>2013-01-13</maxDate>
    <latitude>43.2167</latitude>
    <longitude>-121.8</longitude>
    <elevation>1450.8</elevation>
    <locationLabels>
      <type>CNTRY</type>
      <id>FIPS:US</id>
      <displayName>United States</displayName>
    </locationLabels>
    <coverage>0.9255</coverage>
  </station>
  <station>
    <id>GHCND:USR0000OCHE</id>
    <displayName>CHEMULT OREGON, OR US</displayName>
    <minDate>1992-06-08</minDate>
    <maxDate>2002-01-01</maxDate>
    <latitude>43.2264</latitude>
    <longitude>-121.7889</longitude>
    <elevation>1410.9</elevation>
    <locationLabels>
      <type>CNTRY</type>
      <id>FIPS:US</id>
      <displayName>United States</displayName>
    </locationLabels>
    <coverage>0.9328</coverage>
  </station>
  <station>
    <id>GHCND:USC00351546</id>
    <displayName>CHEMULT, OR US</displayName>
    <minDate>1937-02-01</minDate>
    <maxDate>2013-01-16</maxDate>
    <latitude>43.2291</latitude>
    <longitude>-121.7894</longitude>
    <elevation>1450.8</elevation>
    <locationLabels>
      <type>CNTRY</type>
      <id>FIPS:US</id>
      <displayName>United States</displayName>
    </locationLabels>
    <coverage>0.9083</coverage>
  </station>
  <station>
    <id>GHCND:USC00301413</id>
    <displayName>CHEMUNG, NY US</displayName>
    <minDate>1888-01-22</minDate>
    <maxDate>2013-01-16</maxDate>
    <latitude>42.0025</latitude>
    <longitude>-76.6384</longitude>
    <elevation>250.5</elevation>
    <locationLabels>
      <type>CNTRY</type>
      <id>FIPS:US</id>
      <displayName>United States</displayName>
    </locationLabels>
    <coverage>0.588</coverage>
  </station>
  <station>
    <id>GHCND:USC00501574</id>
    <displayName>CHENA HOT SPRINGS, AK US</displayName>
    <minDate>1962-08-01</minDate>
    <maxDate>2011-11-30</maxDate>
    <latitude>65.0528</latitude>
    <longitude>-146.0561</longitude>
    <elevation>361.2</elevation>
    <locationLabels>
      <type>CNTRY</type>
      <id>FIPS:US</id>
      <displayName>United States</displayName>
    </locationLabels>
    <coverage>0.2916</coverage>
  </station>
  <station>
    <id>GHCND:USC00501557</id>
    <displayName>CHENA RIDGE, AK US</displayName>
    <minDate>1999-04-01</minDate>
    <maxDate>2012-11-10</maxDate>
    <latitude>64.83</latitude>
    <longitude>-147.8525</longitude>
    <elevation>340.5</elevation>
    <locationLabels>
      <type>CNTRY</type>
      <id>FIPS:US</id>
      <displayName>United States</displayName>
    </locationLabels>
    <coverage>0.7854</coverage>
  </station>
  <station>
    <id>GHCND:US1NYBM0023</id>
    <displayName>CHENANGO BRIDGE 2.5 NE, NY US</displayName>
    <minDate>2011-04-17</minDate>
    <maxDate>2012-11-01</maxDate>
    <latitude>42.1972</latitude>
    <longitude>-75.8347</longitude>
    <elevation>268.5</elevation>
    <locationLabels>
      <type>CNTRY</type>
      <id>FIPS:US</id>
      <displayName>United States</displayName>
    </locationLabels>
    <coverage>0.6</coverage>
  </station>
  <station>
    <id>GHCND:USC00301415</id>
    <displayName>CHENANGO FORKS 2 S, NY US</displayName>
    <minDate>1954-08-09</minDate>
    <maxDate>1975-03-19</maxDate>
    <latitude>42.21667</latitude>
    <longitude>-75.85</longitude>
    <elevation>265.8</elevation>
    <locationLabels>
      <type>CNTRY</type>
      <id>FIPS:US</id>
      <displayName>United States</displayName>
    </locationLabels>
    <coverage>0.2172</coverage>
  </station>
  <station>
    <id>GHCND:US1NYBM0001</id>
    <displayName>CHENANGO FORKS 3.0 SE, NY US</displayName>
    <minDate>2007-08-27</minDate>
    <maxDate>2012-03-05</maxDate>
    <latitude>42.193</latitude>
    <longitude>-75.848</longitude>
    <elevation>280.7</elevation>
    <locationLabels>
      <type>CNTRY</type>
      <id>FIPS:US</id>
      <displayName>United States</displayName>
    </locationLabels>
    <coverage>0.9129</coverage>
  </station>
  <station>
    <id>GHCND:USC00301414</id>
    <displayName>CHENANGO FORKS, NY US</displayName>
    <minDate>1900-03-01</minDate>
    <maxDate>1901-11-30</maxDate>
    <latitude>42.233333</latitude>
    <longitude>-75.85</longitude>
    <elevation>274.3</elevation>
    <locationLabels>
      <type>CNTRY</type>
      <id>FIPS:US</id>
      <displayName>United States</displayName>
    </locationLabels>
    <coverage>0.7281</coverage>
  </station>
  <station>
    <id>GHCND:US1KSSG0054</id>
    <displayName>CHENEY 0.4 NNE, KS US</displayName>
    <minDate>2009-05-02</minDate>
    <maxDate>2012-11-11</maxDate>
    <latitude>37.6341</latitude>
    <longitude>-97.7785</longitude>
    <elevation>420.6</elevation>
    <locationLabels>
      <type>CNTRY</type>
      <id>FIPS:US</id>
      <displayName>United States</displayName>
    </locationLabels>
    <coverage>0.1372</coverage>
  </station>
  <station>
    <id>GHCND:US1KSSG0065</id>
    <displayName>CHENEY 0.5 NNE, KS US</displayName>
    <minDate>2010-08-01</minDate>
    <maxDate>2012-12-29</maxDate>
    <latitude>37.6352</latitude>
    <longitude>-97.7777</longitude>
    <elevation>419.4</elevation>
    <locationLabels>
      <type>CNTRY</type>
      <id>FIPS:US</id>
      <displayName>United States</displayName>
    </locationLabels>
    <coverage>0.7857</coverage>
  </station>
  <station>
    <id>GHCND:USC00141467</id>
    <displayName>CHENEY 5 N, KS US</displayName>
    <minDate>2002-03-01</minDate>
    <maxDate>2013-01-16</maxDate>
    <latitude>37.7205</latitude>
    <longitude>-97.7935</longitude>
    <elevation>444.1</elevation>
    <locationLabels>
      <type>CNTRY</type>
      <id>FIPS:US</id>
      <displayName>United States</displayName>
    </locationLabels>
    <coverage>0.9592</coverage>
  </station>
  <station>
    <id>GHCND:US1KSSG0023</id>
    <displayName>CHENEY 5.0 E, KS US</displayName>
    <minDate>2008-04-08</minDate>
    <maxDate>2012-11-11</maxDate>
    <latitude>37.6181</latitude>
    <longitude>-97.6895</longitude>
    <elevation>430.7</elevation>
    <locationLabels>
      <type>CNTRY</type>
      <id>FIPS:US</id>
      <displayName>United States</displayName>
    </locationLabels>
    <coverage>0.1132</coverage>
  </station>
  <station>
    <id>GHCND:US1WASP0007</id>
    <displayName>CHENEY 5.0 ESE, WA US</displayName>
    <minDate>2008-06-24</minDate>
    <maxDate>2008-12-06</maxDate>
    <latitude>47.4648</latitude>
    <longitude>-117.4799</longitude>
    <elevation>720.5</elevation>
    <locationLabels>
      <type>CNTRY</type>
      <id>FIPS:US</id>
      <displayName>United States</displayName>
    </locationLabels>
    <coverage>0.9518</coverage>
  </station>
  <station>
    <id>GHCND:US1WASP0011</id>
    <displayName>CHENEY 5.1 E, WA US</displayName>
    <minDate>2008-06-22</minDate>
    <maxDate>2013-01-15</maxDate>
    <latitude>47.489</latitude>
    <longitude>-117.4698</longitude>
    <elevation>714.5</elevation>
    <locationLabels>
      <type>CNTRY</type>
      <id>FIPS:US</id>
      <displayName>United States</displayName>
    </locationLabels>
    <coverage>0.9922</coverage>
  </station>
  <station>
    <id>GHCND:USC00141466</id>
    <displayName>CHENEY, KS US</displayName>
    <minDate>1923-08-01</minDate>
    <maxDate>1931-12-31</maxDate>
    <latitude>37.633333</latitude>
    <longitude>-97.783333</longitude>
    <elevation>414.5</elevation>
    <locationLabels>
      <type>CNTRY</type>
      <id>FIPS:US</id>
      <displayName>United States</displayName>
    </locationLabels>
    <coverage>0.9811</coverage>
  </station>
  <station>
    <id>GHCND:USC00451362</id>
    <displayName>CHENEY, WA US</displayName>
    <minDate>1899-03-01</minDate>
    <maxDate>1955-10-31</maxDate>
    <latitude>47.48333</latitude>
    <longitude>-117.58333</longitude>
    <elevation>732.1</elevation>
    <locationLabels>
      <type>CNTRY</type>
      <id>FIPS:US</id>
      <displayName>United States</displayName>
    </locationLabels>
    <coverage>0.5024</coverage>
  </station>
  <station>
    <id>GHCND:USC00161729</id>
    <displayName>CHENEYVILLE, LA US</displayName>
    <minDate>1891-02-01</minDate>
    <maxDate>1956-09-30</maxDate>
    <latitude>31.01667</latitude>
    <longitude>-92.28333</longitude>
    <elevation>18</elevation>
    <locationLabels>
      <type>CNTRY</type>
      <id>FIPS:US</id>
      <displayName>United States</displayName>
    </locationLabels>
    <coverage>0.9373</coverage>
  </station>
  <station>
    <id>GHCND:US1ILLV0004</id>
    <displayName>CHENOA 3.9 NNW, IL US</displayName>
    <minDate>2007-04-25</minDate>
    <maxDate>2013-01-16</maxDate>
    <latitude>40.7988</latitude>
    <longitude>-88.7381</longitude>
    <elevation>209.1</elevation>
    <locationLabels>
      <type>CNTRY</type>
      <id>FIPS:US</id>
      <displayName>United States</displayName>
    </locationLabels>
    <coverage>0.3123</coverage>
  </station>
  <station>
    <id>GHCND:USC00111475</id>
    <displayName>CHENOA, IL US</displayName>
    <minDate>1948-06-01</minDate>
    <maxDate>2013-01-13</maxDate>
    <latitude>40.7394</latitude>
    <longitude>-88.7109</longitude>
    <elevation>216.4</elevation>
    <locationLabels>
      <type>CNTRY</type>
      <id>FIPS:US</id>
      <displayName>United States</displayName>
    </locationLabels>
    <coverage>0.9806</coverage>
  </station>
  <station>
    <id>GHCND:USR0000NCHE</id>
    <displayName>CHEOAH NORTH CAROLINA, NC US</displayName>
    <minDate>2003-02-20</minDate>
    <maxDate>2012-08-31</maxDate>
    <latitude>35.3333</latitude>
    <longitude>-83.8167</longitude>
    <elevation>640.1</elevation>
    <locationLabels>
      <type>CNTRY</type>
      <id>FIPS:US</id>
      <displayName>United States</displayName>
    </locationLabels>
    <coverage>0.8871</coverage>
  </station>
  <station>
    <id>GHCND:USC00301424</id>
    <displayName>CHEPACHET, NY US</displayName>
    <minDate>1957-09-02</minDate>
    <maxDate>2001-07-31</maxDate>
    <latitude>42.9096</latitude>
    <longitude>-75.1109</longitude>
    <elevation>402.3</elevation>
    <locationLabels>
      <type>CNTRY</type>
      <id>FIPS:US</id>
      <displayName>United States</displayName>
    </locationLabels>
    <coverage>0.9928</coverage>
  </station>
  <station>
    <id>GHCND:USR0000CHEP</id>
    <displayName>CHEPETA UTAH, UT US</displayName>
    <minDate>1998-09-26</minDate>
    <maxDate>2012-08-31</maxDate>
    <latitude>40.8111</latitude>
    <longitude>-110.0747</longitude>
    <elevation>3694.2</elevation>
    <locationLabels>
      <type>CNTRY</type>
      <id>FIPS:US</id>
      <displayName>United States</displayName>
    </locationLabels>
    <coverage>0.8408</coverage>
  </station>
  <station>
    <id>GHCND:USS0010J43S</id>
    <displayName>CHEPETA, UT US</displayName>
    <minDate>1981-10-01</minDate>
    <maxDate>2013-01-13</maxDate>
    <latitude>40.7667</latitude>
    <longitude>-110</longitude>
    <elevation>3139.4</elevation>
    <locationLabels>
      <type>CNTRY</type>
      <id>FIPS:US</id>
      <displayName>United States</displayName>
    </locationLabels>
    <coverage>0.8793</coverage>
  </station>
  <station>
    <id>GHCND:US1COOT0006</id>
    <displayName>CHERAW .15 NNE, CO US</displayName>
    <minDate>2003-11-12</minDate>
    <maxDate>2013-01-15</maxDate>
    <latitude>38.109</latitude>
    <longitude>-103.5092</longitude>
    <elevation>1263.1</elevation>
    <locationLabels>
      <type>CNTRY</type>
      <id>FIPS:US</id>
      <displayName>United States</displayName>
    </locationLabels>
    <coverage>0.6439</coverage>
  </station>
  <station>
    <id>GHCND:USC00051539</id>
    <displayName>CHERAW 1 N, CO US</displayName>
    <minDate>1948-08-06</minDate>
    <maxDate>2013-01-16</maxDate>
    <latitude>38.115</latitude>
    <longitude>-103.51</longitude>
    <elevation>1264</elevation>
    <locationLabels>
      <type>CNTRY</type>
      <id>FIPS:US</id>
      <displayName>United States</displayName>
    </locationLabels>
    <coverage>0.3411</coverage>
  </station>
  <station>
    <id>GHCND:US1COOT0013</id>
    <displayName>CHERAW 1.9 W, CO US</displayName>
    <minDate>2004-04-01</minDate>
    <maxDate>2013-01-14</maxDate>
    <latitude>38.1044</latitude>
    <longitude>-103.546</longitude>
    <elevation>1268</elevation>
    <locationLabels>
      <type>CNTRY</type>
      <id>FIPS:US</id>
      <displayName>United States</displayName>
    </locationLabels>
    <coverage>0.9975</coverage>
  </station>
  <station>
    <id>GHCND:USC00381588</id>
    <displayName>CHERAW, SC US</displayName>
    <minDate>1893-01-01</minDate>
    <maxDate>2013-01-16</maxDate>
    <latitude>34.732</latitude>
    <longitude>-79.8833</longitude>
    <elevation>42.7</elevation>
    <locationLabels>
      <type>CNTRY</type>
      <id>FIPS:US</id>
      <displayName>United States</displayName>
    </locationLabels>
    <coverage>0.9685</coverage>
  </station>
  <station>
    <id>GHCND:USC00441636</id>
    <displayName>CHERITON, VA US</displayName>
    <minDate>1948-08-01</minDate>
    <maxDate>1976-10-31</maxDate>
    <latitude>37.28333</latitude>
    <longitude>-75.96667</longitude>
    <elevation>3</elevation>
    <locationLabels>
      <type>CNTRY</type>
      <id>FIPS:US</id>
      <displayName>United States</displayName>
    </locationLabels>
    <coverage>0.9285</coverage>
  </station>
  <station>
    <id>GHCND:US1KSCR0002</id>
    <displayName>CHEROKEE 0.3 N, KS US</displayName>
    <minDate>2006-03-10</minDate>
    <maxDate>2013-01-16</maxDate>
    <latitude>37.3504</latitude>
    <longitude>-94.8209</longitude>
    <elevation>285.9</elevation>
    <locationLabels>
      <type>CNTRY</type>
      <id>FIPS:US</id>
      <displayName>United States</displayName>
    </locationLabels>
    <coverage>0.9924</coverage>
  </station>
</stationCollection>
