<?xml version="1.0" encoding="UTF-8" standalone="yes"?>
<stationCollection totalCount="46020" pageCount="461" pageSize="100" page="313">
  <station>
    <id>GHCND:US1FLOR0014</id>
    <displayName>ORLANDO 1.3 E, FL US</displayName>
    <minDate>2009-10-01</minDate>
    <maxDate>2013-01-14</maxDate>
    <latitude>28.5027</latitude>
    <longitude>-81.3527</longitude>
    <elevation>30.5</elevation>
    <locationLabels>
      <type>CNTRY</type>
      <id>FIPS:US</id>
      <displayName>United States</displayName>
    </locationLabels>
    <coverage>0.995</coverage>
  </station>
  <station>
    <id>GHCND:USC00346756</id>
    <displayName>ORLANDO 5 E MESONET, OK US</displayName>
    <minDate>2010-01-01</minDate>
    <maxDate>2012-12-26</maxDate>
    <latitude>36.14722</latitude>
    <longitude>-97.28583</longitude>
    <elevation>292.9</elevation>
    <locationLabels>
      <type>CNTRY</type>
      <id>FIPS:US</id>
      <displayName>United States</displayName>
    </locationLabels>
    <coverage>0.9221</coverage>
  </station>
  <station>
    <id>GHCND:USW00012824</id>
    <displayName>ORLANDO ARMY AIR FIELD, FL US</displayName>
    <minDate>1949-01-01</minDate>
    <maxDate>1949-10-30</maxDate>
    <latitude>28.55</latitude>
    <longitude>-81.33333</longitude>
    <elevation>34.1</elevation>
    <locationLabels>
      <type>CNTRY</type>
      <id>FIPS:US</id>
      <displayName>United States</displayName>
    </locationLabels>
    <coverage>1</coverage>
  </station>
  <station>
    <id>GHCND:USW00012841</id>
    <displayName>ORLANDO EXECUTIVE AIRPORT, FL US</displayName>
    <minDate>1948-01-01</minDate>
    <maxDate>2013-01-15</maxDate>
    <latitude>28.54528</latitude>
    <longitude>-81.33306</longitude>
    <elevation>32.9</elevation>
    <locationLabels>
      <type>CNTRY</type>
      <id>FIPS:US</id>
      <displayName>United States</displayName>
    </locationLabels>
    <coverage>0.6266</coverage>
  </station>
  <station>
    <id>GHCND:USW00012815</id>
    <displayName>ORLANDO INTERNATIONAL AIRPORT, FL US</displayName>
    <minDate>1952-05-16</minDate>
    <maxDate>2013-01-15</maxDate>
    <latitude>28.4339</latitude>
    <longitude>-81.325</longitude>
    <elevation>27.4</elevation>
    <locationLabels>
      <type>CNTRY</type>
      <id>FIPS:US</id>
      <displayName>United States</displayName>
    </locationLabels>
    <coverage>0.9488</coverage>
  </station>
  <station>
    <id>GHCND:USC00346761</id>
    <displayName>ORLANDO NEAR SOIL CONSERVATION SERVICE NUMBER 18, OK US</displayName>
    <minDate>1941-08-08</minDate>
    <maxDate>1941-12-31</maxDate>
    <latitude>36.1</latitude>
    <longitude>-97.266667</longitude>
    <locationLabels>
      <type>CNTRY</type>
      <id>FIPS:US</id>
      <displayName>United States</displayName>
    </locationLabels>
    <coverage>0.8973</coverage>
  </station>
  <station>
    <id>GHCND:USW00012854</id>
    <displayName>ORLANDO SANFORD AIRPORT, FL US</displayName>
    <minDate>1945-04-01</minDate>
    <maxDate>2013-01-14</maxDate>
    <latitude>28.77972</latitude>
    <longitude>-81.24361</longitude>
    <elevation>16.8</elevation>
    <locationLabels>
      <type>CNTRY</type>
      <id>FIPS:US</id>
      <displayName>United States</displayName>
    </locationLabels>
    <coverage>0.4587</coverage>
  </station>
  <station>
    <id>GHCND:USC00086633</id>
    <displayName>ORLANDO WATER PLANT, FL US</displayName>
    <minDate>1950-02-01</minDate>
    <maxDate>1958-12-31</maxDate>
    <latitude>28.55</latitude>
    <longitude>-81.35</longitude>
    <elevation>34.1</elevation>
    <locationLabels>
      <type>CNTRY</type>
      <id>FIPS:US</id>
      <displayName>United States</displayName>
    </locationLabels>
    <coverage>0.9923</coverage>
  </station>
  <station>
    <id>GHCND:USC00086634</id>
    <displayName>ORLANDO WEST, FL US</displayName>
    <minDate>2007-10-06</minDate>
    <maxDate>2013-01-14</maxDate>
    <latitude>28.5082</latitude>
    <longitude>-81.5467</longitude>
    <elevation>45.7</elevation>
    <locationLabels>
      <type>CNTRY</type>
      <id>FIPS:US</id>
      <displayName>United States</displayName>
    </locationLabels>
    <coverage>0.9305</coverage>
  </station>
  <station>
    <id>GHCND:US10harl014</id>
    <displayName>ORLEANS 0.2 E, NE US</displayName>
    <minDate>2011-04-05</minDate>
    <maxDate>2012-09-13</maxDate>
    <latitude>40.129</latitude>
    <longitude>-99.4512</longitude>
    <elevation>0</elevation>
    <locationLabels>
      <type>CNTRY</type>
      <id>FIPS:US</id>
      <displayName>United States</displayName>
    </locationLabels>
    <coverage>0.4527</coverage>
  </station>
  <station>
    <id>GHCND:US1MABA0012</id>
    <displayName>ORLEANS 1.1 E, MA US</displayName>
    <minDate>2011-03-05</minDate>
    <maxDate>2013-01-16</maxDate>
    <latitude>41.7887</latitude>
    <longitude>-69.9786</longitude>
    <elevation>8.5</elevation>
    <locationLabels>
      <type>CNTRY</type>
      <id>FIPS:US</id>
      <displayName>United States</displayName>
    </locationLabels>
    <coverage>0.981</coverage>
  </station>
  <station>
    <id>GHCND:US1MIIN0003</id>
    <displayName>ORLEANS 1.3 SSE, MI US</displayName>
    <minDate>2010-03-11</minDate>
    <maxDate>2012-12-03</maxDate>
    <latitude>43.0513</latitude>
    <longitude>-85.1245</longitude>
    <elevation>259.1</elevation>
    <locationLabels>
      <type>CNTRY</type>
      <id>FIPS:US</id>
      <displayName>United States</displayName>
    </locationLabels>
    <coverage>0.6907</coverage>
  </station>
  <station>
    <id>GHCND:USC00256365</id>
    <displayName>ORLEANS 2 W, NE US</displayName>
    <minDate>1908-05-01</minDate>
    <maxDate>2013-01-02</maxDate>
    <latitude>40.1314</latitude>
    <longitude>-99.4558</longitude>
    <elevation>597.4</elevation>
    <locationLabels>
      <type>CNTRY</type>
      <id>FIPS:US</id>
      <displayName>United States</displayName>
    </locationLabels>
    <coverage>0.9239</coverage>
  </station>
  <station>
    <id>GHCND:US1INOR0009</id>
    <displayName>ORLEANS 4.4 ENE, IN US</displayName>
    <minDate>2007-01-31</minDate>
    <maxDate>2009-11-30</maxDate>
    <latitude>38.6783</latitude>
    <longitude>-86.3739</longitude>
    <elevation>217</elevation>
    <locationLabels>
      <type>CNTRY</type>
      <id>FIPS:US</id>
      <displayName>United States</displayName>
    </locationLabels>
    <coverage>0.5874</coverage>
  </station>
  <station>
    <id>GHCND:US1INOR0016</id>
    <displayName>ORLEANS 4.5 E, IN US</displayName>
    <minDate>2009-03-29</minDate>
    <maxDate>2010-10-13</maxDate>
    <latitude>38.6661</latitude>
    <longitude>-86.3692</longitude>
    <elevation>219.8</elevation>
    <locationLabels>
      <type>CNTRY</type>
      <id>FIPS:US</id>
      <displayName>United States</displayName>
    </locationLabels>
    <coverage>0.4858</coverage>
  </station>
  <station>
    <id>GHCND:US10harl004</id>
    <displayName>ORLEANS 6.2 WNW, NE US</displayName>
    <minDate>2007-01-01</minDate>
    <maxDate>2012-12-21</maxDate>
    <latitude>40.1765</latitude>
    <longitude>-99.5579</longitude>
    <elevation>623.9</elevation>
    <locationLabels>
      <type>CNTRY</type>
      <id>FIPS:US</id>
      <displayName>United States</displayName>
    </locationLabels>
    <coverage>0.6929</coverage>
  </station>
  <station>
    <id>GHCND:USC00046508</id>
    <displayName>ORLEANS, CA US</displayName>
    <minDate>1903-04-01</minDate>
    <maxDate>2013-01-15</maxDate>
    <latitude>41.3088</latitude>
    <longitude>-123.5316</longitude>
    <elevation>122.8</elevation>
    <locationLabels>
      <type>CNTRY</type>
      <id>FIPS:US</id>
      <displayName>United States</displayName>
    </locationLabels>
    <coverage>0.9792</coverage>
  </station>
  <station>
    <id>GHCND:USC00136291</id>
    <displayName>ORLEANS, IA US</displayName>
    <minDate>1935-01-01</minDate>
    <maxDate>1939-01-31</maxDate>
    <latitude>43.45</latitude>
    <longitude>-95.06667</longitude>
    <elevation>427</elevation>
    <locationLabels>
      <type>CNTRY</type>
      <id>FIPS:US</id>
      <displayName>United States</displayName>
    </locationLabels>
    <coverage>0.8559</coverage>
  </station>
  <station>
    <id>GHCND:USC00406861</id>
    <displayName>ORLINDA, TN US</displayName>
    <minDate>1950-12-01</minDate>
    <maxDate>2013-01-14</maxDate>
    <latitude>36.6</latitude>
    <longitude>-86.7</longitude>
    <elevation>213.4</elevation>
    <locationLabels>
      <type>CNTRY</type>
      <id>FIPS:US</id>
      <displayName>United States</displayName>
    </locationLabels>
    <coverage>0.8579</coverage>
  </station>
  <station>
    <id>GHCND:USC00396357</id>
    <displayName>ORMAN DAM, SD US</displayName>
    <minDate>1906-05-01</minDate>
    <maxDate>1974-06-30</maxDate>
    <latitude>44.73333</latitude>
    <longitude>-103.66667</longitude>
    <elevation>894</elevation>
    <locationLabels>
      <type>CNTRY</type>
      <id>FIPS:US</id>
      <displayName>United States</displayName>
    </locationLabels>
    <coverage>0.9692</coverage>
  </station>
  <station>
    <id>GHCND:US1FLVL0005</id>
    <displayName>ORMOND BEACH 3.5 SE, FL US</displayName>
    <minDate>2007-10-01</minDate>
    <maxDate>2013-01-16</maxDate>
    <latitude>29.265</latitude>
    <longitude>-81.0472</longitude>
    <elevation>7</elevation>
    <locationLabels>
      <type>CNTRY</type>
      <id>FIPS:US</id>
      <displayName>United States</displayName>
    </locationLabels>
    <coverage>0.97</coverage>
  </station>
  <station>
    <id>GHCND:US1AZPM0176</id>
    <displayName>ORO VALLEY 0.4 NW, AZ US</displayName>
    <minDate>2010-09-21</minDate>
    <maxDate>2013-01-16</maxDate>
    <latitude>32.3932</latitude>
    <longitude>-110.9656</longitude>
    <elevation>774.2</elevation>
    <locationLabels>
      <type>CNTRY</type>
      <id>FIPS:US</id>
      <displayName>United States</displayName>
    </locationLabels>
    <coverage>0.934</coverage>
  </station>
  <station>
    <id>GHCND:US1AZPM0069</id>
    <displayName>ORO VALLEY 1.1 ESE, AZ US</displayName>
    <minDate>2009-08-26</minDate>
    <maxDate>2012-12-28</maxDate>
    <latitude>32.4177</latitude>
    <longitude>-110.9475</longitude>
    <elevation>826.9</elevation>
    <locationLabels>
      <type>CNTRY</type>
      <id>FIPS:US</id>
      <displayName>United States</displayName>
    </locationLabels>
    <coverage>0.9738</coverage>
  </station>
  <station>
    <id>GHCND:US1AZPM0101</id>
    <displayName>ORO VALLEY 1.3 W, AZ US</displayName>
    <minDate>2009-10-28</minDate>
    <maxDate>2013-01-16</maxDate>
    <latitude>32.3933</latitude>
    <longitude>-110.9819</longitude>
    <elevation>759.6</elevation>
    <locationLabels>
      <type>CNTRY</type>
      <id>FIPS:US</id>
      <displayName>United States</displayName>
    </locationLabels>
    <coverage>0.8862</coverage>
  </station>
  <station>
    <id>GHCND:US1AZPM0185</id>
    <displayName>ORO VALLEY 1.8 W, AZ US</displayName>
    <minDate>2011-07-01</minDate>
    <maxDate>2013-01-16</maxDate>
    <latitude>32.3924</latitude>
    <longitude>-110.9912</longitude>
    <elevation>760.2</elevation>
    <locationLabels>
      <type>CNTRY</type>
      <id>FIPS:US</id>
      <displayName>United States</displayName>
    </locationLabels>
    <coverage>0.7491</coverage>
  </station>
  <station>
    <id>GHCND:US1AZPM0066</id>
    <displayName>ORO VALLEY 2.0 SSW, AZ US</displayName>
    <minDate>2009-08-22</minDate>
    <maxDate>2013-01-11</maxDate>
    <latitude>32.3985</latitude>
    <longitude>-110.9802</longitude>
    <elevation>774.5</elevation>
    <locationLabels>
      <type>CNTRY</type>
      <id>FIPS:US</id>
      <displayName>United States</displayName>
    </locationLabels>
    <coverage>0.1122</coverage>
  </station>
  <station>
    <id>GHCND:US1AZPM0139</id>
    <displayName>ORO VALLEY 2.1 NNW, AZ US</displayName>
    <minDate>2010-02-01</minDate>
    <maxDate>2013-01-16</maxDate>
    <latitude>32.4166</latitude>
    <longitude>-110.9758</longitude>
    <elevation>834.5</elevation>
    <locationLabels>
      <type>CNTRY</type>
      <id>FIPS:US</id>
      <displayName>United States</displayName>
    </locationLabels>
    <coverage>0.9963</coverage>
  </station>
  <station>
    <id>GHCND:US1AZPM0071</id>
    <displayName>ORO VALLEY 2.5 N, AZ US</displayName>
    <minDate>2009-08-28</minDate>
    <maxDate>2013-01-11</maxDate>
    <latitude>32.4609</latitude>
    <longitude>-110.9572</longitude>
    <elevation>900.7</elevation>
    <locationLabels>
      <type>CNTRY</type>
      <id>FIPS:US</id>
      <displayName>United States</displayName>
    </locationLabels>
    <coverage>0.9854</coverage>
  </station>
  <station>
    <id>GHCND:US1AZPM0035</id>
    <displayName>ORO VALLEY 2.7 N, AZ US</displayName>
    <minDate>2009-09-08</minDate>
    <maxDate>2013-01-16</maxDate>
    <latitude>32.4633</latitude>
    <longitude>-110.9583</longitude>
    <elevation>906.8</elevation>
    <locationLabels>
      <type>CNTRY</type>
      <id>FIPS:US</id>
      <displayName>United States</displayName>
    </locationLabels>
    <coverage>0.8802</coverage>
  </station>
  <station>
    <id>GHCND:US1AZPM0129</id>
    <displayName>ORO VALLEY 2.7 NW, AZ US</displayName>
    <minDate>2010-01-19</minDate>
    <maxDate>2012-09-10</maxDate>
    <latitude>32.4132</latitude>
    <longitude>-110.9969</longitude>
    <elevation>831.2</elevation>
    <locationLabels>
      <type>CNTRY</type>
      <id>FIPS:US</id>
      <displayName>United States</displayName>
    </locationLabels>
    <coverage>0.6304</coverage>
  </station>
  <station>
    <id>GHCND:US1AZPM0083</id>
    <displayName>ORO VALLEY 2.8 NNE, AZ US</displayName>
    <minDate>2009-09-04</minDate>
    <maxDate>2013-01-16</maxDate>
    <latitude>32.4639</latitude>
    <longitude>-110.9542</longitude>
    <elevation>908.6</elevation>
    <locationLabels>
      <type>CNTRY</type>
      <id>FIPS:US</id>
      <displayName>United States</displayName>
    </locationLabels>
    <coverage>0.7547</coverage>
  </station>
  <station>
    <id>GHCND:US1AZPM0192</id>
    <displayName>ORO VALLEY 2.8 NNW, AZ US</displayName>
    <minDate>2011-08-26</minDate>
    <maxDate>2012-10-15</maxDate>
    <latitude>32.43</latitude>
    <longitude>-110.9717</longitude>
    <elevation>858.3</elevation>
    <locationLabels>
      <type>CNTRY</type>
      <id>FIPS:US</id>
      <displayName>United States</displayName>
    </locationLabels>
    <coverage>0.3765</coverage>
  </station>
  <station>
    <id>GHCND:US1AZPM0141</id>
    <displayName>ORO VALLEY 3.1 NNW, AZ US</displayName>
    <minDate>2010-03-02</minDate>
    <maxDate>2013-01-15</maxDate>
    <latitude>32.4289</latitude>
    <longitude>-110.9872</longitude>
    <elevation>866.5</elevation>
    <locationLabels>
      <type>CNTRY</type>
      <id>FIPS:US</id>
      <displayName>United States</displayName>
    </locationLabels>
    <coverage>0.9753</coverage>
  </station>
  <station>
    <id>GHCND:US1AZPM0153</id>
    <displayName>ORO VALLEY 3.1 NW, AZ US</displayName>
    <minDate>2010-06-24</minDate>
    <maxDate>2012-12-31</maxDate>
    <latitude>32.4178</latitude>
    <longitude>-111.0015</longitude>
    <elevation>842.2</elevation>
    <locationLabels>
      <type>CNTRY</type>
      <id>FIPS:US</id>
      <displayName>United States</displayName>
    </locationLabels>
    <coverage>0.256</coverage>
  </station>
  <station>
    <id>GHCND:US1AZPM0162</id>
    <displayName>ORO VALLEY 4.0 NNW, AZ US</displayName>
    <minDate>2010-07-01</minDate>
    <maxDate>2013-01-12</maxDate>
    <latitude>32.4463</latitude>
    <longitude>-110.9733</longitude>
    <elevation>888.5</elevation>
    <locationLabels>
      <type>CNTRY</type>
      <id>FIPS:US</id>
      <displayName>United States</displayName>
    </locationLabels>
    <coverage>0.9892</coverage>
  </station>
  <station>
    <id>GHCND:US1AZPM0120</id>
    <displayName>ORO VALLEY 4.9 N, AZ US</displayName>
    <minDate>2010-01-01</minDate>
    <maxDate>2012-12-14</maxDate>
    <latitude>32.4604</latitude>
    <longitude>-110.9495</longitude>
    <elevation>894.9</elevation>
    <locationLabels>
      <type>CNTRY</type>
      <id>FIPS:US</id>
      <displayName>United States</displayName>
    </locationLabels>
    <coverage>0.8897</coverage>
  </station>
  <station>
    <id>GHCND:US1AZPM0138</id>
    <displayName>ORO VALLEY 4.9 NNW, AZ US</displayName>
    <minDate>2010-01-18</minDate>
    <maxDate>2013-01-16</maxDate>
    <latitude>32.456</latitude>
    <longitude>-110.9895</longitude>
    <elevation>905.3</elevation>
    <locationLabels>
      <type>CNTRY</type>
      <id>FIPS:US</id>
      <displayName>United States</displayName>
    </locationLabels>
    <coverage>0.6566</coverage>
  </station>
  <station>
    <id>GHCND:US1AZPM0137</id>
    <displayName>ORO VALLEY 5.8 N, AZ US</displayName>
    <minDate>2010-02-07</minDate>
    <maxDate>2013-01-16</maxDate>
    <latitude>32.4745</latitude>
    <longitude>-110.958</longitude>
    <elevation>914.4</elevation>
    <locationLabels>
      <type>CNTRY</type>
      <id>FIPS:US</id>
      <displayName>United States</displayName>
    </locationLabels>
    <coverage>0.8633</coverage>
  </station>
  <station>
    <id>GHCND:US1IDCW0003</id>
    <displayName>OROFINO 1.0 NW, ID US</displayName>
    <minDate>2009-01-01</minDate>
    <maxDate>2012-10-24</maxDate>
    <latitude>46.4965</latitude>
    <longitude>-116.275</longitude>
    <elevation>391.4</elevation>
    <locationLabels>
      <type>CNTRY</type>
      <id>FIPS:US</id>
      <displayName>United States</displayName>
    </locationLabels>
    <coverage>0.4487</coverage>
  </station>
  <station>
    <id>GHCND:US1IDCW0001</id>
    <displayName>OROFINO 1.2 SSE, ID US</displayName>
    <minDate>2008-12-29</minDate>
    <maxDate>2011-12-31</maxDate>
    <latitude>46.4722</latitude>
    <longitude>-116.2475</longitude>
    <elevation>410.6</elevation>
    <locationLabels>
      <type>CNTRY</type>
      <id>FIPS:US</id>
      <displayName>United States</displayName>
    </locationLabels>
    <coverage>0.4681</coverage>
  </station>
  <station>
    <id>GHCND:US1IDCW0006</id>
    <displayName>OROFINO 3.8 WNW, ID US</displayName>
    <minDate>2011-01-19</minDate>
    <maxDate>2013-01-16</maxDate>
    <latitude>46.4997</latitude>
    <longitude>-116.3355</longitude>
    <elevation>311.5</elevation>
    <locationLabels>
      <type>CNTRY</type>
      <id>FIPS:US</id>
      <displayName>United States</displayName>
    </locationLabels>
    <coverage>0.834</coverage>
  </station>
  <station>
    <id>GHCND:US1IDCW0005</id>
    <displayName>OROFINO 7.8 ESE, ID US</displayName>
    <minDate>2010-04-28</minDate>
    <maxDate>2012-12-21</maxDate>
    <latitude>46.4424</latitude>
    <longitude>-116.1072</longitude>
    <elevation>806.5</elevation>
    <locationLabels>
      <type>CNTRY</type>
      <id>FIPS:US</id>
      <displayName>United States</displayName>
    </locationLabels>
    <coverage>0.8813</coverage>
  </station>
  <station>
    <id>GHCND:USC00106681</id>
    <displayName>OROFINO, ID US</displayName>
    <minDate>1903-08-17</minDate>
    <maxDate>1981-12-30</maxDate>
    <latitude>46.48333</latitude>
    <longitude>-116.26667</longitude>
    <elevation>402.3</elevation>
    <locationLabels>
      <type>CNTRY</type>
      <id>FIPS:US</id>
      <displayName>United States</displayName>
    </locationLabels>
    <coverage>0.9695</coverage>
  </station>
  <station>
    <id>GHCND:USC00296435</id>
    <displayName>OROGRANDE, NM US</displayName>
    <minDate>1904-12-01</minDate>
    <maxDate>2013-01-15</maxDate>
    <latitude>32.3788</latitude>
    <longitude>-106.0924</longitude>
    <elevation>1286.6</elevation>
    <locationLabels>
      <type>CNTRY</type>
      <id>FIPS:US</id>
      <displayName>United States</displayName>
    </locationLabels>
    <coverage>0.8911</coverage>
  </station>
  <station>
    <id>GHCND:US1MEPN0005</id>
    <displayName>ORONO 5.2 W, ME US</displayName>
    <minDate>2009-08-14</minDate>
    <maxDate>2012-10-31</maxDate>
    <latitude>44.8874</latitude>
    <longitude>-68.7882</longitude>
    <elevation>36.3</elevation>
    <locationLabels>
      <type>CNTRY</type>
      <id>FIPS:US</id>
      <displayName>United States</displayName>
    </locationLabels>
    <coverage>0.6834</coverage>
  </station>
  <station>
    <id>GHCND:USC00265818</id>
    <displayName>OROVADA 3 W, NV US</displayName>
    <minDate>1911-08-01</minDate>
    <maxDate>2013-01-15</maxDate>
    <latitude>41.56778</latitude>
    <longitude>-117.83861</longitude>
    <elevation>1280.2</elevation>
    <locationLabels>
      <type>CNTRY</type>
      <id>FIPS:US</id>
      <displayName>United States</displayName>
    </locationLabels>
    <coverage>0.9311</coverage>
  </station>
  <station>
    <id>GHCND:USC00265819</id>
    <displayName>OROVADA 9 SSW, NV US</displayName>
    <minDate>1971-03-01</minDate>
    <maxDate>1974-06-30</maxDate>
    <latitude>41.45</latitude>
    <longitude>-117.83333</longitude>
    <elevation>1266.1</elevation>
    <locationLabels>
      <type>CNTRY</type>
      <id>FIPS:US</id>
      <displayName>United States</displayName>
    </locationLabels>
    <coverage>0.6806</coverage>
  </station>
  <station>
    <id>GHCND:US1WAOK0005</id>
    <displayName>OROVILLE 1.2 NNW, WA US</displayName>
    <minDate>2008-09-10</minDate>
    <maxDate>2013-01-16</maxDate>
    <latitude>48.9576</latitude>
    <longitude>-119.4432</longitude>
    <elevation>297.8</elevation>
    <locationLabels>
      <type>CNTRY</type>
      <id>FIPS:US</id>
      <displayName>United States</displayName>
    </locationLabels>
    <coverage>0.8906</coverage>
  </station>
  <station>
    <id>GHCND:US1CABT0002</id>
    <displayName>OROVILLE 2.7 ENE, CA US</displayName>
    <minDate>2010-06-01</minDate>
    <maxDate>2013-01-16</maxDate>
    <latitude>39.514</latitude>
    <longitude>-121.518</longitude>
    <elevation>163.1</elevation>
    <locationLabels>
      <type>CNTRY</type>
      <id>FIPS:US</id>
      <displayName>United States</displayName>
    </locationLabels>
    <coverage>0.9958</coverage>
  </station>
  <station>
    <id>GHCND:USC00456188</id>
    <displayName>OROVILLE 3 NW, WA US</displayName>
    <minDate>1909-02-03</minDate>
    <maxDate>1960-05-03</maxDate>
    <latitude>48.96667</latitude>
    <longitude>-119.5</longitude>
    <elevation>323.1</elevation>
    <locationLabels>
      <type>CNTRY</type>
      <id>FIPS:US</id>
      <displayName>United States</displayName>
    </locationLabels>
    <coverage>0.8901</coverage>
  </station>
  <station>
    <id>GHCND:US1CABT0005</id>
    <displayName>OROVILLE 4.8 E, CA US</displayName>
    <minDate>2010-12-16</minDate>
    <maxDate>2013-01-16</maxDate>
    <latitude>39.4932</latitude>
    <longitude>-121.477</longitude>
    <elevation>203.6</elevation>
    <locationLabels>
      <type>CNTRY</type>
      <id>FIPS:US</id>
      <displayName>United States</displayName>
    </locationLabels>
    <coverage>0.8729</coverage>
  </station>
  <station>
    <id>GHCND:USC00046523</id>
    <displayName>OROVILLE 7 SE, CA US</displayName>
    <minDate>1949-06-01</minDate>
    <maxDate>1961-02-28</maxDate>
    <latitude>39.43333</latitude>
    <longitude>-121.48333</longitude>
    <elevation>161.8</elevation>
    <locationLabels>
      <type>CNTRY</type>
      <id>FIPS:US</id>
      <displayName>United States</displayName>
    </locationLabels>
    <coverage>0.9389</coverage>
  </station>
  <station>
    <id>GHCND:USC00048099</id>
    <displayName>OROVILLE 7 SE, CA US</displayName>
    <minDate>1919-11-01</minDate>
    <maxDate>1949-06-18</maxDate>
    <latitude>39.43333</latitude>
    <longitude>-121.48333</longitude>
    <elevation>161.8</elevation>
    <locationLabels>
      <type>CNTRY</type>
      <id>FIPS:US</id>
      <displayName>United States</displayName>
    </locationLabels>
    <coverage>0.9969</coverage>
  </station>
  <station>
    <id>GHCND:US1WAOK0003</id>
    <displayName>OROVILLE 9.2 WNW, WA US</displayName>
    <minDate>2008-06-26</minDate>
    <maxDate>2013-01-16</maxDate>
    <latitude>48.9832</latitude>
    <longitude>-119.6245</longitude>
    <elevation>352.7</elevation>
    <locationLabels>
      <type>CNTRY</type>
      <id>FIPS:US</id>
      <displayName>United States</displayName>
    </locationLabels>
    <coverage>0.8667</coverage>
  </station>
  <station>
    <id>GHCND:USC00046525</id>
    <displayName>OROVILLE BRIDGE, CA US</displayName>
    <minDate>1893-04-01</minDate>
    <maxDate>1975-08-31</maxDate>
    <latitude>39.51667</latitude>
    <longitude>-121.56667</longitude>
    <elevation>52.1</elevation>
    <locationLabels>
      <type>CNTRY</type>
      <id>FIPS:US</id>
      <displayName>United States</displayName>
    </locationLabels>
    <coverage>0.8142</coverage>
  </station>
  <station>
    <id>GHCND:USC00046527</id>
    <displayName>OROVILLE DAM, CA US</displayName>
    <minDate>1979-11-01</minDate>
    <maxDate>1982-11-30</maxDate>
    <latitude>39.53333</latitude>
    <longitude>-121.48333</longitude>
    <elevation>257.6</elevation>
    <locationLabels>
      <type>CNTRY</type>
      <id>FIPS:US</id>
      <displayName>United States</displayName>
    </locationLabels>
    <coverage>0.9174</coverage>
  </station>
  <station>
    <id>GHCND:USW00093210</id>
    <displayName>OROVILLE MUNICIPAL AIRPORT, CA US</displayName>
    <minDate>1998-06-13</minDate>
    <maxDate>2013-01-14</maxDate>
    <latitude>39.49</latitude>
    <longitude>-121.61833</longitude>
    <elevation>57.9</elevation>
    <locationLabels>
      <type>CNTRY</type>
      <id>FIPS:US</id>
      <displayName>United States</displayName>
    </locationLabels>
    <coverage>0.9871</coverage>
  </station>
  <station>
    <id>GHCND:USC00046528</id>
    <displayName>OROVILLE RANGER STATION, CA US</displayName>
    <minDate>1948-07-01</minDate>
    <maxDate>1978-12-31</maxDate>
    <latitude>39.53333</latitude>
    <longitude>-121.56667</longitude>
    <elevation>92</elevation>
    <locationLabels>
      <type>CNTRY</type>
      <id>FIPS:US</id>
      <displayName>United States</displayName>
    </locationLabels>
    <coverage>0.1968</coverage>
  </station>
  <station>
    <id>GHCND:USC00046522</id>
    <displayName>OROVILLE, CA US</displayName>
    <minDate>1893-03-01</minDate>
    <maxDate>1953-04-22</maxDate>
    <latitude>39.5177</latitude>
    <longitude>-121.553</longitude>
    <elevation>52.1</elevation>
    <locationLabels>
      <type>CNTRY</type>
      <id>FIPS:US</id>
      <displayName>United States</displayName>
    </locationLabels>
    <coverage>0.9024</coverage>
  </station>
  <station>
    <id>GHCND:USC00046521</id>
    <displayName>OROVILLE, CA US</displayName>
    <minDate>1953-04-22</minDate>
    <maxDate>2012-11-30</maxDate>
    <latitude>39.5177</latitude>
    <longitude>-121.553</longitude>
    <elevation>52.1</elevation>
    <locationLabels>
      <type>CNTRY</type>
      <id>FIPS:US</id>
      <displayName>United States</displayName>
    </locationLabels>
    <coverage>0.8421</coverage>
  </station>
  <station>
    <id>GHCND:USC00456187</id>
    <displayName>OROVILLE, WA US</displayName>
    <minDate>1960-05-01</minDate>
    <maxDate>1970-02-28</maxDate>
    <latitude>48.93333</latitude>
    <longitude>-119.43333</longitude>
    <elevation>284.1</elevation>
    <locationLabels>
      <type>CNTRY</type>
      <id>FIPS:US</id>
      <displayName>United States</displayName>
    </locationLabels>
    <coverage>0.8948</coverage>
  </station>
  <station>
    <id>GHCND:USC00216211</id>
    <displayName>ORR 3 E, MN US</displayName>
    <minDate>2007-08-01</minDate>
    <maxDate>2013-01-16</maxDate>
    <latitude>48.0508</latitude>
    <longitude>-92.7636</longitude>
    <elevation>400.8</elevation>
    <locationLabels>
      <type>CNTRY</type>
      <id>FIPS:US</id>
      <displayName>United States</displayName>
    </locationLabels>
    <coverage>0.9494</coverage>
  </station>
  <station>
    <id>GHCND:USR0000MORR</id>
    <displayName>ORR MINNESOTA, MN US</displayName>
    <minDate>2003-01-06</minDate>
    <maxDate>2012-08-31</maxDate>
    <latitude>48.0189</latitude>
    <longitude>-92.8572</longitude>
    <elevation>403.9</elevation>
    <locationLabels>
      <type>CNTRY</type>
      <id>FIPS:US</id>
      <displayName>United States</displayName>
    </locationLabels>
    <coverage>0.8795</coverage>
  </station>
  <station>
    <id>GHCND:USC00216213</id>
    <displayName>ORR, MN US</displayName>
    <minDate>1926-01-01</minDate>
    <maxDate>1954-07-31</maxDate>
    <latitude>48.0553</latitude>
    <longitude>-92.8425</longitude>
    <elevation>423.7</elevation>
    <locationLabels>
      <type>CNTRY</type>
      <id>FIPS:US</id>
      <displayName>United States</displayName>
    </locationLabels>
    <coverage>0.9545</coverage>
  </station>
  <station>
    <id>GHCND:USC00346764</id>
    <displayName>ORR, OK US</displayName>
    <minDate>1944-07-01</minDate>
    <maxDate>1955-01-31</maxDate>
    <latitude>34.03333</latitude>
    <longitude>-97.53333</longitude>
    <elevation>262.1</elevation>
    <locationLabels>
      <type>CNTRY</type>
      <id>FIPS:US</id>
      <displayName>United States</displayName>
    </locationLabels>
    <coverage>0.8151</coverage>
  </station>
  <station>
    <id>GHCND:USC00426551</id>
    <displayName>ORRS RANCH, UT US</displayName>
    <minDate>1925-01-01</minDate>
    <maxDate>1949-04-30</maxDate>
    <latitude>40.3</latitude>
    <longitude>-112.75</longitude>
    <elevation>1360</elevation>
    <locationLabels>
      <type>CNTRY</type>
      <id>FIPS:US</id>
      <displayName>United States</displayName>
    </locationLabels>
    <coverage>0.9129</coverage>
  </station>
  <station>
    <id>GHCND:US1PAAD0006</id>
    <displayName>ORRTANNA 3.2 NNW, PA US</displayName>
    <minDate>2012-07-08</minDate>
    <maxDate>2013-01-16</maxDate>
    <latitude>39.8896</latitude>
    <longitude>-77.3756</longitude>
    <elevation>360.6</elevation>
    <locationLabels>
      <type>CNTRY</type>
      <id>FIPS:US</id>
      <displayName>United States</displayName>
    </locationLabels>
    <coverage>0.9793</coverage>
  </station>
  <station>
    <id>GHCND:USC00016161</id>
    <displayName>ORRVILLE, AL US</displayName>
    <minDate>1891-07-01</minDate>
    <maxDate>1973-05-31</maxDate>
    <latitude>32.3</latitude>
    <longitude>-87.23333</longitude>
    <elevation>61</elevation>
    <locationLabels>
      <type>CNTRY</type>
      <id>FIPS:US</id>
      <displayName>United States</displayName>
    </locationLabels>
    <coverage>0.3795</coverage>
  </station>
  <station>
    <id>GHCND:USC00416694</id>
    <displayName>ORSON RANCH, TX US</displayName>
    <minDate>1941-01-01</minDate>
    <maxDate>1948-12-24</maxDate>
    <latitude>32.75</latitude>
    <longitude>-101.68333</longitude>
    <elevation>808</elevation>
    <locationLabels>
      <type>CNTRY</type>
      <id>FIPS:US</id>
      <displayName>United States</displayName>
    </locationLabels>
    <coverage>0.6439</coverage>
  </station>
  <station>
    <id>GHCND:USC00456201</id>
    <displayName>ORTING 4 S, WA US</displayName>
    <minDate>1944-01-01</minDate>
    <maxDate>1950-03-31</maxDate>
    <latitude>47.03333</latitude>
    <longitude>-122.2</longitude>
    <elevation>107</elevation>
    <locationLabels>
      <type>CNTRY</type>
      <id>FIPS:US</id>
      <displayName>United States</displayName>
    </locationLabels>
    <coverage>0.5968</coverage>
  </station>
  <station>
    <id>GHCND:US1NJOC0021</id>
    <displayName>ORTLEY BEACH 0.3 W, NJ US</displayName>
    <minDate>2009-07-17</minDate>
    <maxDate>2011-06-26</maxDate>
    <latitude>39.954</latitude>
    <longitude>-74.0779</longitude>
    <elevation>1.2</elevation>
    <locationLabels>
      <type>CNTRY</type>
      <id>FIPS:US</id>
      <displayName>United States</displayName>
    </locationLabels>
    <coverage>0.3493</coverage>
  </station>
  <station>
    <id>GHCND:USC00356357</id>
    <displayName>ORTLEY, OR US</displayName>
    <minDate>1912-01-01</minDate>
    <maxDate>1923-08-31</maxDate>
    <latitude>45.65</latitude>
    <longitude>-121.283333</longitude>
    <elevation>487.7</elevation>
    <locationLabels>
      <type>CNTRY</type>
      <id>FIPS:US</id>
      <displayName>United States</displayName>
    </locationLabels>
    <coverage>0.9667</coverage>
  </station>
  <station>
    <id>GHCND:USC00086657</id>
    <displayName>ORTONA LOCK 2, FL US</displayName>
    <minDate>1940-03-08</minDate>
    <maxDate>2013-01-16</maxDate>
    <latitude>26.7897</latitude>
    <longitude>-81.3044</longitude>
    <elevation>6.1</elevation>
    <locationLabels>
      <type>CNTRY</type>
      <id>FIPS:US</id>
      <displayName>United States</displayName>
    </locationLabels>
    <coverage>0.2613</coverage>
  </station>
  <station>
    <id>GHCND:USC00216225</id>
    <displayName>ORTONVILLE 1 N, MN US</displayName>
    <minDate>2005-02-01</minDate>
    <maxDate>2012-12-28</maxDate>
    <latitude>45.3093</latitude>
    <longitude>-96.4292</longitude>
    <elevation>335</elevation>
    <locationLabels>
      <type>CNTRY</type>
      <id>FIPS:US</id>
      <displayName>United States</displayName>
    </locationLabels>
    <coverage>0.929</coverage>
  </station>
  <station>
    <id>GHCND:US1MIOK0018</id>
    <displayName>ORTONVILLE 2.4 WSW, MI US</displayName>
    <minDate>2008-08-24</minDate>
    <maxDate>2012-12-02</maxDate>
    <latitude>42.8391</latitude>
    <longitude>-83.4882</longitude>
    <elevation>313</elevation>
    <locationLabels>
      <type>CNTRY</type>
      <id>FIPS:US</id>
      <displayName>United States</displayName>
    </locationLabels>
    <coverage>0.4706</coverage>
  </station>
  <station>
    <id>GHCND:US1MIOK0021</id>
    <displayName>ORTONVILLE 3.3 ESE, MI US</displayName>
    <minDate>2008-09-14</minDate>
    <maxDate>2012-10-27</maxDate>
    <latitude>42.8378</latitude>
    <longitude>-83.3812</longitude>
    <elevation>327.7</elevation>
    <locationLabels>
      <type>CNTRY</type>
      <id>FIPS:US</id>
      <displayName>United States</displayName>
    </locationLabels>
    <coverage>0.4904</coverage>
  </station>
  <station>
    <id>GHCND:USC00216224</id>
    <displayName>ORTONVILLE, MN US</displayName>
    <minDate>1892-01-01</minDate>
    <maxDate>1983-03-31</maxDate>
    <latitude>45.3</latitude>
    <longitude>-96.45</longitude>
    <elevation>299</elevation>
    <locationLabels>
      <type>CNTRY</type>
      <id>FIPS:US</id>
      <displayName>United States</displayName>
    </locationLabels>
    <coverage>0.4829</coverage>
  </station>
  <station>
    <id>GHCND:US1VTAD0005</id>
    <displayName>ORWELL 1.2 WNW, VT US</displayName>
    <minDate>2009-04-21</minDate>
    <maxDate>2012-11-13</maxDate>
    <latitude>43.8119</latitude>
    <longitude>-73.3197</longitude>
    <elevation>85.3</elevation>
    <locationLabels>
      <type>CNTRY</type>
      <id>FIPS:US</id>
      <displayName>United States</displayName>
    </locationLabels>
    <coverage>0.6224</coverage>
  </station>
  <station>
    <id>GHCND:USC00366622</id>
    <displayName>ORWELL 2 NW, PA US</displayName>
    <minDate>1961-05-01</minDate>
    <maxDate>1993-12-31</maxDate>
    <latitude>41.91667</latitude>
    <longitude>-76.3</longitude>
    <elevation>487.7</elevation>
    <locationLabels>
      <type>CNTRY</type>
      <id>FIPS:US</id>
      <displayName>United States</displayName>
    </locationLabels>
    <coverage>0.9867</coverage>
  </station>
  <station>
    <id>GHCND:USC00366621</id>
    <displayName>ORWELL 3 N, PA US</displayName>
    <minDate>1944-11-01</minDate>
    <maxDate>1960-08-31</maxDate>
    <latitude>41.91667</latitude>
    <longitude>-76.26667</longitude>
    <elevation>494.1</elevation>
    <locationLabels>
      <type>CNTRY</type>
      <id>FIPS:US</id>
      <displayName>United States</displayName>
    </locationLabels>
    <coverage>0.9882</coverage>
  </station>
  <station>
    <id>GHCND:USC00216228</id>
    <displayName>ORWELL DAM, MN US</displayName>
    <minDate>1971-06-01</minDate>
    <maxDate>2012-11-30</maxDate>
    <latitude>46.2147</latitude>
    <longitude>-96.1783</longitude>
    <elevation>329.2</elevation>
    <locationLabels>
      <type>CNTRY</type>
      <id>FIPS:US</id>
      <displayName>United States</displayName>
    </locationLabels>
    <coverage>0.795</coverage>
  </station>
  <station>
    <id>GHCND:US1PASC0003</id>
    <displayName>ORWIGSBURG 1.9 W, PA US</displayName>
    <minDate>2006-09-12</minDate>
    <maxDate>2013-01-16</maxDate>
    <latitude>40.6564</latitude>
    <longitude>-76.1394</longitude>
    <elevation>220.1</elevation>
    <locationLabels>
      <type>CNTRY</type>
      <id>FIPS:US</id>
      <displayName>United States</displayName>
    </locationLabels>
    <coverage>0.737</coverage>
  </station>
  <station>
    <id>GHCND:USC00366625</id>
    <displayName>ORWIGSBURG, PA US</displayName>
    <minDate>1938-01-01</minDate>
    <maxDate>1942-09-30</maxDate>
    <latitude>40.6525</latitude>
    <longitude>-76.1025</longitude>
    <elevation>178.3</elevation>
    <locationLabels>
      <type>CNTRY</type>
      <id>FIPS:US</id>
      <displayName>United States</displayName>
    </locationLabels>
    <coverage>0.7468</coverage>
  </station>
  <station>
    <id>GHCND:USC00486941</id>
    <displayName>OSAGE 10 NNE, WY US</displayName>
    <minDate>1950-04-22</minDate>
    <maxDate>1958-06-30</maxDate>
    <latitude>44.13333</latitude>
    <longitude>-104.38333</longitude>
    <elevation>1478.9</elevation>
    <locationLabels>
      <type>CNTRY</type>
      <id>FIPS:US</id>
      <displayName>United States</displayName>
    </locationLabels>
    <coverage>0.9682</coverage>
  </station>
  <station>
    <id>GHCND:USC00486937</id>
    <displayName>OSAGE 8 WSW, WY US</displayName>
    <minDate>1948-10-01</minDate>
    <maxDate>1949-09-30</maxDate>
    <latitude>43.95</latitude>
    <longitude>-104.55</longitude>
    <locationLabels>
      <type>CNTRY</type>
      <id>FIPS:US</id>
      <displayName>United States</displayName>
    </locationLabels>
    <coverage>0.989</coverage>
  </station>
  <station>
    <id>GHCND:USC00486939</id>
    <displayName>OSAGE 9 NNE, WY US</displayName>
    <minDate>1948-09-01</minDate>
    <maxDate>1949-12-02</maxDate>
    <latitude>44.1</latitude>
    <longitude>-104.35</longitude>
    <locationLabels>
      <type>CNTRY</type>
      <id>FIPS:US</id>
      <displayName>United States</displayName>
    </locationLabels>
    <coverage>0.9803</coverage>
  </station>
  <station>
    <id>GHCND:US1KSOS0005</id>
    <displayName>OSAGE CITY 0.8 S, KS US</displayName>
    <minDate>2006-12-01</minDate>
    <maxDate>2009-12-10</maxDate>
    <latitude>38.6214</latitude>
    <longitude>-95.8214</longitude>
    <elevation>335</elevation>
    <locationLabels>
      <type>CNTRY</type>
      <id>FIPS:US</id>
      <displayName>United States</displayName>
    </locationLabels>
    <coverage>1</coverage>
  </station>
  <station>
    <id>GHCND:US1KSOS0004</id>
    <displayName>OSAGE CITY 5.2 SW, KS US</displayName>
    <minDate>2006-11-25</minDate>
    <maxDate>2013-01-16</maxDate>
    <latitude>38.5791</latitude>
    <longitude>-95.8872</longitude>
    <elevation>371.9</elevation>
    <locationLabels>
      <type>CNTRY</type>
      <id>FIPS:US</id>
      <displayName>United States</displayName>
    </locationLabels>
    <coverage>0.9964</coverage>
  </station>
  <station>
    <id>GHCND:USC00146076</id>
    <displayName>OSAGE CITY, KS US</displayName>
    <minDate>1896-05-01</minDate>
    <maxDate>2013-01-16</maxDate>
    <latitude>38.63611</latitude>
    <longitude>-95.80306</longitude>
    <elevation>331.9</elevation>
    <locationLabels>
      <type>CNTRY</type>
      <id>FIPS:US</id>
      <displayName>United States</displayName>
    </locationLabels>
    <coverage>0.8417</coverage>
  </station>
  <station>
    <id>GHCND:USC00136305</id>
    <displayName>OSAGE, IA US</displayName>
    <minDate>1893-01-01</minDate>
    <maxDate>2013-01-16</maxDate>
    <latitude>43.2794</latitude>
    <longitude>-92.8106</longitude>
    <elevation>356.6</elevation>
    <locationLabels>
      <type>CNTRY</type>
      <id>FIPS:US</id>
      <displayName>United States</displayName>
    </locationLabels>
    <coverage>0.8947</coverage>
  </station>
  <station>
    <id>GHCND:USC00486935</id>
    <displayName>OSAGE, WY US</displayName>
    <minDate>1948-09-01</minDate>
    <maxDate>1952-08-30</maxDate>
    <latitude>43.9781</latitude>
    <longitude>-104.4194</longitude>
    <elevation>1316.7</elevation>
    <locationLabels>
      <type>CNTRY</type>
      <id>FIPS:US</id>
      <displayName>United States</displayName>
    </locationLabels>
    <coverage>0.8021</coverage>
  </station>
  <station>
    <id>GHCND:USC00216233</id>
    <displayName>OSAKIS, MN US</displayName>
    <minDate>1907-06-01</minDate>
    <maxDate>1916-03-31</maxDate>
    <latitude>45.85</latitude>
    <longitude>-95.18333</longitude>
    <elevation>409.3</elevation>
    <locationLabels>
      <type>CNTRY</type>
      <id>FIPS:US</id>
      <displayName>United States</displayName>
    </locationLabels>
    <coverage>0.9554</coverage>
  </station>
  <station>
    <id>GHCND:USC00146084</id>
    <displayName>OSAWATOMIE, KS US</displayName>
    <minDate>1944-07-01</minDate>
    <maxDate>2013-01-16</maxDate>
    <latitude>38.5019</latitude>
    <longitude>-94.9597</longitude>
    <elevation>262.1</elevation>
    <locationLabels>
      <type>CNTRY</type>
      <id>FIPS:US</id>
      <displayName>United States</displayName>
    </locationLabels>
    <coverage>0.9925</coverage>
  </station>
  <station>
    <id>GHCND:US1KSOB0002</id>
    <displayName>OSBORNE 0.4 E, KS US</displayName>
    <minDate>2010-05-01</minDate>
    <maxDate>2012-11-11</maxDate>
    <latitude>39.4401</latitude>
    <longitude>-98.6901</longitude>
    <elevation>472.7</elevation>
    <locationLabels>
      <type>CNTRY</type>
      <id>FIPS:US</id>
      <displayName>United States</displayName>
    </locationLabels>
    <coverage>0.1123</coverage>
  </station>
  <station>
    <id>GHCND:US1KSOB0001</id>
    <displayName>OSBORNE 2.1 E, KS US</displayName>
    <minDate>2005-03-03</minDate>
    <maxDate>2010-09-02</maxDate>
    <latitude>39.4381</latitude>
    <longitude>-98.6585</longitude>
    <elevation>470.9</elevation>
    <locationLabels>
      <type>CNTRY</type>
      <id>FIPS:US</id>
      <displayName>United States</displayName>
    </locationLabels>
    <coverage>0.3512</coverage>
  </station>
  <station>
    <id>GHCND:USC00146088</id>
    <displayName>OSBORNE, KS US</displayName>
    <minDate>1956-09-07</minDate>
    <maxDate>1995-02-28</maxDate>
    <latitude>39.42861</latitude>
    <longitude>-98.69444</longitude>
    <elevation>490.7</elevation>
    <locationLabels>
      <type>CNTRY</type>
      <id>FIPS:US</id>
      <displayName>United States</displayName>
    </locationLabels>
    <coverage>0.9831</coverage>
  </station>
  <station>
    <id>GHCND:USC00146085</id>
    <displayName>OSBORNE, KS US</displayName>
    <minDate>1897-06-05</minDate>
    <maxDate>1905-11-27</maxDate>
    <latitude>39.433333</latitude>
    <longitude>-98.7</longitude>
    <locationLabels>
      <type>CNTRY</type>
      <id>FIPS:US</id>
      <displayName>United States</displayName>
    </locationLabels>
    <coverage>0.6526</coverage>
  </station>
  <station>
    <id>GHCND:USR0000MOSC</id>
    <displayName>OSCAR MONTANA, MT US</displayName>
    <minDate>1999-09-09</minDate>
    <maxDate>2012-08-31</maxDate>
    <latitude>47.3283</latitude>
    <longitude>-108.925</longitude>
    <elevation>1086.6</elevation>
    <locationLabels>
      <type>CNTRY</type>
      <id>FIPS:US</id>
      <displayName>United States</displayName>
    </locationLabels>
    <coverage>0.7876</coverage>
  </station>
  <station>
    <id>GHCND:US1MOFSA185</id>
    <displayName>OSCEOLA 0.3 SW, MO US</displayName>
    <minDate>2006-04-24</minDate>
    <maxDate>2013-01-15</maxDate>
    <latitude>38.0431</latitude>
    <longitude>-93.7027</longitude>
    <elevation>248.1</elevation>
    <locationLabels>
      <type>CNTRY</type>
      <id>FIPS:US</id>
      <displayName>United States</displayName>
    </locationLabels>
    <coverage>0.9906</coverage>
  </station>
  <station>
    <id>GHCND:USC00466743</id>
    <displayName>OSCEOLA 1, WV US</displayName>
    <minDate>1912-07-01</minDate>
    <maxDate>1914-12-31</maxDate>
    <latitude>38.716667</latitude>
    <longitude>-79.633333</longitude>
    <elevation>1097.3</elevation>
    <locationLabels>
      <type>CNTRY</type>
      <id>FIPS:US</id>
      <displayName>United States</displayName>
    </locationLabels>
    <coverage>0.6324</coverage>
  </station>
</stationCollection>
