<?xml version="1.0" encoding="UTF-8" standalone="yes"?>
<stationCollection totalCount="46020" pageCount="461" pageSize="100" page="412">
  <station>
    <id>GHCND:USC00318592</id>
    <displayName>THORPE POWERHOUSE, NC US</displayName>
    <minDate>1959-09-01</minDate>
    <maxDate>1962-03-31</maxDate>
    <latitude>35.23333</latitude>
    <longitude>-83.13333</longitude>
    <elevation>708.1</elevation>
    <locationLabels>
      <type>CNTRY</type>
      <id>FIPS:US</id>
      <displayName>United States</displayName>
    </locationLabels>
    <coverage>0.9989</coverage>
  </station>
  <station>
    <id>GHCND:USC00313478</id>
    <displayName>THORPE POWERHOUSE, NC US</displayName>
    <minDate>1949-01-01</minDate>
    <maxDate>1959-08-31</maxDate>
    <latitude>35.23333</latitude>
    <longitude>-83.13333</longitude>
    <elevation>708.1</elevation>
    <locationLabels>
      <type>CNTRY</type>
      <id>FIPS:US</id>
      <displayName>United States</displayName>
    </locationLabels>
    <coverage>0.999</coverage>
  </station>
  <station>
    <id>GHCND:USC00018204</id>
    <displayName>THORSBY 1 SW, AL US</displayName>
    <minDate>1948-07-01</minDate>
    <maxDate>1951-09-30</maxDate>
    <latitude>32.9</latitude>
    <longitude>-86.73333</longitude>
    <elevation>61</elevation>
    <locationLabels>
      <type>CNTRY</type>
      <id>FIPS:US</id>
      <displayName>United States</displayName>
    </locationLabels>
    <coverage>0.9671</coverage>
  </station>
  <station>
    <id>GHCND:USC00018209</id>
    <displayName>THORSBY EXPERIMENTAL STATION, AL US</displayName>
    <minDate>1957-10-01</minDate>
    <maxDate>2013-01-14</maxDate>
    <latitude>32.9205</latitude>
    <longitude>-86.6708</longitude>
    <elevation>207.3</elevation>
    <locationLabels>
      <type>CNTRY</type>
      <id>FIPS:US</id>
      <displayName>United States</displayName>
    </locationLabels>
    <coverage>0.9697</coverage>
  </station>
  <station>
    <id>GHCND:USC00048904</id>
    <displayName>THOUSAND OAKS 1 SW, CA US</displayName>
    <minDate>2004-10-01</minDate>
    <maxDate>2010-11-29</maxDate>
    <latitude>34.18194</latitude>
    <longitude>-118.89861</longitude>
    <elevation>238.7</elevation>
    <locationLabels>
      <type>CNTRY</type>
      <id>FIPS:US</id>
      <displayName>United States</displayName>
    </locationLabels>
    <coverage>0.9209</coverage>
  </station>
  <station>
    <id>GHCND:US1CAVT0001</id>
    <displayName>THOUSAND OAKS 2.1 WSW, CA US</displayName>
    <minDate>2008-11-11</minDate>
    <maxDate>2013-01-16</maxDate>
    <latitude>34.1772</latitude>
    <longitude>-118.8984</longitude>
    <elevation>210.9</elevation>
    <locationLabels>
      <type>CNTRY</type>
      <id>FIPS:US</id>
      <displayName>United States</displayName>
    </locationLabels>
    <coverage>0.9588</coverage>
  </station>
  <station>
    <id>GHCND:US1CAVT0009</id>
    <displayName>THOUSAND OAKS 2.5 WSW, CA US</displayName>
    <minDate>2010-10-06</minDate>
    <maxDate>2013-01-15</maxDate>
    <latitude>34.1787</latitude>
    <longitude>-118.9086</longitude>
    <elevation>214.3</elevation>
    <locationLabels>
      <type>CNTRY</type>
      <id>FIPS:US</id>
      <displayName>United States</displayName>
    </locationLabels>
    <coverage>0.7959</coverage>
  </station>
  <station>
    <id>GHCND:USR0000CTHS</id>
    <displayName>THOUSAND OAKS CALIFORNIA, CA US</displayName>
    <minDate>2002-06-26</minDate>
    <maxDate>2012-08-30</maxDate>
    <latitude>34.21</latitude>
    <longitude>-118.87</longitude>
    <elevation>242.3</elevation>
    <locationLabels>
      <type>CNTRY</type>
      <id>FIPS:US</id>
      <displayName>United States</displayName>
    </locationLabels>
    <coverage>0.9263</coverage>
  </station>
  <station>
    <id>GHCND:USC00048905</id>
    <displayName>THOUSAND OAKS, CA US</displayName>
    <minDate>1956-01-01</minDate>
    <maxDate>1977-06-30</maxDate>
    <latitude>34.21667</latitude>
    <longitude>-118.86667</longitude>
    <elevation>246.9</elevation>
    <locationLabels>
      <type>CNTRY</type>
      <id>FIPS:US</id>
      <displayName>United States</displayName>
    </locationLabels>
    <coverage>0.9623</coverage>
  </station>
  <station>
    <id>GHCND:US1TXWM0048</id>
    <displayName>THRALL 10.5 SSE, TX US</displayName>
    <minDate>2008-03-06</minDate>
    <maxDate>2013-01-15</maxDate>
    <latitude>30.4458</latitude>
    <longitude>-97.235</longitude>
    <elevation>164.9</elevation>
    <locationLabels>
      <type>CNTRY</type>
      <id>FIPS:US</id>
      <displayName>United States</displayName>
    </locationLabels>
    <coverage>0.7501</coverage>
  </station>
  <station>
    <id>GHCND:US1TXWM0076</id>
    <displayName>THRALL 10.8 SSE, TX US</displayName>
    <minDate>2009-08-28</minDate>
    <maxDate>2013-01-15</maxDate>
    <latitude>30.4536</latitude>
    <longitude>-97.206</longitude>
    <elevation>168.9</elevation>
    <locationLabels>
      <type>CNTRY</type>
      <id>FIPS:US</id>
      <displayName>United States</displayName>
    </locationLabels>
    <coverage>0.211</coverage>
  </station>
  <station>
    <id>GHCND:USC00148114</id>
    <displayName>THRALL 4 S, KS US</displayName>
    <minDate>1951-05-02</minDate>
    <maxDate>2013-01-13</maxDate>
    <latitude>37.9394</latitude>
    <longitude>-96.3066</longitude>
    <elevation>432.8</elevation>
    <locationLabels>
      <type>CNTRY</type>
      <id>FIPS:US</id>
      <displayName>United States</displayName>
    </locationLabels>
    <coverage>0.9549</coverage>
  </station>
  <station>
    <id>GHCND:US1TXWM0129</id>
    <displayName>THRALL 7.9 SSE, TX US</displayName>
    <minDate>2012-05-09</minDate>
    <maxDate>2012-12-14</maxDate>
    <latitude>30.4816</latitude>
    <longitude>-97.2485</longitude>
    <elevation>175.3</elevation>
    <locationLabels>
      <type>CNTRY</type>
      <id>FIPS:US</id>
      <displayName>United States</displayName>
    </locationLabels>
    <coverage>0.9727</coverage>
  </station>
  <station>
    <id>GHCND:USC00109119</id>
    <displayName>THREE CREEK, ID US</displayName>
    <minDate>1940-07-01</minDate>
    <maxDate>1987-08-31</maxDate>
    <latitude>42.08333</latitude>
    <longitude>-115.15</longitude>
    <elevation>1664.2</elevation>
    <locationLabels>
      <type>CNTRY</type>
      <id>FIPS:US</id>
      <displayName>United States</displayName>
    </locationLabels>
    <coverage>0.9214</coverage>
  </station>
  <station>
    <id>GHCND:USS0021E13S</id>
    <displayName>THREE CREEKS MEADOW, OR US</displayName>
    <minDate>1980-10-01</minDate>
    <maxDate>2013-01-13</maxDate>
    <latitude>44.15</latitude>
    <longitude>-121.6333</longitude>
    <elevation>1722.1</elevation>
    <locationLabels>
      <type>CNTRY</type>
      <id>FIPS:US</id>
      <displayName>United States</displayName>
    </locationLabels>
    <coverage>0.9003</coverage>
  </station>
  <station>
    <id>GHCND:USC00248222</id>
    <displayName>THREE FORKS, MT US</displayName>
    <minDate>1915-01-01</minDate>
    <maxDate>1931-06-30</maxDate>
    <latitude>45.9</latitude>
    <longitude>-111.533333</longitude>
    <elevation>1240.5</elevation>
    <locationLabels>
      <type>CNTRY</type>
      <id>FIPS:US</id>
      <displayName>United States</displayName>
    </locationLabels>
    <coverage>0.8437</coverage>
  </station>
  <station>
    <id>GHCND:USC00478478</id>
    <displayName>THREE LAKES 10 SE, WI US</displayName>
    <minDate>1948-08-01</minDate>
    <maxDate>1997-06-30</maxDate>
    <latitude>45.71306</latitude>
    <longitude>-89.00278</longitude>
    <elevation>524.3</elevation>
    <locationLabels>
      <type>CNTRY</type>
      <id>FIPS:US</id>
      <displayName>United States</displayName>
    </locationLabels>
    <coverage>0.1591</coverage>
  </station>
  <station>
    <id>GHCND:USC00358466</id>
    <displayName>THREE LYNX, OR US</displayName>
    <minDate>1923-10-01</minDate>
    <maxDate>2013-01-15</maxDate>
    <latitude>45.1219</latitude>
    <longitude>-122.07</longitude>
    <elevation>341.4</elevation>
    <locationLabels>
      <type>CNTRY</type>
      <id>FIPS:US</id>
      <displayName>United States</displayName>
    </locationLabels>
    <coverage>0.9918</coverage>
  </station>
  <station>
    <id>GHCND:US1AZPM0012</id>
    <displayName>THREE POINTS 2.9 S, AZ US</displayName>
    <minDate>2009-08-22</minDate>
    <maxDate>2013-01-16</maxDate>
    <latitude>32.0255</latitude>
    <longitude>-111.2749</longitude>
    <elevation>916.8</elevation>
    <locationLabels>
      <type>CNTRY</type>
      <id>FIPS:US</id>
      <displayName>United States</displayName>
    </locationLabels>
    <coverage>0.8087</coverage>
  </station>
  <station>
    <id>GHCND:USC00028569</id>
    <displayName>THREE POINTS FIRE DEPARTMENT, AZ US</displayName>
    <minDate>2009-11-01</minDate>
    <maxDate>2012-03-09</maxDate>
    <latitude>32.0138</latitude>
    <longitude>-111.2638</longitude>
    <elevation>975.4</elevation>
    <locationLabels>
      <type>CNTRY</type>
      <id>FIPS:US</id>
      <displayName>United States</displayName>
    </locationLabels>
    <coverage>0.457</coverage>
  </station>
  <station>
    <id>GHCND:US1ORDS0024</id>
    <displayName>THREE RIVERS 0.7 NNE, OR US</displayName>
    <minDate>2008-02-10</minDate>
    <maxDate>2013-01-16</maxDate>
    <latitude>43.8294</latitude>
    <longitude>-121.4652</longitude>
    <elevation>1269.2</elevation>
    <locationLabels>
      <type>CNTRY</type>
      <id>FIPS:US</id>
      <displayName>United States</displayName>
    </locationLabels>
    <coverage>0.7072</coverage>
  </station>
  <station>
    <id>GHCND:US1ORDS0020</id>
    <displayName>THREE RIVERS 0.7 NNE, OR US</displayName>
    <minDate>2008-01-16</minDate>
    <maxDate>2013-01-05</maxDate>
    <latitude>43.8298</latitude>
    <longitude>-121.4647</longitude>
    <elevation>1269.2</elevation>
    <locationLabels>
      <type>CNTRY</type>
      <id>FIPS:US</id>
      <displayName>United States</displayName>
    </locationLabels>
    <coverage>0.5168</coverage>
  </station>
  <station>
    <id>GHCND:US1CATL0011</id>
    <displayName>THREE RIVERS 1.7 NE, CA US</displayName>
    <minDate>2011-01-10</minDate>
    <maxDate>2013-01-15</maxDate>
    <latitude>36.4584</latitude>
    <longitude>-118.8858</longitude>
    <elevation>307.8</elevation>
    <locationLabels>
      <type>CNTRY</type>
      <id>FIPS:US</id>
      <displayName>United States</displayName>
    </locationLabels>
    <coverage>0.7463</coverage>
  </station>
  <station>
    <id>GHCND:US1CATL0009</id>
    <displayName>THREE RIVERS 3.5 NE, CA US</displayName>
    <minDate>2009-02-01</minDate>
    <maxDate>2010-06-30</maxDate>
    <latitude>36.4677</latitude>
    <longitude>-118.8539</longitude>
    <elevation>435.9</elevation>
    <locationLabels>
      <type>CNTRY</type>
      <id>FIPS:US</id>
      <displayName>United States</displayName>
    </locationLabels>
    <coverage>0.9631</coverage>
  </station>
  <station>
    <id>GHCND:USC00419007</id>
    <displayName>THREE RIVERS 8 NE, TX US</displayName>
    <minDate>1988-01-01</minDate>
    <maxDate>2013-01-16</maxDate>
    <latitude>28.5816</latitude>
    <longitude>-98.1444</longitude>
    <elevation>76.2</elevation>
    <locationLabels>
      <type>CNTRY</type>
      <id>FIPS:US</id>
      <displayName>United States</displayName>
    </locationLabels>
    <coverage>0.9785</coverage>
  </station>
  <station>
    <id>GHCND:US1TXLO0013</id>
    <displayName>THREE RIVERS 8.6 NNE, TX US</displayName>
    <minDate>2010-01-13</minDate>
    <maxDate>2013-01-16</maxDate>
    <latitude>28.5804</latitude>
    <longitude>-98.118</longitude>
    <elevation>97.8</elevation>
    <locationLabels>
      <type>CNTRY</type>
      <id>FIPS:US</id>
      <displayName>United States</displayName>
    </locationLabels>
    <coverage>0.7709</coverage>
  </station>
  <station>
    <id>GHCND:USC00048914</id>
    <displayName>THREE RIVERS ED PH 2, CA US</displayName>
    <minDate>1909-08-01</minDate>
    <maxDate>1971-06-30</maxDate>
    <latitude>36.46667</latitude>
    <longitude>-118.88333</longitude>
    <elevation>289.9</elevation>
    <locationLabels>
      <type>CNTRY</type>
      <id>FIPS:US</id>
      <displayName>United States</displayName>
    </locationLabels>
    <coverage>0.9778</coverage>
  </station>
  <station>
    <id>GHCND:USC00048917</id>
    <displayName>THREE RIVERS EDISON POWER HOUSE 1, CA US</displayName>
    <minDate>1948-07-01</minDate>
    <maxDate>2013-01-15</maxDate>
    <latitude>36.465</latitude>
    <longitude>-118.8619</longitude>
    <elevation>347.5</elevation>
    <locationLabels>
      <type>CNTRY</type>
      <id>FIPS:US</id>
      <displayName>United States</displayName>
    </locationLabels>
    <coverage>0.6752</coverage>
  </station>
  <station>
    <id>GHCND:USC00208184</id>
    <displayName>THREE RIVERS, MI US</displayName>
    <minDate>1895-09-01</minDate>
    <maxDate>2012-12-31</maxDate>
    <latitude>41.9299</latitude>
    <longitude>-85.6385</longitude>
    <elevation>246.9</elevation>
    <locationLabels>
      <type>CNTRY</type>
      <id>FIPS:US</id>
      <displayName>United States</displayName>
    </locationLabels>
    <coverage>0.7482</coverage>
  </station>
  <station>
    <id>GHCND:USC00298838</id>
    <displayName>THREE RIVERS, NM US</displayName>
    <minDate>1909-07-01</minDate>
    <maxDate>1932-12-31</maxDate>
    <latitude>33.31667</latitude>
    <longitude>-106.08333</longitude>
    <elevation>1389.6</elevation>
    <locationLabels>
      <type>CNTRY</type>
      <id>FIPS:US</id>
      <displayName>United States</displayName>
    </locationLabels>
    <coverage>0.9962</coverage>
  </station>
  <station>
    <id>GHCND:USC00419009</id>
    <displayName>THREE RIVERS, TX US</displayName>
    <minDate>1922-05-01</minDate>
    <maxDate>1987-12-31</maxDate>
    <latitude>28.46667</latitude>
    <longitude>-98.18333</longitude>
    <elevation>45.7</elevation>
    <locationLabels>
      <type>CNTRY</type>
      <id>FIPS:US</id>
      <displayName>United States</displayName>
    </locationLabels>
    <coverage>0.9894</coverage>
  </station>
  <station>
    <id>GHCND:USC00419016</id>
    <displayName>THROCKMORTON 7 NE, TX US</displayName>
    <minDate>2000-03-01</minDate>
    <maxDate>2013-01-16</maxDate>
    <latitude>33.2936</latitude>
    <longitude>-99.1005</longitude>
    <elevation>374.9</elevation>
    <locationLabels>
      <type>CNTRY</type>
      <id>FIPS:US</id>
      <displayName>United States</displayName>
    </locationLabels>
    <coverage>0.9637</coverage>
  </station>
  <station>
    <id>GHCND:USC00419013</id>
    <displayName>THROCKMORTON 8 NNW, TX US</displayName>
    <minDate>1960-01-01</minDate>
    <maxDate>1964-02-29</maxDate>
    <latitude>33.3</latitude>
    <longitude>-99.21667</longitude>
    <locationLabels>
      <type>CNTRY</type>
      <id>FIPS:US</id>
      <displayName>United States</displayName>
    </locationLabels>
    <coverage>0.927</coverage>
  </station>
  <station>
    <id>GHCND:USC00419014</id>
    <displayName>THROCKMORTON, TX US</displayName>
    <minDate>1924-01-01</minDate>
    <maxDate>1999-09-30</maxDate>
    <latitude>33.18056</latitude>
    <longitude>-99.18972</longitude>
    <elevation>417.6</elevation>
    <locationLabels>
      <type>CNTRY</type>
      <id>FIPS:US</id>
      <displayName>United States</displayName>
    </locationLabels>
    <coverage>0.976</coverage>
  </station>
  <station>
    <id>GHCND:USS0010E07S</id>
    <displayName>THUMB DIVIDE, WY US</displayName>
    <minDate>1987-10-01</minDate>
    <maxDate>2013-01-13</maxDate>
    <latitude>44.3667</latitude>
    <longitude>-110.5667</longitude>
    <elevation>2432.3</elevation>
    <locationLabels>
      <type>CNTRY</type>
      <id>FIPS:US</id>
      <displayName>United States</displayName>
    </locationLabels>
    <coverage>0.9444</coverage>
  </station>
  <station>
    <id>GHCND:USS0020A07S</id>
    <displayName>THUNDER BASIN, WA US</displayName>
    <minDate>1987-10-01</minDate>
    <maxDate>2013-01-13</maxDate>
    <latitude>48.5167</latitude>
    <longitude>-120.9833</longitude>
    <elevation>1280.2</elevation>
    <locationLabels>
      <type>CNTRY</type>
      <id>FIPS:US</id>
      <displayName>United States</displayName>
    </locationLabels>
    <coverage>0.8957</coverage>
  </station>
  <station>
    <id>GHCND:USC00398277</id>
    <displayName>THUNDER HAWK, SD US</displayName>
    <minDate>1949-08-02</minDate>
    <maxDate>1966-03-04</maxDate>
    <latitude>45.93333</latitude>
    <longitude>-101.96667</longitude>
    <elevation>783.9</elevation>
    <locationLabels>
      <type>CNTRY</type>
      <id>FIPS:US</id>
      <displayName>United States</displayName>
    </locationLabels>
    <coverage>0.4563</coverage>
  </station>
  <station>
    <id>GHCND:USC00018215</id>
    <displayName>THURLOW DAM, AL US</displayName>
    <minDate>1937-01-01</minDate>
    <maxDate>1992-09-30</maxDate>
    <latitude>32.53333</latitude>
    <longitude>-85.9</longitude>
    <elevation>87.8</elevation>
    <locationLabels>
      <type>CNTRY</type>
      <id>FIPS:US</id>
      <displayName>United States</displayName>
    </locationLabels>
    <coverage>0.9843</coverage>
  </station>
  <station>
    <id>GHCND:US1OHGL0002</id>
    <displayName>THURMAN 2.2 ESE, OH US</displayName>
    <minDate>2010-06-27</minDate>
    <maxDate>2012-08-04</maxDate>
    <latitude>38.8837</latitude>
    <longitude>-82.41</longitude>
    <elevation>197.8</elevation>
    <locationLabels>
      <type>CNTRY</type>
      <id>FIPS:US</id>
      <displayName>United States</displayName>
    </locationLabels>
    <coverage>0.2052</coverage>
  </station>
  <station>
    <id>GHCND:USC00058260</id>
    <displayName>THURMAN 3 ENE, CO US</displayName>
    <minDate>1949-09-01</minDate>
    <maxDate>1953-06-30</maxDate>
    <latitude>39.61667</latitude>
    <longitude>-103.18333</longitude>
    <elevation>1388.1</elevation>
    <locationLabels>
      <type>CNTRY</type>
      <id>FIPS:US</id>
      <displayName>United States</displayName>
    </locationLabels>
    <coverage>0.9578</coverage>
  </station>
  <station>
    <id>GHCND:USC00138233</id>
    <displayName>THURMAN 4 S, IA US</displayName>
    <minDate>1950-10-01</minDate>
    <maxDate>1951-09-30</maxDate>
    <latitude>40.76667</latitude>
    <longitude>-95.75</longitude>
    <locationLabels>
      <type>CNTRY</type>
      <id>FIPS:US</id>
      <displayName>United States</displayName>
    </locationLabels>
    <coverage>0.9863</coverage>
  </station>
  <station>
    <id>GHCND:USC00138231</id>
    <displayName>THURMAN, IA US</displayName>
    <minDate>1897-06-15</minDate>
    <maxDate>1948-11-30</maxDate>
    <latitude>40.81667</latitude>
    <longitude>-95.75</longitude>
    <elevation>296</elevation>
    <locationLabels>
      <type>CNTRY</type>
      <id>FIPS:US</id>
      <displayName>United States</displayName>
    </locationLabels>
    <coverage>0.9697</coverage>
  </station>
  <station>
    <id>GHCND:USC00338308</id>
    <displayName>THURMAN, OH US</displayName>
    <minDate>1893-01-01</minDate>
    <maxDate>1917-10-29</maxDate>
    <latitude>38.933333</latitude>
    <longitude>-82.45</longitude>
    <elevation>212.1</elevation>
    <locationLabels>
      <type>CNTRY</type>
      <id>FIPS:US</id>
      <displayName>United States</displayName>
    </locationLabels>
    <coverage>0.9968</coverage>
  </station>
  <station>
    <id>GHCND:USC00468844</id>
    <displayName>THURMOND, WV US</displayName>
    <minDate>1985-07-01</minDate>
    <maxDate>1991-04-30</maxDate>
    <latitude>37.95</latitude>
    <longitude>-81.08333</longitude>
    <elevation>326.1</elevation>
    <locationLabels>
      <type>CNTRY</type>
      <id>FIPS:US</id>
      <displayName>United States</displayName>
    </locationLabels>
    <coverage>0.9746</coverage>
  </station>
  <station>
    <id>GHCND:US1MDFR0010</id>
    <displayName>THURMONT 0.8 SSE, MD US</displayName>
    <minDate>2008-09-06</minDate>
    <maxDate>2013-01-16</maxDate>
    <latitude>39.6125</latitude>
    <longitude>-77.405</longitude>
    <elevation>152.7</elevation>
    <locationLabels>
      <type>CNTRY</type>
      <id>FIPS:US</id>
      <displayName>United States</displayName>
    </locationLabels>
    <coverage>0.8959</coverage>
  </station>
  <station>
    <id>GHCND:USC00258545</id>
    <displayName>THURSTON 9 E, NE US</displayName>
    <minDate>1946-03-05</minDate>
    <maxDate>1970-10-31</maxDate>
    <latitude>42.18333</latitude>
    <longitude>-96.55</longitude>
    <elevation>402.9</elevation>
    <locationLabels>
      <type>CNTRY</type>
      <id>FIPS:US</id>
      <displayName>United States</displayName>
    </locationLabels>
    <coverage>0.9383</coverage>
  </station>
  <station>
    <id>GHCND:USC00308498</id>
    <displayName>THURSTON, NY US</displayName>
    <minDate>1948-05-01</minDate>
    <maxDate>1951-09-30</maxDate>
    <latitude>42.20722</latitude>
    <longitude>-77.33056</longitude>
    <elevation>493.8</elevation>
    <locationLabels>
      <type>CNTRY</type>
      <id>FIPS:US</id>
      <displayName>United States</displayName>
    </locationLabels>
    <coverage>0.7059</coverage>
  </station>
  <station>
    <id>GHCND:USC00228784</id>
    <displayName>THYATIRA, MS US</displayName>
    <minDate>1946-11-01</minDate>
    <maxDate>1957-10-31</maxDate>
    <latitude>34.63333</latitude>
    <longitude>-89.75</longitude>
    <locationLabels>
      <type>CNTRY</type>
      <id>FIPS:US</id>
      <displayName>United States</displayName>
    </locationLabels>
    <coverage>0.9632</coverage>
  </station>
  <station>
    <id>GHCND:USC00228792</id>
    <displayName>TIBBEE, MS US</displayName>
    <minDate>1956-09-02</minDate>
    <maxDate>2012-09-30</maxDate>
    <latitude>33.5377</latitude>
    <longitude>-88.633</longitude>
    <elevation>64</elevation>
    <locationLabels>
      <type>CNTRY</type>
      <id>FIPS:US</id>
      <displayName>United States</displayName>
    </locationLabels>
    <coverage>0.9602</coverage>
  </station>
  <station>
    <id>GHCND:USC00018223</id>
    <displayName>TIBBIE 2 S, AL US</displayName>
    <minDate>1940-02-16</minDate>
    <maxDate>1949-06-30</maxDate>
    <latitude>31.33333</latitude>
    <longitude>-88.25</longitude>
    <elevation>70.1</elevation>
    <locationLabels>
      <type>CNTRY</type>
      <id>FIPS:US</id>
      <displayName>United States</displayName>
    </locationLabels>
    <coverage>0.9839</coverage>
  </station>
  <station>
    <id>GHCND:USC00248233</id>
    <displayName>TIBER DAM, MT US</displayName>
    <minDate>1952-11-14</minDate>
    <maxDate>2012-12-31</maxDate>
    <latitude>48.31</latitude>
    <longitude>-111.0878</longitude>
    <elevation>868.7</elevation>
    <locationLabels>
      <type>CNTRY</type>
      <id>FIPS:US</id>
      <displayName>United States</displayName>
    </locationLabels>
    <coverage>0.9697</coverage>
  </station>
  <station>
    <id>GHCND:USC00248236</id>
    <displayName>TIBER LAKE, MT US</displayName>
    <minDate>1948-07-01</minDate>
    <maxDate>1952-11-13</maxDate>
    <latitude>48.28333</latitude>
    <longitude>-110.88333</longitude>
    <elevation>915</elevation>
    <locationLabels>
      <type>CNTRY</type>
      <id>FIPS:US</id>
      <displayName>United States</displayName>
    </locationLabels>
    <coverage>0.9963</coverage>
  </station>
  <station>
    <id>GHCND:US1LATG0006</id>
    <displayName>TICKFAW 2.0 SSW, LA US</displayName>
    <minDate>2009-10-28</minDate>
    <maxDate>2013-01-16</maxDate>
    <latitude>30.5488</latitude>
    <longitude>-90.4953</longitude>
    <elevation>16.2</elevation>
    <locationLabels>
      <type>CNTRY</type>
      <id>FIPS:US</id>
      <displayName>United States</displayName>
    </locationLabels>
    <coverage>0.2583</coverage>
  </station>
  <station>
    <id>GHCND:USC00168945</id>
    <displayName>TICKFAW 3 ENE, LA US</displayName>
    <minDate>2000-04-01</minDate>
    <maxDate>2009-01-31</maxDate>
    <latitude>30.5981</latitude>
    <longitude>-90.4472</longitude>
    <elevation>16.2</elevation>
    <locationLabels>
      <type>CNTRY</type>
      <id>FIPS:US</id>
      <displayName>United States</displayName>
    </locationLabels>
    <coverage>0.9526</coverage>
  </station>
  <station>
    <id>GHCND:USW00014772</id>
    <displayName>TICONDEROGA 3 NE, NY US</displayName>
    <minDate>1941-01-01</minDate>
    <maxDate>1980-12-31</maxDate>
    <latitude>43.88333</latitude>
    <longitude>-73.4</longitude>
    <elevation>64</elevation>
    <locationLabels>
      <type>CNTRY</type>
      <id>FIPS:US</id>
      <displayName>United States</displayName>
    </locationLabels>
    <coverage>0.3764</coverage>
  </station>
  <station>
    <id>GHCND:USC00308503</id>
    <displayName>TICONDEROGA, NY US</displayName>
    <minDate>1897-08-01</minDate>
    <maxDate>1972-10-31</maxDate>
    <latitude>43.85</latitude>
    <longitude>-73.41667</longitude>
    <elevation>49.1</elevation>
    <locationLabels>
      <type>CNTRY</type>
      <id>FIPS:US</id>
      <displayName>United States</displayName>
    </locationLabels>
    <coverage>0.459</coverage>
  </station>
  <station>
    <id>GHCND:USC00358481</id>
    <displayName>TIDEWATER, OR US</displayName>
    <minDate>1940-04-01</minDate>
    <maxDate>2002-08-31</maxDate>
    <latitude>44.41222</latitude>
    <longitude>-123.90222</longitude>
    <elevation>15.2</elevation>
    <locationLabels>
      <type>CNTRY</type>
      <id>FIPS:US</id>
      <displayName>United States</displayName>
    </locationLabels>
    <coverage>0.9028</coverage>
  </station>
  <station>
    <id>GHCND:USC00298845</id>
    <displayName>TIERRA AMARILLA 4 N, NM US</displayName>
    <minDate>1927-09-01</minDate>
    <maxDate>2012-02-29</maxDate>
    <latitude>36.7663</latitude>
    <longitude>-106.5536</longitude>
    <elevation>2275</elevation>
    <locationLabels>
      <type>CNTRY</type>
      <id>FIPS:US</id>
      <displayName>United States</displayName>
    </locationLabels>
    <coverage>0.9054</coverage>
  </station>
  <station>
    <id>GHCND:USC00458442</id>
    <displayName>TIETON INTAKE, WA US</displayName>
    <minDate>1934-01-01</minDate>
    <maxDate>1972-01-17</maxDate>
    <latitude>46.66667</latitude>
    <longitude>-121</longitude>
    <elevation>694.9</elevation>
    <locationLabels>
      <type>CNTRY</type>
      <id>FIPS:US</id>
      <displayName>United States</displayName>
    </locationLabels>
    <coverage>0.9577</coverage>
  </station>
  <station>
    <id>GHCND:US1OHSN0003</id>
    <displayName>TIFFIN 5.2 SE, OH US</displayName>
    <minDate>2009-08-30</minDate>
    <maxDate>2013-01-16</maxDate>
    <latitude>41.0589</latitude>
    <longitude>-83.1127</longitude>
    <elevation>254.2</elevation>
    <locationLabels>
      <type>CNTRY</type>
      <id>FIPS:US</id>
      <displayName>United States</displayName>
    </locationLabels>
    <coverage>0.9895</coverage>
  </station>
  <station>
    <id>GHCND:USC00338318</id>
    <displayName>TIFFIN W WKS, OH US</displayName>
    <minDate>1960-05-01</minDate>
    <maxDate>1960-09-30</maxDate>
    <latitude>41.1</latitude>
    <longitude>-83.18333</longitude>
    <elevation>228.6</elevation>
    <locationLabels>
      <type>CNTRY</type>
      <id>FIPS:US</id>
      <displayName>United States</displayName>
    </locationLabels>
    <coverage>1</coverage>
  </station>
  <station>
    <id>GHCND:USC00338313</id>
    <displayName>TIFFIN, OH US</displayName>
    <minDate>1893-06-01</minDate>
    <maxDate>2012-01-31</maxDate>
    <latitude>41.1167</latitude>
    <longitude>-83.1667</longitude>
    <elevation>225.6</elevation>
    <locationLabels>
      <type>CNTRY</type>
      <id>FIPS:US</id>
      <displayName>United States</displayName>
    </locationLabels>
    <coverage>0.982</coverage>
  </station>
  <station>
    <id>GHCND:US1GATF0003</id>
    <displayName>TIFTON 1.4 ENE, GA US</displayName>
    <minDate>2008-05-28</minDate>
    <maxDate>2013-01-16</maxDate>
    <latitude>31.4744</latitude>
    <longitude>-83.4893</longitude>
    <elevation>102.4</elevation>
    <locationLabels>
      <type>CNTRY</type>
      <id>FIPS:US</id>
      <displayName>United States</displayName>
    </locationLabels>
    <coverage>0.9015</coverage>
  </station>
  <station>
    <id>GHCND:US1GATF0007</id>
    <displayName>TIFTON 2.0 ENE, GA US</displayName>
    <minDate>2008-10-21</minDate>
    <maxDate>2013-01-15</maxDate>
    <latitude>31.4771</latitude>
    <longitude>-83.4791</longitude>
    <elevation>110</elevation>
    <locationLabels>
      <type>CNTRY</type>
      <id>FIPS:US</id>
      <displayName>United States</displayName>
    </locationLabels>
    <coverage>0.4244</coverage>
  </station>
  <station>
    <id>GHCND:US1GATF0006</id>
    <displayName>TIFTON 5.5 E, GA US</displayName>
    <minDate>2008-09-19</minDate>
    <maxDate>2013-01-16</maxDate>
    <latitude>31.4615</latitude>
    <longitude>-83.4178</longitude>
    <elevation>100</elevation>
    <locationLabels>
      <type>CNTRY</type>
      <id>FIPS:US</id>
      <displayName>United States</displayName>
    </locationLabels>
    <coverage>0.9165</coverage>
  </station>
  <station>
    <id>GHCND:US1GATF0002</id>
    <displayName>TIFTON 5.6 N, GA US</displayName>
    <minDate>2008-07-11</minDate>
    <maxDate>2009-12-13</maxDate>
    <latitude>31.5452</latitude>
    <longitude>-83.4989</longitude>
    <elevation>95.1</elevation>
    <locationLabels>
      <type>CNTRY</type>
      <id>FIPS:US</id>
      <displayName>United States</displayName>
    </locationLabels>
    <coverage>0.8081</coverage>
  </station>
  <station>
    <id>GHCND:US1GATF0005</id>
    <displayName>TIFTON 5.6 SW, GA US</displayName>
    <minDate>2008-06-24</minDate>
    <maxDate>2012-05-29</maxDate>
    <latitude>31.4122</latitude>
    <longitude>-83.5782</longitude>
    <elevation>92</elevation>
    <locationLabels>
      <type>CNTRY</type>
      <id>FIPS:US</id>
      <displayName>United States</displayName>
    </locationLabels>
    <coverage>0.5703</coverage>
  </station>
  <station>
    <id>GHCND:USC00098703</id>
    <displayName>TIFTON, GA US</displayName>
    <minDate>1911-02-01</minDate>
    <maxDate>2013-01-15</maxDate>
    <latitude>31.4461</latitude>
    <longitude>-83.4767</longitude>
    <elevation>115.8</elevation>
    <locationLabels>
      <type>CNTRY</type>
      <id>FIPS:US</id>
      <displayName>United States</displayName>
    </locationLabels>
    <coverage>0.9012</coverage>
  </station>
  <station>
    <id>GHCND:US1ORWS0028</id>
    <displayName>TIGARD 0.7 SSW, OR US</displayName>
    <minDate>2008-02-11</minDate>
    <maxDate>2013-01-16</maxDate>
    <latitude>45.4144</latitude>
    <longitude>-122.7773</longitude>
    <elevation>100</elevation>
    <locationLabels>
      <type>CNTRY</type>
      <id>FIPS:US</id>
      <displayName>United States</displayName>
    </locationLabels>
    <coverage>0.5627</coverage>
  </station>
  <station>
    <id>GHCND:US1ORWS0053</id>
    <displayName>TIGARD 1.9 W, OR US</displayName>
    <minDate>2011-12-14</minDate>
    <maxDate>2012-06-06</maxDate>
    <latitude>45.4267</latitude>
    <longitude>-122.8132</longitude>
    <elevation>103.6</elevation>
    <locationLabels>
      <type>CNTRY</type>
      <id>FIPS:US</id>
      <displayName>United States</displayName>
    </locationLabels>
    <coverage>0.7727</coverage>
  </station>
  <station>
    <id>GHCND:US1ORWS0032</id>
    <displayName>TIGARD 3.2 W, OR US</displayName>
    <minDate>2008-09-29</minDate>
    <maxDate>2013-01-11</maxDate>
    <latitude>45.4185</latitude>
    <longitude>-122.8392</longitude>
    <elevation>146</elevation>
    <locationLabels>
      <type>CNTRY</type>
      <id>FIPS:US</id>
      <displayName>United States</displayName>
    </locationLabels>
    <coverage>0.6603</coverage>
  </station>
  <station>
    <id>GHCND:USC00048928</id>
    <displayName>TIGER CREEK PH, CA US</displayName>
    <minDate>1906-12-01</minDate>
    <maxDate>1998-11-30</maxDate>
    <latitude>38.44611</latitude>
    <longitude>-120.49917</longitude>
    <elevation>717.8</elevation>
    <locationLabels>
      <type>CNTRY</type>
      <id>FIPS:US</id>
      <displayName>United States</displayName>
    </locationLabels>
    <coverage>0.9803</coverage>
  </station>
  <station>
    <id>GHCND:US1NMBR0046</id>
    <displayName>TIJERAS 1.0 SSW, NM US</displayName>
    <minDate>2005-11-01</minDate>
    <maxDate>2013-01-16</maxDate>
    <latitude>35.0761</latitude>
    <longitude>-106.3846</longitude>
    <elevation>1941.9</elevation>
    <locationLabels>
      <type>CNTRY</type>
      <id>FIPS:US</id>
      <displayName>United States</displayName>
    </locationLabels>
    <coverage>0.992</coverage>
  </station>
  <station>
    <id>GHCND:US1NMBR0057</id>
    <displayName>TIJERAS 2.8 ENE, NM US</displayName>
    <minDate>2006-04-09</minDate>
    <maxDate>2006-11-30</maxDate>
    <latitude>35.0994</latitude>
    <longitude>-106.3269</longitude>
    <elevation>2086.1</elevation>
    <locationLabels>
      <type>CNTRY</type>
      <id>FIPS:US</id>
      <displayName>United States</displayName>
    </locationLabels>
    <coverage>0.8051</coverage>
  </station>
  <station>
    <id>GHCND:US1NMBR0056</id>
    <displayName>TIJERAS 3.7 N, NM US</displayName>
    <minDate>2006-06-06</minDate>
    <maxDate>2013-01-16</maxDate>
    <latitude>35.1427</latitude>
    <longitude>-106.3695</longitude>
    <elevation>2118.4</elevation>
    <locationLabels>
      <type>CNTRY</type>
      <id>FIPS:US</id>
      <displayName>United States</displayName>
    </locationLabels>
    <coverage>0.9528</coverage>
  </station>
  <station>
    <id>GHCND:US1NMBR0004</id>
    <displayName>TIJERAS 4.2 NE, NM US</displayName>
    <minDate>2005-03-14</minDate>
    <maxDate>2013-01-09</maxDate>
    <latitude>35.1296</latitude>
    <longitude>-106.3204</longitude>
    <elevation>2101</elevation>
    <locationLabels>
      <type>CNTRY</type>
      <id>FIPS:US</id>
      <displayName>United States</displayName>
    </locationLabels>
    <coverage>0.8951</coverage>
  </station>
  <station>
    <id>GHCND:US1NMBR0028</id>
    <displayName>TIJERAS 5.0 E, NM US</displayName>
    <minDate>2005-03-14</minDate>
    <maxDate>2013-01-16</maxDate>
    <latitude>35.0884</latitude>
    <longitude>-106.2835</longitude>
    <elevation>2169</elevation>
    <locationLabels>
      <type>CNTRY</type>
      <id>FIPS:US</id>
      <displayName>United States</displayName>
    </locationLabels>
    <coverage>0.9725</coverage>
  </station>
  <station>
    <id>GHCND:US1NMBR0076</id>
    <displayName>TIJERAS 5.1 WSW, NM US</displayName>
    <minDate>2006-06-22</minDate>
    <maxDate>2008-04-07</maxDate>
    <latitude>35.0674</latitude>
    <longitude>-106.4606</longitude>
    <elevation>1823.9</elevation>
    <locationLabels>
      <type>CNTRY</type>
      <id>FIPS:US</id>
      <displayName>United States</displayName>
    </locationLabels>
    <coverage>0.8125</coverage>
  </station>
  <station>
    <id>GHCND:US1NMBR0125</id>
    <displayName>TIJERAS 5.2 E, NM US</displayName>
    <minDate>2011-07-04</minDate>
    <maxDate>2012-05-13</maxDate>
    <latitude>35.0977</latitude>
    <longitude>-106.2839</longitude>
    <elevation>2149.1</elevation>
    <locationLabels>
      <type>CNTRY</type>
      <id>FIPS:US</id>
      <displayName>United States</displayName>
    </locationLabels>
    <coverage>0.9238</coverage>
  </station>
  <station>
    <id>GHCND:US1NMBR0103</id>
    <displayName>TIJERAS 6.5 NNE, NM US</displayName>
    <minDate>2008-07-10</minDate>
    <maxDate>2013-01-16</maxDate>
    <latitude>35.1676</latitude>
    <longitude>-106.3136</longitude>
    <elevation>2037.9</elevation>
    <locationLabels>
      <type>CNTRY</type>
      <id>FIPS:US</id>
      <displayName>United States</displayName>
    </locationLabels>
    <coverage>0.9328</coverage>
  </station>
  <station>
    <id>GHCND:US1NMBR0045</id>
    <displayName>TIJERAS 8.6 NNE, NM US</displayName>
    <minDate>2005-08-01</minDate>
    <maxDate>2007-10-31</maxDate>
    <latitude>35.2049</latitude>
    <longitude>-106.3227</longitude>
    <elevation>1980</elevation>
    <locationLabels>
      <type>CNTRY</type>
      <id>FIPS:US</id>
      <displayName>United States</displayName>
    </locationLabels>
    <coverage>0.2555</coverage>
  </station>
  <station>
    <id>GHCND:US1NMBR0085</id>
    <displayName>TIJERAS 9.6 SSE, NM US</displayName>
    <minDate>2006-12-19</minDate>
    <maxDate>2012-08-15</maxDate>
    <latitude>34.9587</latitude>
    <longitude>-106.3155</longitude>
    <elevation>2254.9</elevation>
    <locationLabels>
      <type>CNTRY</type>
      <id>FIPS:US</id>
      <displayName>United States</displayName>
    </locationLabels>
    <coverage>0.0619</coverage>
  </station>
  <station>
    <id>GHCND:US1TXMCM003</id>
    <displayName>TILDEN 0.1 E, TX US</displayName>
    <minDate>2008-03-12</minDate>
    <maxDate>2013-01-10</maxDate>
    <latitude>28.4607</latitude>
    <longitude>-98.5491</longitude>
    <elevation>78.9</elevation>
    <locationLabels>
      <type>CNTRY</type>
      <id>FIPS:US</id>
      <displayName>United States</displayName>
    </locationLabels>
    <coverage>0.1857</coverage>
  </station>
  <station>
    <id>GHCND:USC00419030</id>
    <displayName>TILDEN 10 S, TX US</displayName>
    <minDate>1997-06-01</minDate>
    <maxDate>2010-07-31</maxDate>
    <latitude>28.3125</latitude>
    <longitude>-98.5818</longitude>
    <elevation>67.1</elevation>
    <locationLabels>
      <type>CNTRY</type>
      <id>FIPS:US</id>
      <displayName>United States</displayName>
    </locationLabels>
    <coverage>0.9784</coverage>
  </station>
  <station>
    <id>GHCND:US1TXMCM004</id>
    <displayName>TILDEN 16.0 NNW, TX US</displayName>
    <minDate>2009-01-30</minDate>
    <maxDate>2013-01-16</maxDate>
    <latitude>28.5358</latitude>
    <longitude>-98.7958</longitude>
    <elevation>110</elevation>
    <locationLabels>
      <type>CNTRY</type>
      <id>FIPS:US</id>
      <displayName>United States</displayName>
    </locationLabels>
    <coverage>0.7369</coverage>
  </station>
  <station>
    <id>GHCND:USC00419031</id>
    <displayName>TILDEN 4 SSE, TX US</displayName>
    <minDate>1903-11-01</minDate>
    <maxDate>2010-11-30</maxDate>
    <latitude>28.4113</latitude>
    <longitude>-98.5294</longitude>
    <elevation>105.2</elevation>
    <locationLabels>
      <type>CNTRY</type>
      <id>FIPS:US</id>
      <displayName>United States</displayName>
    </locationLabels>
    <coverage>0.5306</coverage>
  </station>
  <station>
    <id>GHCND:US10madi009</id>
    <displayName>TILDEN 4.1 SSE, NE US</displayName>
    <minDate>2007-01-01</minDate>
    <maxDate>2010-06-13</maxDate>
    <latitude>41.9902</latitude>
    <longitude>-97.8142</longitude>
    <elevation>541</elevation>
    <locationLabels>
      <type>CNTRY</type>
      <id>FIPS:US</id>
      <displayName>United States</displayName>
    </locationLabels>
    <coverage>0.8381</coverage>
  </station>
  <station>
    <id>GHCND:USC00419029</id>
    <displayName>TILDEN, TX US</displayName>
    <minDate>1903-11-01</minDate>
    <maxDate>1911-06-30</maxDate>
    <latitude>28.466667</latitude>
    <longitude>-98.55</longitude>
    <locationLabels>
      <type>CNTRY</type>
      <id>FIPS:US</id>
      <displayName>United States</displayName>
    </locationLabels>
    <coverage>0.6313</coverage>
  </station>
  <station>
    <id>GHCND:USC00152132</id>
    <displayName>TILFORD DELPHIA, KY US</displayName>
    <minDate>1950-03-01</minDate>
    <maxDate>1964-09-30</maxDate>
    <latitude>37.03333</latitude>
    <longitude>-83.06667</longitude>
    <elevation>555</elevation>
    <locationLabels>
      <type>CNTRY</type>
      <id>FIPS:US</id>
      <displayName>United States</displayName>
    </locationLabels>
    <coverage>0.9289</coverage>
  </station>
  <station>
    <id>GHCND:USC00158019</id>
    <displayName>TILFORD DELPHIA, KY US</displayName>
    <minDate>1964-10-01</minDate>
    <maxDate>1974-07-31</maxDate>
    <latitude>37.03333</latitude>
    <longitude>-83.06667</longitude>
    <elevation>555</elevation>
    <locationLabels>
      <type>CNTRY</type>
      <id>FIPS:US</id>
      <displayName>United States</displayName>
    </locationLabels>
    <coverage>0.8421</coverage>
  </station>
  <station>
    <id>GHCND:USC00152131</id>
    <displayName>TILFORD DELPHIA, KY US</displayName>
    <minDate>1940-04-12</minDate>
    <maxDate>1950-02-28</maxDate>
    <latitude>37.03333</latitude>
    <longitude>-83.06667</longitude>
    <elevation>555</elevation>
    <locationLabels>
      <type>CNTRY</type>
      <id>FIPS:US</id>
      <displayName>United States</displayName>
    </locationLabels>
    <coverage>0.8837</coverage>
  </station>
  <station>
    <id>GHCND:USC00358504</id>
    <displayName>TILLAMOOK 12 ESE, OR US</displayName>
    <minDate>1950-02-02</minDate>
    <maxDate>1951-09-30</maxDate>
    <latitude>45.4128</latitude>
    <longitude>-123.5983</longitude>
    <elevation>128</elevation>
    <locationLabels>
      <type>CNTRY</type>
      <id>FIPS:US</id>
      <displayName>United States</displayName>
    </locationLabels>
    <coverage>0.8333</coverage>
  </station>
  <station>
    <id>GHCND:USC00358505</id>
    <displayName>TILLAMOOK 13 ENE, OR US</displayName>
    <minDate>1970-02-01</minDate>
    <maxDate>1978-01-31</maxDate>
    <latitude>45.55</latitude>
    <longitude>-123.6</longitude>
    <elevation>118.9</elevation>
    <locationLabels>
      <type>CNTRY</type>
      <id>FIPS:US</id>
      <displayName>United States</displayName>
    </locationLabels>
    <coverage>0.7707</coverage>
  </station>
  <station>
    <id>GHCND:US1ORTL0002</id>
    <displayName>TILLAMOOK 16.1 ENE, OR US</displayName>
    <minDate>2008-03-24</minDate>
    <maxDate>2013-01-16</maxDate>
    <latitude>45.584</latitude>
    <longitude>-123.5592</longitude>
    <elevation>164.3</elevation>
    <locationLabels>
      <type>CNTRY</type>
      <id>FIPS:US</id>
      <displayName>United States</displayName>
    </locationLabels>
    <coverage>0.8233</coverage>
  </station>
  <station>
    <id>GHCND:USC00358498</id>
    <displayName>TILLAMOOK 6 SE, OR US</displayName>
    <minDate>2006-08-01</minDate>
    <maxDate>2012-11-30</maxDate>
    <latitude>45.4294</latitude>
    <longitude>-123.7619</longitude>
    <elevation>42.7</elevation>
    <locationLabels>
      <type>CNTRY</type>
      <id>FIPS:US</id>
      <displayName>United States</displayName>
    </locationLabels>
    <coverage>0.997</coverage>
  </station>
  <station>
    <id>GHCND:USW00024254</id>
    <displayName>TILLAMOOK NAS, OR US</displayName>
    <minDate>1945-03-01</minDate>
    <maxDate>1948-04-29</maxDate>
    <latitude>45.41667</latitude>
    <longitude>-123.8</longitude>
    <elevation>11.9</elevation>
    <locationLabels>
      <type>CNTRY</type>
      <id>FIPS:US</id>
      <displayName>United States</displayName>
    </locationLabels>
    <coverage>0.9939</coverage>
  </station>
  <station>
    <id>GHCND:USR0000OTIL</id>
    <displayName>TILLAMOOK OREGON, OR US</displayName>
    <minDate>1997-06-26</minDate>
    <maxDate>2012-08-31</maxDate>
    <latitude>45.4569</latitude>
    <longitude>-123.8031</longitude>
    <elevation>6.7</elevation>
    <locationLabels>
      <type>CNTRY</type>
      <id>FIPS:US</id>
      <displayName>United States</displayName>
    </locationLabels>
    <coverage>0.8603</coverage>
  </station>
  <station>
    <id>GHCND:USC00358494</id>
    <displayName>TILLAMOOK, OR US</displayName>
    <minDate>1948-07-01</minDate>
    <maxDate>2013-01-16</maxDate>
    <latitude>45.454</latitude>
    <longitude>-123.8519</longitude>
    <elevation>3.7</elevation>
    <locationLabels>
      <type>CNTRY</type>
      <id>FIPS:US</id>
      <displayName>United States</displayName>
    </locationLabels>
    <coverage>0.9705</coverage>
  </station>
  <station>
    <id>GHCND:US1ARDR0004</id>
    <displayName>TILLAR 6.4 W, AR US</displayName>
    <minDate>2012-06-11</minDate>
    <maxDate>2013-01-12</maxDate>
    <latitude>33.6979</latitude>
    <longitude>-91.5616</longitude>
    <elevation>57</elevation>
    <locationLabels>
      <type>CNTRY</type>
      <id>FIPS:US</id>
      <displayName>United States</displayName>
    </locationLabels>
    <coverage>0.6898</coverage>
  </station>
  <station>
    <id>GHCND:USC00358514</id>
    <displayName>TILLER, OR US</displayName>
    <minDate>1936-06-22</minDate>
    <maxDate>1980-02-29</maxDate>
    <latitude>42.93</latitude>
    <longitude>-122.9467</longitude>
    <elevation>317</elevation>
    <locationLabels>
      <type>CNTRY</type>
      <id>FIPS:US</id>
      <displayName>United States</displayName>
    </locationLabels>
    <coverage>0.4935</coverage>
  </station>
</stationCollection>
