<?xml version="1.0" encoding="UTF-8" standalone="yes"?>
<stationCollection totalCount="46020" pageCount="461" pageSize="100" page="131">
  <station>
    <id>GHCND:USC00422488</id>
    <displayName>EMERY 15 SW, UT US</displayName>
    <minDate>1979-07-01</minDate>
    <maxDate>1986-06-30</maxDate>
    <latitude>38.76667</latitude>
    <longitude>-111.45</longitude>
    <elevation>2328.7</elevation>
    <locationLabels>
      <type>CNTRY</type>
      <id>FIPS:US</id>
      <displayName>United States</displayName>
    </locationLabels>
    <coverage>0.9984</coverage>
  </station>
  <station>
    <id>GHCND:USS0013A24S</id>
    <displayName>EMERY CREEK, MT US</displayName>
    <minDate>1976-10-01</minDate>
    <maxDate>2013-01-13</maxDate>
    <latitude>48.4333</latitude>
    <longitude>-113.9333</longitude>
    <elevation>1325.9</elevation>
    <locationLabels>
      <type>CNTRY</type>
      <id>FIPS:US</id>
      <displayName>United States</displayName>
    </locationLabels>
    <coverage>0.8584</coverage>
  </station>
  <station>
    <id>GHCND:USC00422484</id>
    <displayName>EMERY, UT US</displayName>
    <minDate>1901-01-01</minDate>
    <maxDate>1978-04-30</maxDate>
    <latitude>38.91667</latitude>
    <longitude>-111.25</longitude>
    <elevation>1905.9</elevation>
    <locationLabels>
      <type>CNTRY</type>
      <id>FIPS:US</id>
      <displayName>United States</displayName>
    </locationLabels>
    <coverage>0.9386</coverage>
  </station>
  <station>
    <id>GHCND:US1MTPK0013</id>
    <displayName>EMIGRANT 9.2 SW, MT US</displayName>
    <minDate>2011-12-10</minDate>
    <maxDate>2013-01-15</maxDate>
    <latitude>45.2658</latitude>
    <longitude>-110.8499</longitude>
    <elevation>1537.7</elevation>
    <locationLabels>
      <type>CNTRY</type>
      <id>FIPS:US</id>
      <displayName>United States</displayName>
    </locationLabels>
    <coverage>0.4591</coverage>
  </station>
  <station>
    <id>GHCND:USC00042831</id>
    <displayName>EMIGRANT GAP, CA US</displayName>
    <minDate>2000-09-01</minDate>
    <maxDate>2001-02-28</maxDate>
    <latitude>39.30333</latitude>
    <longitude>-120.65083</longitude>
    <elevation>1600.2</elevation>
    <locationLabels>
      <type>CNTRY</type>
      <id>FIPS:US</id>
      <displayName>United States</displayName>
    </locationLabels>
    <coverage>0.7735</coverage>
  </station>
  <station>
    <id>GHCND:USR0000OEMI</id>
    <displayName>EMIGRANT OREGON, OR US</displayName>
    <minDate>1992-05-18</minDate>
    <maxDate>2012-08-31</maxDate>
    <latitude>43.4675</latitude>
    <longitude>-122.2175</longitude>
    <elevation>1170.4</elevation>
    <locationLabels>
      <type>CNTRY</type>
      <id>FIPS:US</id>
      <displayName>United States</displayName>
    </locationLabels>
    <coverage>0.9543</coverage>
  </station>
  <station>
    <id>GHCND:USC00262656</id>
    <displayName>EMIGRANT PASS HIGHWAY, NV US</displayName>
    <minDate>1954-08-01</minDate>
    <maxDate>2001-02-28</maxDate>
    <latitude>40.64972</latitude>
    <longitude>-116.30222</longitude>
    <elevation>1755.6</elevation>
    <locationLabels>
      <type>CNTRY</type>
      <id>FIPS:US</id>
      <displayName>United States</displayName>
    </locationLabels>
    <coverage>0.9416</coverage>
  </station>
  <station>
    <id>GHCND:USC00266349</id>
    <displayName>EMIGRANT PASS HIGHWAY, NV US</displayName>
    <minDate>1944-06-01</minDate>
    <maxDate>1954-07-31</maxDate>
    <latitude>40.64972</latitude>
    <longitude>-116.30222</longitude>
    <elevation>1755.6</elevation>
    <locationLabels>
      <type>CNTRY</type>
      <id>FIPS:US</id>
      <displayName>United States</displayName>
    </locationLabels>
    <coverage>0.8244</coverage>
  </station>
  <station>
    <id>GHCND:USS0018D04S</id>
    <displayName>EMIGRANT SPRINGS, OR US</displayName>
    <minDate>1980-10-01</minDate>
    <maxDate>2013-01-13</maxDate>
    <latitude>45.55</latitude>
    <longitude>-118.45</longitude>
    <elevation>1196.3</elevation>
    <locationLabels>
      <type>CNTRY</type>
      <id>FIPS:US</id>
      <displayName>United States</displayName>
    </locationLabels>
    <coverage>0.9248</coverage>
  </station>
  <station>
    <id>GHCND:USS0011G06S</id>
    <displayName>EMIGRANT SUMMIT, ID US</displayName>
    <minDate>1980-10-01</minDate>
    <maxDate>2013-01-13</maxDate>
    <latitude>42.3667</latitude>
    <longitude>-111.5667</longitude>
    <elevation>2252.5</elevation>
    <locationLabels>
      <type>CNTRY</type>
      <id>FIPS:US</id>
      <displayName>United States</displayName>
    </locationLabels>
    <coverage>0.8906</coverage>
  </station>
  <station>
    <id>GHCND:USC00242778</id>
    <displayName>EMIGRANT, MT US</displayName>
    <minDate>1880-06-21</minDate>
    <maxDate>1968-04-05</maxDate>
    <latitude>45.36667</latitude>
    <longitude>-110.71667</longitude>
    <elevation>1524.9</elevation>
    <locationLabels>
      <type>CNTRY</type>
      <id>FIPS:US</id>
      <displayName>United States</displayName>
    </locationLabels>
    <coverage>0.1964</coverage>
  </station>
  <station>
    <id>GHCND:USC00162872</id>
    <displayName>EMILIE, LA US</displayName>
    <minDate>1892-12-01</minDate>
    <maxDate>1905-05-31</maxDate>
    <latitude>30.06667</latitude>
    <longitude>-90.61667</longitude>
    <elevation>6.1</elevation>
    <locationLabels>
      <type>CNTRY</type>
      <id>FIPS:US</id>
      <displayName>United States</displayName>
    </locationLabels>
    <coverage>1</coverage>
  </station>
  <station>
    <id>GHCND:US1MOFSA203</id>
    <displayName>EMINENCE 0.1 SSE, MO US</displayName>
    <minDate>2006-05-01</minDate>
    <maxDate>2013-01-16</maxDate>
    <latitude>37.1454</latitude>
    <longitude>-91.3578</longitude>
    <elevation>200.9</elevation>
    <locationLabels>
      <type>CNTRY</type>
      <id>FIPS:US</id>
      <displayName>United States</displayName>
    </locationLabels>
    <coverage>0.9963</coverage>
  </station>
  <station>
    <id>GHCND:USC00232619</id>
    <displayName>EMINENCE 1 N, MO US</displayName>
    <minDate>1991-11-01</minDate>
    <maxDate>2013-01-15</maxDate>
    <latitude>37.1561</latitude>
    <longitude>-91.3588</longitude>
    <elevation>195.1</elevation>
    <locationLabels>
      <type>CNTRY</type>
      <id>FIPS:US</id>
      <displayName>United States</displayName>
    </locationLabels>
    <coverage>0.9565</coverage>
  </station>
  <station>
    <id>GHCND:US1KYHY0007</id>
    <displayName>EMINENCE 1.4 SE, KY US</displayName>
    <minDate>2010-10-24</minDate>
    <maxDate>2013-01-16</maxDate>
    <latitude>38.3515</latitude>
    <longitude>-85.1555</longitude>
    <elevation>263.7</elevation>
    <locationLabels>
      <type>CNTRY</type>
      <id>FIPS:US</id>
      <displayName>United States</displayName>
    </locationLabels>
    <coverage>0.7647</coverage>
  </station>
  <station>
    <id>GHCND:USC00232617</id>
    <displayName>EMINENCE 5 WNW, MO US</displayName>
    <minDate>1948-08-01</minDate>
    <maxDate>1951-09-30</maxDate>
    <latitude>37.15</latitude>
    <longitude>-91.45</longitude>
    <elevation>214</elevation>
    <locationLabels>
      <type>CNTRY</type>
      <id>FIPS:US</id>
      <displayName>United States</displayName>
    </locationLabels>
    <coverage>0.9732</coverage>
  </station>
  <station>
    <id>GHCND:USC00122645</id>
    <displayName>EMINENCE, IN US</displayName>
    <minDate>1906-11-19</minDate>
    <maxDate>1969-12-31</maxDate>
    <latitude>39.53333</latitude>
    <longitude>-86.63333</longitude>
    <elevation>238</elevation>
    <locationLabels>
      <type>CNTRY</type>
      <id>FIPS:US</id>
      <displayName>United States</displayName>
    </locationLabels>
    <coverage>0.3574</coverage>
  </station>
  <station>
    <id>GHCND:US1KYHY0005</id>
    <displayName>EMINENCE, KY US</displayName>
    <minDate>2010-06-09</minDate>
    <maxDate>2012-01-10</maxDate>
    <latitude>38.3629</latitude>
    <longitude>-85.1814</longitude>
    <elevation>288.3</elevation>
    <locationLabels>
      <type>CNTRY</type>
      <id>FIPS:US</id>
      <displayName>United States</displayName>
    </locationLabels>
    <coverage>0.5318</coverage>
  </station>
  <station>
    <id>GHCND:US1ILLV0017</id>
    <displayName>EMINGTON 2.2 SSE, IL US</displayName>
    <minDate>2010-09-16</minDate>
    <maxDate>2013-01-16</maxDate>
    <latitude>40.9403</latitude>
    <longitude>-88.3416</longitude>
    <elevation>221.3</elevation>
    <locationLabels>
      <type>CNTRY</type>
      <id>FIPS:US</id>
      <displayName>United States</displayName>
    </locationLabels>
    <coverage>0.8478</coverage>
  </station>
  <station>
    <id>GHCND:US1GADW0002</id>
    <displayName>EMMA 4.3 WNW, GA US</displayName>
    <minDate>2008-09-26</minDate>
    <maxDate>2013-01-13</maxDate>
    <latitude>34.5286</latitude>
    <longitude>-84.2949</longitude>
    <elevation>541.9</elevation>
    <locationLabels>
      <type>CNTRY</type>
      <id>FIPS:US</id>
      <displayName>United States</displayName>
    </locationLabels>
    <coverage>0.7734</coverage>
  </station>
  <station>
    <id>GHCND:US1PALH0009</id>
    <displayName>EMMAUS 2.4 NW, PA US</displayName>
    <minDate>2008-06-01</minDate>
    <maxDate>2011-07-22</maxDate>
    <latitude>40.5598</latitude>
    <longitude>-75.5302</longitude>
    <elevation>137.5</elevation>
    <locationLabels>
      <type>CNTRY</type>
      <id>FIPS:US</id>
      <displayName>United States</displayName>
    </locationLabels>
    <coverage>0.7707</coverage>
  </station>
  <station>
    <id>GHCND:US10holt002</id>
    <displayName>EMMET 0.2 SSW, NE US</displayName>
    <minDate>2007-01-01</minDate>
    <maxDate>2013-01-16</maxDate>
    <latitude>42.4727</latitude>
    <longitude>-98.8074</longitude>
    <elevation>616.9</elevation>
    <locationLabels>
      <type>CNTRY</type>
      <id>FIPS:US</id>
      <displayName>United States</displayName>
    </locationLabels>
    <coverage>0.9755</coverage>
  </station>
  <station>
    <id>GHCND:USC00132689</id>
    <displayName>EMMETSBURG, IA US</displayName>
    <minDate>1893-01-01</minDate>
    <maxDate>2013-01-16</maxDate>
    <latitude>43.1025</latitude>
    <longitude>-94.6833</longitude>
    <elevation>384</elevation>
    <locationLabels>
      <type>CNTRY</type>
      <id>FIPS:US</id>
      <displayName>United States</displayName>
    </locationLabels>
    <coverage>0.5578</coverage>
  </station>
  <station>
    <id>GHCND:US1IDGM0002</id>
    <displayName>EMMETT 1.8 SSE, ID US</displayName>
    <minDate>2010-06-07</minDate>
    <maxDate>2012-05-04</maxDate>
    <latitude>43.8488</latitude>
    <longitude>-116.4838</longitude>
    <elevation>729.4</elevation>
    <locationLabels>
      <type>CNTRY</type>
      <id>FIPS:US</id>
      <displayName>United States</displayName>
    </locationLabels>
    <coverage>0.5802</coverage>
  </station>
  <station>
    <id>GHCND:USC00102942</id>
    <displayName>EMMETT 2 E, ID US</displayName>
    <minDate>1906-10-01</minDate>
    <maxDate>2013-01-16</maxDate>
    <latitude>43.8544</latitude>
    <longitude>-116.4663</longitude>
    <elevation>728.5</elevation>
    <locationLabels>
      <type>CNTRY</type>
      <id>FIPS:US</id>
      <displayName>United States</displayName>
    </locationLabels>
    <coverage>0.98</coverage>
  </station>
  <station>
    <id>GHCND:USC00142519</id>
    <displayName>EMMETT, KS US</displayName>
    <minDate>1912-06-01</minDate>
    <maxDate>2005-02-28</maxDate>
    <latitude>39.3069</latitude>
    <longitude>-96.0566</longitude>
    <elevation>313.9</elevation>
    <locationLabels>
      <type>CNTRY</type>
      <id>FIPS:US</id>
      <displayName>United States</displayName>
    </locationLabels>
    <coverage>0.9863</coverage>
  </station>
  <station>
    <id>GHCND:USC00182906</id>
    <displayName>EMMITSBURG 2 SE, MD US</displayName>
    <minDate>1956-05-01</minDate>
    <maxDate>2013-01-16</maxDate>
    <latitude>39.6811</latitude>
    <longitude>-77.2913</longitude>
    <elevation>122.8</elevation>
    <locationLabels>
      <type>CNTRY</type>
      <id>FIPS:US</id>
      <displayName>United States</displayName>
    </locationLabels>
    <coverage>0.9726</coverage>
  </station>
  <station>
    <id>GHCND:USC00182905</id>
    <displayName>EMMITSBURG, MD US</displayName>
    <minDate>1893-01-01</minDate>
    <maxDate>1956-04-30</maxDate>
    <latitude>39.68333</latitude>
    <longitude>-77.35</longitude>
    <elevation>220.1</elevation>
    <locationLabels>
      <type>CNTRY</type>
      <id>FIPS:US</id>
      <displayName>United States</displayName>
    </locationLabels>
    <coverage>0.8693</coverage>
  </station>
  <station>
    <id>GHCND:USC00502825</id>
    <displayName>EMMONAK, AK US</displayName>
    <minDate>1977-09-01</minDate>
    <maxDate>1994-01-21</maxDate>
    <latitude>62.78528</latitude>
    <longitude>-164.49111</longitude>
    <elevation>4.3</elevation>
    <locationLabels>
      <type>CNTRY</type>
      <id>FIPS:US</id>
      <displayName>United States</displayName>
    </locationLabels>
    <coverage>0.8305</coverage>
  </station>
  <station>
    <id>GHCND:US1TXRN0001</id>
    <displayName>EMORY 5.6 ENE, TX US</displayName>
    <minDate>2007-10-15</minDate>
    <maxDate>2012-08-19</maxDate>
    <latitude>32.8931</latitude>
    <longitude>-95.675</longitude>
    <elevation>141.1</elevation>
    <locationLabels>
      <type>CNTRY</type>
      <id>FIPS:US</id>
      <displayName>United States</displayName>
    </locationLabels>
    <coverage>0.6567</coverage>
  </station>
  <station>
    <id>GHCND:USC00412904</id>
    <displayName>EMORY 8 S, TX US</displayName>
    <minDate>1992-08-08</minDate>
    <maxDate>1993-07-31</maxDate>
    <latitude>32.77056</latitude>
    <longitude>-95.76556</longitude>
    <elevation>112.8</elevation>
    <locationLabels>
      <type>CNTRY</type>
      <id>FIPS:US</id>
      <displayName>United States</displayName>
    </locationLabels>
    <coverage>0.8296</coverage>
  </station>
  <station>
    <id>GHCND:USC00242783</id>
    <displayName>EMORY, MT US</displayName>
    <minDate>1911-09-01</minDate>
    <maxDate>1930-07-31</maxDate>
    <latitude>46.533333</latitude>
    <longitude>-108.983333</longitude>
    <elevation>975.4</elevation>
    <locationLabels>
      <type>CNTRY</type>
      <id>FIPS:US</id>
      <displayName>United States</displayName>
    </locationLabels>
    <coverage>0.9494</coverage>
  </station>
  <station>
    <id>GHCND:USC00412902</id>
    <displayName>EMORY, TX US</displayName>
    <minDate>1897-05-01</minDate>
    <maxDate>2012-11-03</maxDate>
    <latitude>32.8711</latitude>
    <longitude>-95.7797</longitude>
    <elevation>147.5</elevation>
    <locationLabels>
      <type>CNTRY</type>
      <id>FIPS:US</id>
      <displayName>United States</displayName>
    </locationLabels>
    <coverage>0.5286</coverage>
  </station>
  <station>
    <id>GHCND:USC00442782</id>
    <displayName>EMORY, VA US</displayName>
    <minDate>1913-04-01</minDate>
    <maxDate>1951-11-30</maxDate>
    <latitude>36.76667</latitude>
    <longitude>-81.83333</longitude>
    <elevation>655.9</elevation>
    <locationLabels>
      <type>CNTRY</type>
      <id>FIPS:US</id>
      <displayName>United States</displayName>
    </locationLabels>
    <coverage>0.6497</coverage>
  </station>
  <station>
    <id>GHCND:US1COCC0005</id>
    <displayName>EMPIRE .2 E, CO US</displayName>
    <minDate>2003-08-18</minDate>
    <maxDate>2010-02-21</maxDate>
    <latitude>39.7612</latitude>
    <longitude>-105.6806</longitude>
    <elevation>2646.9</elevation>
    <locationLabels>
      <type>CNTRY</type>
      <id>FIPS:US</id>
      <displayName>United States</displayName>
    </locationLabels>
    <coverage>0.837</coverage>
  </station>
  <station>
    <id>GHCND:US1ALBL0015</id>
    <displayName>EMPIRE 4.7 NE, AL US</displayName>
    <minDate>2011-01-01</minDate>
    <maxDate>2012-08-23</maxDate>
    <latitude>33.8481</latitude>
    <longitude>-86.9452</longitude>
    <elevation>150.9</elevation>
    <locationLabels>
      <type>CNTRY</type>
      <id>FIPS:US</id>
      <displayName>United States</displayName>
    </locationLabels>
    <coverage>0.4992</coverage>
  </station>
  <station>
    <id>GHCND:USR0000AEMP</id>
    <displayName>EMPIRE ARIZONA, AZ US</displayName>
    <minDate>1988-12-05</minDate>
    <maxDate>2012-08-30</maxDate>
    <latitude>31.7806</latitude>
    <longitude>-110.6347</longitude>
    <elevation>1417.3</elevation>
    <locationLabels>
      <type>CNTRY</type>
      <id>FIPS:US</id>
      <displayName>United States</displayName>
    </locationLabels>
    <coverage>0.9664</coverage>
  </station>
  <station>
    <id>GHCND:USC00262662</id>
    <displayName>EMPIRE, NV US</displayName>
    <minDate>1951-01-01</minDate>
    <maxDate>1976-01-31</maxDate>
    <latitude>40.58333</latitude>
    <longitude>-119.35</longitude>
    <elevation>1204.9</elevation>
    <locationLabels>
      <type>CNTRY</type>
      <id>FIPS:US</id>
      <displayName>United States</displayName>
    </locationLabels>
    <coverage>0.3363</coverage>
  </station>
  <station>
    <id>GHCND:US1KSLY0002</id>
    <displayName>EMPORIA 0.9 W, KS US</displayName>
    <minDate>2005-07-09</minDate>
    <maxDate>2013-01-10</maxDate>
    <latitude>38.4127</latitude>
    <longitude>-96.2088</longitude>
    <elevation>356.9</elevation>
    <locationLabels>
      <type>CNTRY</type>
      <id>FIPS:US</id>
      <displayName>United States</displayName>
    </locationLabels>
    <coverage>0.9147</coverage>
  </station>
  <station>
    <id>GHCND:USC00442790</id>
    <displayName>EMPORIA 1 WNW, VA US</displayName>
    <minDate>1893-01-01</minDate>
    <maxDate>2013-01-16</maxDate>
    <latitude>36.6983</latitude>
    <longitude>-77.5597</longitude>
    <elevation>30.5</elevation>
    <locationLabels>
      <type>CNTRY</type>
      <id>FIPS:US</id>
      <displayName>United States</displayName>
    </locationLabels>
    <coverage>0.6701</coverage>
  </station>
  <station>
    <id>GHCND:US1KSLY0004</id>
    <displayName>EMPORIA 1.7 SE, KS US</displayName>
    <minDate>2008-12-04</minDate>
    <maxDate>2012-05-19</maxDate>
    <latitude>38.397</latitude>
    <longitude>-96.1675</longitude>
    <elevation>340.8</elevation>
    <locationLabels>
      <type>CNTRY</type>
      <id>FIPS:US</id>
      <displayName>United States</displayName>
    </locationLabels>
    <coverage>0.3056</coverage>
  </station>
  <station>
    <id>GHCND:USC00142548</id>
    <displayName>EMPORIA 3 NW, KS US</displayName>
    <minDate>1979-06-01</minDate>
    <maxDate>2013-01-16</maxDate>
    <latitude>38.4294</latitude>
    <longitude>-96.2188</longitude>
    <elevation>371.9</elevation>
    <locationLabels>
      <type>CNTRY</type>
      <id>FIPS:US</id>
      <displayName>United States</displayName>
    </locationLabels>
    <coverage>0.8883</coverage>
  </station>
  <station>
    <id>GHCND:US1KSLY0003</id>
    <displayName>EMPORIA 5.5 NNE, KS US</displayName>
    <minDate>2008-02-04</minDate>
    <maxDate>2010-07-21</maxDate>
    <latitude>38.4889</latitude>
    <longitude>-96.1707</longitude>
    <elevation>352</elevation>
    <locationLabels>
      <type>CNTRY</type>
      <id>FIPS:US</id>
      <displayName>United States</displayName>
    </locationLabels>
    <coverage>0.2036</coverage>
  </station>
  <station>
    <id>GHCND:US1KSLY0005</id>
    <displayName>EMPORIA 5.6 ESE, KS US</displayName>
    <minDate>2008-07-09</minDate>
    <maxDate>2013-01-16</maxDate>
    <latitude>38.382</latitude>
    <longitude>-96.0972</longitude>
    <elevation>331</elevation>
    <locationLabels>
      <type>CNTRY</type>
      <id>FIPS:US</id>
      <displayName>United States</displayName>
    </locationLabels>
    <coverage>0.8742</coverage>
  </station>
  <station>
    <id>GHCND:USW00013989</id>
    <displayName>EMPORIA MUNICIPAL AIRPORT, KS US</displayName>
    <minDate>1950-10-10</minDate>
    <maxDate>2013-01-14</maxDate>
    <latitude>38.32917</latitude>
    <longitude>-96.19472</longitude>
    <elevation>364.5</elevation>
    <locationLabels>
      <type>CNTRY</type>
      <id>FIPS:US</id>
      <displayName>United States</displayName>
    </locationLabels>
    <coverage>0.7373</coverage>
  </station>
  <station>
    <id>GHCND:USC00142541</id>
    <displayName>EMPORIA, KS US</displayName>
    <minDate>1893-01-01</minDate>
    <maxDate>1961-09-30</maxDate>
    <latitude>38.3861</latitude>
    <longitude>-96.1818</longitude>
    <elevation>328.3</elevation>
    <locationLabels>
      <type>CNTRY</type>
      <id>FIPS:US</id>
      <displayName>United States</displayName>
    </locationLabels>
    <coverage>0.9724</coverage>
  </station>
  <station>
    <id>GHCND:USC00362633</id>
    <displayName>EMPORIUM 1 E, PA US</displayName>
    <minDate>1894-01-01</minDate>
    <maxDate>1956-07-31</maxDate>
    <latitude>41.51667</latitude>
    <longitude>-78.21667</longitude>
    <elevation>353.9</elevation>
    <locationLabels>
      <type>CNTRY</type>
      <id>FIPS:US</id>
      <displayName>United States</displayName>
    </locationLabels>
    <coverage>0.9782</coverage>
  </station>
  <station>
    <id>GHCND:USC00362635</id>
    <displayName>EMPORIUM 1 N, PA US</displayName>
    <minDate>1960-07-22</minDate>
    <maxDate>1969-05-31</maxDate>
    <latitude>41.53333</latitude>
    <longitude>-78.23333</longitude>
    <elevation>476.1</elevation>
    <locationLabels>
      <type>CNTRY</type>
      <id>FIPS:US</id>
      <displayName>United States</displayName>
    </locationLabels>
    <coverage>1</coverage>
  </station>
  <station>
    <id>GHCND:USC00362634</id>
    <displayName>EMPORIUM 2 SSW, PA US</displayName>
    <minDate>1956-08-01</minDate>
    <maxDate>1960-07-21</maxDate>
    <latitude>41.46667</latitude>
    <longitude>-78.25</longitude>
    <elevation>531</elevation>
    <locationLabels>
      <type>CNTRY</type>
      <id>FIPS:US</id>
      <displayName>United States</displayName>
    </locationLabels>
    <coverage>0.9986</coverage>
  </station>
  <station>
    <id>GHCND:USC00362629</id>
    <displayName>EMPORIUM, PA US</displayName>
    <minDate>1969-06-01</minDate>
    <maxDate>2008-08-31</maxDate>
    <latitude>41.50667</latitude>
    <longitude>-78.2275</longitude>
    <elevation>317</elevation>
    <locationLabels>
      <type>CNTRY</type>
      <id>FIPS:US</id>
      <displayName>United States</displayName>
    </locationLabels>
    <coverage>0.9817</coverage>
  </station>
  <station>
    <id>GHCND:USC00362574</id>
    <displayName>EMSWORTH L D OHIO RV, PA US</displayName>
    <minDate>1991-09-01</minDate>
    <maxDate>2013-01-16</maxDate>
    <latitude>40.50194</latitude>
    <longitude>-80.08333</longitude>
    <elevation>218.5</elevation>
    <locationLabels>
      <type>CNTRY</type>
      <id>FIPS:US</id>
      <displayName>United States</displayName>
    </locationLabels>
    <coverage>0.9954</coverage>
  </station>
  <station>
    <id>GHCND:USC00102966</id>
    <displayName>ENAVILLE, ID US</displayName>
    <minDate>2011-11-08</minDate>
    <maxDate>2012-04-06</maxDate>
    <latitude>47.5689</latitude>
    <longitude>-116.253</longitude>
    <elevation>646.2</elevation>
    <locationLabels>
      <type>CNTRY</type>
      <id>FIPS:US</id>
      <displayName>United States</displayName>
    </locationLabels>
    <coverage>0.9735</coverage>
  </station>
  <station>
    <id>GHCND:USC00483045</id>
    <displayName>ENCAMPMENT 10 ESE, WY US</displayName>
    <minDate>1948-08-01</minDate>
    <maxDate>1998-10-31</maxDate>
    <latitude>41.18333</latitude>
    <longitude>-106.61667</longitude>
    <elevation>2250.9</elevation>
    <locationLabels>
      <type>CNTRY</type>
      <id>FIPS:US</id>
      <displayName>United States</displayName>
    </locationLabels>
    <coverage>0.9946</coverage>
  </station>
  <station>
    <id>GHCND:USC00483050</id>
    <displayName>ENCAMPMENT, WY US</displayName>
    <minDate>1948-08-01</minDate>
    <maxDate>1951-09-30</maxDate>
    <latitude>41.2058</latitude>
    <longitude>-106.7883</longitude>
    <elevation>2222</elevation>
    <locationLabels>
      <type>CNTRY</type>
      <id>FIPS:US</id>
      <displayName>United States</displayName>
    </locationLabels>
    <coverage>0.9412</coverage>
  </station>
  <station>
    <id>GHCND:US1TXWB0005</id>
    <displayName>ENCINAL 13.9 SSE, TX US</displayName>
    <minDate>2007-12-12</minDate>
    <maxDate>2013-01-12</maxDate>
    <latitude>27.8567</latitude>
    <longitude>-99.265</longitude>
    <elevation>143</elevation>
    <locationLabels>
      <type>CNTRY</type>
      <id>FIPS:US</id>
      <displayName>United States</displayName>
    </locationLabels>
    <coverage>0.2361</coverage>
  </station>
  <station>
    <id>GHCND:USC00412906</id>
    <displayName>ENCINAL, TX US</displayName>
    <minDate>1907-09-26</minDate>
    <maxDate>2013-01-09</maxDate>
    <latitude>27.9774</latitude>
    <longitude>-99.3847</longitude>
    <elevation>166.1</elevation>
    <locationLabels>
      <type>CNTRY</type>
      <id>FIPS:US</id>
      <displayName>United States</displayName>
    </locationLabels>
    <coverage>0.9261</coverage>
  </station>
  <station>
    <id>GHCND:US1CASD0007</id>
    <displayName>ENCINITAS 1.5 E, CA US</displayName>
    <minDate>2008-11-01</minDate>
    <maxDate>2013-01-16</maxDate>
    <latitude>33.0506</latitude>
    <longitude>-117.2371</longitude>
    <elevation>68.6</elevation>
    <locationLabels>
      <type>CNTRY</type>
      <id>FIPS:US</id>
      <displayName>United States</displayName>
    </locationLabels>
    <coverage>0.907</coverage>
  </station>
  <station>
    <id>GHCND:USC00292940</id>
    <displayName>ENDEE 5 SSE, NM US</displayName>
    <minDate>1941-01-01</minDate>
    <maxDate>1959-06-30</maxDate>
    <latitude>35.06667</latitude>
    <longitude>-103.06667</longitude>
    <elevation>1250.9</elevation>
    <locationLabels>
      <type>CNTRY</type>
      <id>FIPS:US</id>
      <displayName>United States</displayName>
    </locationLabels>
    <coverage>0.9725</coverage>
  </station>
  <station>
    <id>GHCND:USC00322697</id>
    <displayName>ENDERLIN 1 E, ND US</displayName>
    <minDate>1986-07-01</minDate>
    <maxDate>1990-09-30</maxDate>
    <latitude>46.61639</latitude>
    <longitude>-97.56694</longitude>
    <elevation>322.2</elevation>
    <locationLabels>
      <type>CNTRY</type>
      <id>FIPS:US</id>
      <displayName>United States</displayName>
    </locationLabels>
    <coverage>0.9897</coverage>
  </station>
  <station>
    <id>GHCND:USC00322695</id>
    <displayName>ENDERLIN 2 W, ND US</displayName>
    <minDate>1952-04-01</minDate>
    <maxDate>2012-11-30</maxDate>
    <latitude>46.6166</latitude>
    <longitude>-97.6383</longitude>
    <elevation>350.5</elevation>
    <locationLabels>
      <type>CNTRY</type>
      <id>FIPS:US</id>
      <displayName>United States</displayName>
    </locationLabels>
    <coverage>0.8196</coverage>
  </station>
  <station>
    <id>GHCND:US10chas028</id>
    <displayName>ENDERS 1.0 NNW, NE US</displayName>
    <minDate>2007-06-01</minDate>
    <maxDate>2013-01-16</maxDate>
    <latitude>40.4688</latitude>
    <longitude>-101.541</longitude>
    <elevation>972</elevation>
    <locationLabels>
      <type>CNTRY</type>
      <id>FIPS:US</id>
      <displayName>United States</displayName>
    </locationLabels>
    <coverage>0.9932</coverage>
  </station>
  <station>
    <id>GHCND:US10chas002</id>
    <displayName>ENDERS 3.0 W, NE US</displayName>
    <minDate>2007-01-01</minDate>
    <maxDate>2013-01-16</maxDate>
    <latitude>40.4629</latitude>
    <longitude>-101.5907</longitude>
    <elevation>975.1</elevation>
    <locationLabels>
      <type>CNTRY</type>
      <id>FIPS:US</id>
      <displayName>United States</displayName>
    </locationLabels>
    <coverage>0.9973</coverage>
  </station>
  <station>
    <id>GHCND:US10chas031</id>
    <displayName>ENDERS 5.3 S, NE US</displayName>
    <minDate>2007-03-01</minDate>
    <maxDate>2012-06-03</maxDate>
    <latitude>40.3793</latitude>
    <longitude>-101.5415</longitude>
    <elevation>1036</elevation>
    <locationLabels>
      <type>CNTRY</type>
      <id>FIPS:US</id>
      <displayName>United States</displayName>
    </locationLabels>
    <coverage>0.2237</coverage>
  </station>
  <station>
    <id>GHCND:USC00252741</id>
    <displayName>ENDERS LAKE, NE US</displayName>
    <minDate>1951-09-02</minDate>
    <maxDate>2012-11-15</maxDate>
    <latitude>40.418</latitude>
    <longitude>-101.5147</longitude>
    <elevation>938.2</elevation>
    <locationLabels>
      <type>CNTRY</type>
      <id>FIPS:US</id>
      <displayName>United States</displayName>
    </locationLabels>
    <coverage>0.9069</coverage>
  </station>
  <station>
    <id>GHCND:USC00252744</id>
    <displayName>ENDERSLAKE, NE US</displayName>
    <minDate>1909-05-01</minDate>
    <maxDate>1910-07-31</maxDate>
    <latitude>42.266667</latitude>
    <longitude>-100.083333</longitude>
    <locationLabels>
      <type>CNTRY</type>
      <id>FIPS:US</id>
      <displayName>United States</displayName>
    </locationLabels>
    <coverage>0.7309</coverage>
  </station>
  <station>
    <id>GHCND:USC00252748</id>
    <displayName>ENDICOTT 1, NE US</displayName>
    <minDate>1905-05-01</minDate>
    <maxDate>1909-12-31</maxDate>
    <latitude>40.083333</latitude>
    <longitude>-97.1</longitude>
    <elevation>392.6</elevation>
    <locationLabels>
      <type>CNTRY</type>
      <id>FIPS:US</id>
      <displayName>United States</displayName>
    </locationLabels>
    <coverage>0.544</coverage>
  </station>
  <station>
    <id>GHCND:US1NYBM0004</id>
    <displayName>ENDICOTT 5.2 SSE, NY US</displayName>
    <minDate>2004-01-01</minDate>
    <maxDate>2013-01-16</maxDate>
    <latitude>42.0296</latitude>
    <longitude>-76.0213</longitude>
    <elevation>317</elevation>
    <locationLabels>
      <type>CNTRY</type>
      <id>FIPS:US</id>
      <displayName>United States</displayName>
    </locationLabels>
    <coverage>0.9337</coverage>
  </station>
  <station>
    <id>GHCND:US1WAWM0006</id>
    <displayName>ENDICOTT 6.4 SE, WA US</displayName>
    <minDate>2009-11-25</minDate>
    <maxDate>2013-01-07</maxDate>
    <latitude>46.8567</latitude>
    <longitude>-117.5985</longitude>
    <elevation>506</elevation>
    <locationLabels>
      <type>CNTRY</type>
      <id>FIPS:US</id>
      <displayName>United States</displayName>
    </locationLabels>
    <coverage>0.5237</coverage>
  </station>
  <station>
    <id>GHCND:USC00302627</id>
    <displayName>ENDICOTT, NY US</displayName>
    <minDate>1985-08-01</minDate>
    <maxDate>2004-11-30</maxDate>
    <latitude>42.08583</latitude>
    <longitude>-76.08778</longitude>
    <elevation>252.1</elevation>
    <locationLabels>
      <type>CNTRY</type>
      <id>FIPS:US</id>
      <displayName>United States</displayName>
    </locationLabels>
    <coverage>0.9233</coverage>
  </station>
  <station>
    <id>GHCND:US1ILWM0006</id>
    <displayName>ENERGY 0.3 WSW, IL US</displayName>
    <minDate>2008-08-15</minDate>
    <maxDate>2013-01-16</maxDate>
    <latitude>37.7737</latitude>
    <longitude>-89.0308</longitude>
    <elevation>135</elevation>
    <locationLabels>
      <type>CNTRY</type>
      <id>FIPS:US</id>
      <displayName>United States</displayName>
    </locationLabels>
    <coverage>0.6442</coverage>
  </station>
  <station>
    <id>GHCND:US1NYTM0008</id>
    <displayName>ENFIELD 0.8 ENE, NY US</displayName>
    <minDate>2006-08-01</minDate>
    <maxDate>2013-01-06</maxDate>
    <latitude>42.4383</latitude>
    <longitude>-76.6167</longitude>
    <elevation>408.4</elevation>
    <locationLabels>
      <type>CNTRY</type>
      <id>FIPS:US</id>
      <displayName>United States</displayName>
    </locationLabels>
    <coverage>0.7252</coverage>
  </station>
  <station>
    <id>GHCND:US1CTHR0005</id>
    <displayName>ENFIELD 1.5 SE, CT US</displayName>
    <minDate>2009-08-04</minDate>
    <maxDate>2013-01-08</maxDate>
    <latitude>41.9563</latitude>
    <longitude>-72.573</longitude>
    <elevation>35.7</elevation>
    <locationLabels>
      <type>CNTRY</type>
      <id>FIPS:US</id>
      <displayName>United States</displayName>
    </locationLabels>
    <coverage>0.9027</coverage>
  </station>
  <station>
    <id>GHCND:USC00312827</id>
    <displayName>ENFIELD, NC US</displayName>
    <minDate>1910-07-01</minDate>
    <maxDate>2012-04-13</maxDate>
    <latitude>36.1686</latitude>
    <longitude>-77.675</longitude>
    <elevation>33.5</elevation>
    <locationLabels>
      <type>CNTRY</type>
      <id>FIPS:US</id>
      <displayName>United States</displayName>
    </locationLabels>
    <coverage>0.975</coverage>
  </station>
  <station>
    <id>GHCND:USC00202598</id>
    <displayName>ENGADINE MDOT, MI US</displayName>
    <minDate>2009-11-01</minDate>
    <maxDate>2013-01-16</maxDate>
    <latitude>46.12778</latitude>
    <longitude>-85.56944</longitude>
    <elevation>208.8</elevation>
    <locationLabels>
      <type>CNTRY</type>
      <id>FIPS:US</id>
      <displayName>United States</displayName>
    </locationLabels>
    <coverage>0.9378</coverage>
  </station>
  <station>
    <id>GHCND:US1ARPS0031</id>
    <displayName>ENGLAND 7.3 W, AR US</displayName>
    <minDate>2012-07-01</minDate>
    <maxDate>2012-10-15</maxDate>
    <latitude>34.5488</latitude>
    <longitude>-92.0959</longitude>
    <elevation>72.8</elevation>
    <locationLabels>
      <type>CNTRY</type>
      <id>FIPS:US</id>
      <displayName>United States</displayName>
    </locationLabels>
    <coverage>1</coverage>
  </station>
  <station>
    <id>GHCND:US1ARLK0004</id>
    <displayName>ENGLAND 8.7 NW, AR US</displayName>
    <minDate>2009-11-02</minDate>
    <maxDate>2012-12-10</maxDate>
    <latitude>34.639</latitude>
    <longitude>-92.071</longitude>
    <elevation>75.3</elevation>
    <locationLabels>
      <type>CNTRY</type>
      <id>FIPS:US</id>
      <displayName>United States</displayName>
    </locationLabels>
    <coverage>0.2573</coverage>
  </station>
  <station>
    <id>GHCND:USC00292960</id>
    <displayName>ENGLE 14 E, NM US</displayName>
    <minDate>1961-06-01</minDate>
    <maxDate>1976-05-31</maxDate>
    <latitude>33.21667</latitude>
    <longitude>-106.8</longitude>
    <elevation>1774.9</elevation>
    <locationLabels>
      <type>CNTRY</type>
      <id>FIPS:US</id>
      <displayName>United States</displayName>
    </locationLabels>
    <coverage>0.9993</coverage>
  </station>
  <station>
    <id>GHCND:USC00292965</id>
    <displayName>ENGLE 15 NE, NM US</displayName>
    <minDate>1976-06-01</minDate>
    <maxDate>1988-12-30</maxDate>
    <latitude>33.3</latitude>
    <longitude>-106.83333</longitude>
    <elevation>1610</elevation>
    <locationLabels>
      <type>CNTRY</type>
      <id>FIPS:US</id>
      <displayName>United States</displayName>
    </locationLabels>
    <coverage>0.99</coverage>
  </station>
  <station>
    <id>GHCND:US1NMSR0007</id>
    <displayName>ENGLE 4.0 ESE, NM US</displayName>
    <minDate>2010-11-07</minDate>
    <maxDate>2012-12-31</maxDate>
    <latitude>33.1659</latitude>
    <longitude>-106.9657</longitude>
    <elevation>1488.9</elevation>
    <locationLabels>
      <type>CNTRY</type>
      <id>FIPS:US</id>
      <displayName>United States</displayName>
    </locationLabels>
    <coverage>0.687</coverage>
  </station>
  <station>
    <id>GHCND:USW00023046</id>
    <displayName>ENGLE CAA AIRPORT, NM US</displayName>
    <minDate>1948-01-01</minDate>
    <maxDate>1950-05-24</maxDate>
    <latitude>33.23333</latitude>
    <longitude>-107.01667</longitude>
    <elevation>1478</elevation>
    <locationLabels>
      <type>CNTRY</type>
      <id>FIPS:US</id>
      <displayName>United States</displayName>
    </locationLabels>
    <coverage>1</coverage>
  </station>
  <station>
    <id>GHCND:USC00292945</id>
    <displayName>ENGLE, NM US</displayName>
    <minDate>1894-12-01</minDate>
    <maxDate>1961-05-31</maxDate>
    <latitude>33.18333</latitude>
    <longitude>-107.03333</longitude>
    <elevation>1455.1</elevation>
    <locationLabels>
      <type>CNTRY</type>
      <id>FIPS:US</id>
      <displayName>United States</displayName>
    </locationLabels>
    <coverage>0.6203</coverage>
  </station>
  <station>
    <id>GHCND:USC00412917</id>
    <displayName>ENGLEMAN GARDENS, TX US</displayName>
    <minDate>1943-08-26</minDate>
    <maxDate>1970-02-28</maxDate>
    <latitude>26.33333</latitude>
    <longitude>-98.01667</longitude>
    <elevation>21</elevation>
    <locationLabels>
      <type>CNTRY</type>
      <id>FIPS:US</id>
      <displayName>United States</displayName>
    </locationLabels>
    <coverage>0.8885</coverage>
  </station>
  <station>
    <id>GHCND:US1COAR0137</id>
    <displayName>ENGLEWOOD 0.6 SE, CO US</displayName>
    <minDate>2004-09-20</minDate>
    <maxDate>2013-01-15</maxDate>
    <latitude>39.6429</latitude>
    <longitude>-104.9972</longitude>
    <elevation>1631</elevation>
    <locationLabels>
      <type>CNTRY</type>
      <id>FIPS:US</id>
      <displayName>United States</displayName>
    </locationLabels>
    <coverage>0.9566</coverage>
  </station>
  <station>
    <id>GHCND:USC00142560</id>
    <displayName>ENGLEWOOD 1 NW, KS US</displayName>
    <minDate>1890-12-01</minDate>
    <maxDate>1951-09-29</maxDate>
    <latitude>37.0459</latitude>
    <longitude>-99.9964</longitude>
    <elevation>600.5</elevation>
    <locationLabels>
      <type>CNTRY</type>
      <id>FIPS:US</id>
      <displayName>United States</displayName>
    </locationLabels>
    <coverage>0.2946</coverage>
  </station>
  <station>
    <id>GHCND:US1FLSS0024</id>
    <displayName>ENGLEWOOD 1.9 NNW, FL US</displayName>
    <minDate>2008-06-04</minDate>
    <maxDate>2010-12-10</maxDate>
    <latitude>26.9845</latitude>
    <longitude>-82.3676</longitude>
    <elevation>3</elevation>
    <locationLabels>
      <type>CNTRY</type>
      <id>FIPS:US</id>
      <displayName>United States</displayName>
    </locationLabels>
    <coverage>0.775</coverage>
  </station>
  <station>
    <id>GHCND:US1FLSS0022</id>
    <displayName>ENGLEWOOD 2.0 NNW, FL US</displayName>
    <minDate>2008-01-01</minDate>
    <maxDate>2013-01-08</maxDate>
    <latitude>26.9865</latitude>
    <longitude>-82.3654</longitude>
    <elevation>3</elevation>
    <locationLabels>
      <type>CNTRY</type>
      <id>FIPS:US</id>
      <displayName>United States</displayName>
    </locationLabels>
    <coverage>0.9929</coverage>
  </station>
  <station>
    <id>GHCND:US1CODN0123</id>
    <displayName>ENGLEWOOD 2.2 WSW, CO US</displayName>
    <minDate>2008-07-01</minDate>
    <maxDate>2009-09-13</maxDate>
    <latitude>39.6308</latitude>
    <longitude>-105.0284</longitude>
    <elevation>1628.5</elevation>
    <locationLabels>
      <type>CNTRY</type>
      <id>FIPS:US</id>
      <displayName>United States</displayName>
    </locationLabels>
    <coverage>0.4432</coverage>
  </station>
  <station>
    <id>GHCND:US1CODN0108</id>
    <displayName>ENGLEWOOD 2.4 NNE, CO US</displayName>
    <minDate>2005-12-01</minDate>
    <maxDate>2008-08-02</maxDate>
    <latitude>39.6792</latitude>
    <longitude>-104.976</longitude>
    <elevation>1627.9</elevation>
    <locationLabels>
      <type>CNTRY</type>
      <id>FIPS:US</id>
      <displayName>United States</displayName>
    </locationLabels>
    <coverage>0.9826</coverage>
  </station>
  <station>
    <id>GHCND:US1FLSS0005</id>
    <displayName>ENGLEWOOD 2.5 WNW, FL US</displayName>
    <minDate>2007-10-18</minDate>
    <maxDate>2013-01-16</maxDate>
    <latitude>26.9739</latitude>
    <longitude>-82.3921</longitude>
    <elevation>6.1</elevation>
    <locationLabels>
      <type>CNTRY</type>
      <id>FIPS:US</id>
      <displayName>United States</displayName>
    </locationLabels>
    <coverage>0.9786</coverage>
  </station>
  <station>
    <id>GHCND:US1COAR0128</id>
    <displayName>ENGLEWOOD 3.7 ESE, CO US</displayName>
    <minDate>2004-07-07</minDate>
    <maxDate>2010-10-31</maxDate>
    <latitude>39.6351</latitude>
    <longitude>-104.9196</longitude>
    <elevation>1699.9</elevation>
    <locationLabels>
      <type>CNTRY</type>
      <id>FIPS:US</id>
      <displayName>United States</displayName>
    </locationLabels>
    <coverage>0.1495</coverage>
  </station>
  <station>
    <id>GHCND:US1KSCA0005</id>
    <displayName>ENGLEWOOD 3.8 WNW, KS US</displayName>
    <minDate>2006-08-16</minDate>
    <maxDate>2013-01-15</maxDate>
    <latitude>37.0506</latitude>
    <longitude>-100.0522</longitude>
    <elevation>630.9</elevation>
    <locationLabels>
      <type>CNTRY</type>
      <id>FIPS:US</id>
      <displayName>United States</displayName>
    </locationLabels>
    <coverage>0.3386</coverage>
  </station>
  <station>
    <id>GHCND:US1FLCH0018</id>
    <displayName>ENGLEWOOD 5.4 ESE, FL US</displayName>
    <minDate>2010-10-20</minDate>
    <maxDate>2013-01-16</maxDate>
    <latitude>26.9365</latitude>
    <longitude>-82.2707</longitude>
    <elevation>6.1</elevation>
    <locationLabels>
      <type>CNTRY</type>
      <id>FIPS:US</id>
      <displayName>United States</displayName>
    </locationLabels>
    <coverage>0.989</coverage>
  </station>
  <station>
    <id>GHCND:US1COAR0078</id>
    <displayName>ENGLEWOOD 6.4 SE, CO US</displayName>
    <minDate>2003-05-30</minDate>
    <maxDate>2005-07-16</maxDate>
    <latitude>39.5728</latitude>
    <longitude>-104.9167</longitude>
    <elevation>1745.9</elevation>
    <locationLabels>
      <type>CNTRY</type>
      <id>FIPS:US</id>
      <displayName>United States</displayName>
    </locationLabels>
    <coverage>0.475</coverage>
  </station>
  <station>
    <id>GHCND:USC00392686</id>
    <displayName>ENGLEWOOD, SD US</displayName>
    <minDate>1909-04-01</minDate>
    <maxDate>1913-04-13</maxDate>
    <latitude>44.3</latitude>
    <longitude>-103.783333</longitude>
    <elevation>1744.4</elevation>
    <locationLabels>
      <type>CNTRY</type>
      <id>FIPS:US</id>
      <displayName>United States</displayName>
    </locationLabels>
    <coverage>0.9362</coverage>
  </station>
  <station>
    <id>GHCND:USC00402894</id>
    <displayName>ENGLEWOOD, TN US</displayName>
    <minDate>1949-01-01</minDate>
    <maxDate>1962-03-31</maxDate>
    <latitude>35.4</latitude>
    <longitude>-84.51667</longitude>
    <elevation>249.9</elevation>
    <locationLabels>
      <type>CNTRY</type>
      <id>FIPS:US</id>
      <displayName>United States</displayName>
    </locationLabels>
    <coverage>0.9793</coverage>
  </station>
  <station>
    <id>GHCND:US1INCW0005</id>
    <displayName>ENGLISH 1.7 NE, IN US</displayName>
    <minDate>2010-10-06</minDate>
    <maxDate>2013-01-15</maxDate>
    <latitude>38.3517</latitude>
    <longitude>-86.4426</longitude>
    <elevation>207</elevation>
    <locationLabels>
      <type>CNTRY</type>
      <id>FIPS:US</id>
      <displayName>United States</displayName>
    </locationLabels>
    <coverage>0.2617</coverage>
  </station>
  <station>
    <id>GHCND:USC00362644</id>
    <displayName>ENGLISH CENTER, PA US</displayName>
    <minDate>1948-05-01</minDate>
    <maxDate>1984-11-30</maxDate>
    <latitude>41.43333</latitude>
    <longitude>-77.28333</longitude>
    <elevation>267.9</elevation>
    <locationLabels>
      <type>CNTRY</type>
      <id>FIPS:US</id>
      <displayName>United States</displayName>
    </locationLabels>
    <coverage>0.9913</coverage>
  </station>
  <station>
    <id>GHCND:USC00412920</id>
    <displayName>ENGLISH SOIL CONSERVATION SERVICE NUMBER 3, TX US</displayName>
    <minDate>1940-09-01</minDate>
    <maxDate>1942-05-31</maxDate>
    <latitude>33.633333</latitude>
    <longitude>-94.866667</longitude>
    <elevation>117.3</elevation>
    <locationLabels>
      <type>CNTRY</type>
      <id>FIPS:US</id>
      <displayName>United States</displayName>
    </locationLabels>
    <coverage>0.5721</coverage>
  </station>
  <station>
    <id>GHCND:USC00122660</id>
    <displayName>ENGLISH, IN US</displayName>
    <minDate>1969-07-01</minDate>
    <maxDate>2005-07-31</maxDate>
    <latitude>38.27889</latitude>
    <longitude>-86.46833</longitude>
    <elevation>155.4</elevation>
    <locationLabels>
      <type>CNTRY</type>
      <id>FIPS:US</id>
      <displayName>United States</displayName>
    </locationLabels>
    <coverage>0.9663</coverage>
  </station>
  <station>
    <id>GHCND:US1OKGD0010</id>
    <displayName>ENID 1.3 E, OK US</displayName>
    <minDate>2010-08-24</minDate>
    <maxDate>2013-01-16</maxDate>
    <latitude>36.4079</latitude>
    <longitude>-97.8449</longitude>
    <elevation>376.1</elevation>
    <locationLabels>
      <type>CNTRY</type>
      <id>FIPS:US</id>
      <displayName>United States</displayName>
    </locationLabels>
    <coverage>0.9612</coverage>
  </station>
</stationCollection>
