<?xml version="1.0" encoding="UTF-8" standalone="yes"?>
<stationCollection totalCount="46020" pageCount="461" pageSize="100" page="332">
  <station>
    <id>GHCND:US1INDV0013</id>
    <displayName>PLAINVILLE 0.7 S, IN US</displayName>
    <minDate>2007-05-15</minDate>
    <maxDate>2008-11-23</maxDate>
    <latitude>38.7942</latitude>
    <longitude>-87.1535</longitude>
    <elevation>143.9</elevation>
    <locationLabels>
      <type>CNTRY</type>
      <id>FIPS:US</id>
      <displayName>United States</displayName>
    </locationLabels>
    <coverage>0.5474</coverage>
  </station>
  <station>
    <id>GHCND:US1KSRO0003</id>
    <displayName>PLAINVILLE 0.7 SSW, KS US</displayName>
    <minDate>2008-03-27</minDate>
    <maxDate>2010-05-19</maxDate>
    <latitude>39.2261</latitude>
    <longitude>-99.3077</longitude>
    <elevation>634.9</elevation>
    <locationLabels>
      <type>CNTRY</type>
      <id>FIPS:US</id>
      <displayName>United States</displayName>
    </locationLabels>
    <coverage>0.1441</coverage>
  </station>
  <station>
    <id>GHCND:US1INDV0012</id>
    <displayName>PLAINVILLE 1.3 S, IN US</displayName>
    <minDate>2007-04-30</minDate>
    <maxDate>2013-01-16</maxDate>
    <latitude>38.785</latitude>
    <longitude>-87.1553</longitude>
    <elevation>168.2</elevation>
    <locationLabels>
      <type>CNTRY</type>
      <id>FIPS:US</id>
      <displayName>United States</displayName>
    </locationLabels>
    <coverage>0.8483</coverage>
  </station>
  <station>
    <id>GHCND:USC00146435</id>
    <displayName>PLAINVILLE 4 WNW, KS US</displayName>
    <minDate>1893-01-27</minDate>
    <maxDate>2013-01-16</maxDate>
    <latitude>39.245</latitude>
    <longitude>-99.3808</longitude>
    <elevation>634.9</elevation>
    <locationLabels>
      <type>CNTRY</type>
      <id>FIPS:US</id>
      <displayName>United States</displayName>
    </locationLabels>
    <coverage>0.8453</coverage>
  </station>
  <station>
    <id>GHCND:US1GAFL0009</id>
    <displayName>PLAINVILLE 4.0 WNW, GA US</displayName>
    <minDate>2008-10-15</minDate>
    <maxDate>2010-12-26</maxDate>
    <latitude>34.4289</latitude>
    <longitude>-85.1001</longitude>
    <elevation>189.3</elevation>
    <locationLabels>
      <type>CNTRY</type>
      <id>FIPS:US</id>
      <displayName>United States</displayName>
    </locationLabels>
    <coverage>1</coverage>
  </station>
  <station>
    <id>GHCND:US1MIAN0006</id>
    <displayName>PLAINWELL 1.3 W, MI US</displayName>
    <minDate>2008-08-07</minDate>
    <maxDate>2012-02-24</maxDate>
    <latitude>42.445</latitude>
    <longitude>-85.6702</longitude>
    <elevation>216.1</elevation>
    <locationLabels>
      <type>CNTRY</type>
      <id>FIPS:US</id>
      <displayName>United States</displayName>
    </locationLabels>
    <coverage>0.0786</coverage>
  </station>
  <station>
    <id>GHCND:US1MIAN0009</id>
    <displayName>PLAINWELL 2.9 NNW, MI US</displayName>
    <minDate>2011-09-21</minDate>
    <maxDate>2012-10-12</maxDate>
    <latitude>42.4865</latitude>
    <longitude>-85.6566</longitude>
    <elevation>249.6</elevation>
    <locationLabels>
      <type>CNTRY</type>
      <id>FIPS:US</id>
      <displayName>United States</displayName>
    </locationLabels>
    <coverage>0.482</coverage>
  </station>
  <station>
    <id>GHCND:US1MIBR0009</id>
    <displayName>PLAINWELL 5.4 E, MI US</displayName>
    <minDate>2008-07-28</minDate>
    <maxDate>2013-01-01</maxDate>
    <latitude>42.4507</latitude>
    <longitude>-85.5379</longitude>
    <elevation>278.3</elevation>
    <locationLabels>
      <type>CNTRY</type>
      <id>FIPS:US</id>
      <displayName>United States</displayName>
    </locationLabels>
    <coverage>0.7789</coverage>
  </station>
  <station>
    <id>GHCND:USC00206630</id>
    <displayName>PLAINWELL DAM, MI US</displayName>
    <minDate>1915-05-01</minDate>
    <maxDate>1938-12-31</maxDate>
    <latitude>42.433333</latitude>
    <longitude>-85.633333</longitude>
    <elevation>217.9</elevation>
    <locationLabels>
      <type>CNTRY</type>
      <id>FIPS:US</id>
      <displayName>United States</displayName>
    </locationLabels>
    <coverage>0.9822</coverage>
  </station>
  <station>
    <id>GHCND:US1SDAR0001</id>
    <displayName>PLANKINTON 5.8 S, SD US</displayName>
    <minDate>2007-06-15</minDate>
    <maxDate>2008-10-23</maxDate>
    <latitude>43.632</latitude>
    <longitude>-98.4828</longitude>
    <elevation>481.6</elevation>
    <locationLabels>
      <type>CNTRY</type>
      <id>FIPS:US</id>
      <displayName>United States</displayName>
    </locationLabels>
    <coverage>0.7344</coverage>
  </station>
  <station>
    <id>GHCND:USC00396650</id>
    <displayName>PLANKINTON, SD US</displayName>
    <minDate>1893-01-01</minDate>
    <maxDate>1913-12-31</maxDate>
    <latitude>43.71556</latitude>
    <longitude>-98.48222</longitude>
    <elevation>464.8</elevation>
    <locationLabels>
      <type>CNTRY</type>
      <id>FIPS:US</id>
      <displayName>United States</displayName>
    </locationLabels>
    <coverage>0.8894</coverage>
  </station>
  <station>
    <id>GHCND:US1TXCLL007</id>
    <displayName>PLANO 1.8 SE, TX US</displayName>
    <minDate>2007-03-01</minDate>
    <maxDate>2009-04-03</maxDate>
    <latitude>33.0306</latitude>
    <longitude>-96.7211</longitude>
    <elevation>196</elevation>
    <locationLabels>
      <type>CNTRY</type>
      <id>FIPS:US</id>
      <displayName>United States</displayName>
    </locationLabels>
    <coverage>0.9307</coverage>
  </station>
  <station>
    <id>GHCND:US1TXCLL022</id>
    <displayName>PLANO 2.4 N, TX US</displayName>
    <minDate>2008-05-21</minDate>
    <maxDate>2013-01-15</maxDate>
    <latitude>33.0811</latitude>
    <longitude>-96.7491</longitude>
    <elevation>220.4</elevation>
    <locationLabels>
      <type>CNTRY</type>
      <id>FIPS:US</id>
      <displayName>United States</displayName>
    </locationLabels>
    <coverage>0.4397</coverage>
  </station>
  <station>
    <id>GHCND:US1TXCLL008</id>
    <displayName>PLANO 2.4 WSW, TX US</displayName>
    <minDate>2007-06-24</minDate>
    <maxDate>2013-01-16</maxDate>
    <latitude>33.028</latitude>
    <longitude>-96.783</longitude>
    <elevation>226.2</elevation>
    <locationLabels>
      <type>CNTRY</type>
      <id>FIPS:US</id>
      <displayName>United States</displayName>
    </locationLabels>
    <coverage>0.9887</coverage>
  </station>
  <station>
    <id>GHCND:US1TXCLL019</id>
    <displayName>PLANO 2.5 WSW, TX US</displayName>
    <minDate>2008-06-01</minDate>
    <maxDate>2012-10-31</maxDate>
    <latitude>33.0275</latitude>
    <longitude>-96.7846</longitude>
    <elevation>223.4</elevation>
    <locationLabels>
      <type>CNTRY</type>
      <id>FIPS:US</id>
      <displayName>United States</displayName>
    </locationLabels>
    <coverage>0.8866</coverage>
  </station>
  <station>
    <id>GHCND:US1TXCLL042</id>
    <displayName>PLANO 3.1 N, TX US</displayName>
    <minDate>2010-06-01</minDate>
    <maxDate>2010-11-23</maxDate>
    <latitude>33.0906</latitude>
    <longitude>-96.7461</longitude>
    <elevation>217.3</elevation>
    <locationLabels>
      <type>CNTRY</type>
      <id>FIPS:US</id>
      <displayName>United States</displayName>
    </locationLabels>
    <coverage>0.9773</coverage>
  </station>
  <station>
    <id>GHCND:US1TXCLL014</id>
    <displayName>PLANO 4.6 NW, TX US</displayName>
    <minDate>2008-01-17</minDate>
    <maxDate>2013-01-10</maxDate>
    <latitude>33.0849</latitude>
    <longitude>-96.7147</longitude>
    <elevation>203</elevation>
    <locationLabels>
      <type>CNTRY</type>
      <id>FIPS:US</id>
      <displayName>United States</displayName>
    </locationLabels>
    <coverage>0.1477</coverage>
  </station>
  <station>
    <id>GHCND:US1TXCLL018</id>
    <displayName>PLANO 5.3 W, TX US</displayName>
    <minDate>2000-06-06</minDate>
    <maxDate>2013-01-16</maxDate>
    <latitude>33.0539</latitude>
    <longitude>-96.8371</longitude>
    <elevation>205.7</elevation>
    <locationLabels>
      <type>CNTRY</type>
      <id>FIPS:US</id>
      <displayName>United States</displayName>
    </locationLabels>
    <coverage>0.2947</coverage>
  </station>
  <station>
    <id>GHCND:USC00116855</id>
    <displayName>PLANO, IL US</displayName>
    <minDate>2001-05-01</minDate>
    <maxDate>2011-01-12</maxDate>
    <latitude>41.65194</latitude>
    <longitude>-88.52917</longitude>
    <elevation>179.5</elevation>
    <locationLabels>
      <type>CNTRY</type>
      <id>FIPS:US</id>
      <displayName>United States</displayName>
    </locationLabels>
    <coverage>0.9915</coverage>
  </station>
  <station>
    <id>GHCND:US1FLHB0042</id>
    <displayName>PLANT CITY 1.9 S, FL US</displayName>
    <minDate>2007-10-06</minDate>
    <maxDate>2013-01-16</maxDate>
    <latitude>27.979</latitude>
    <longitude>-82.1272</longitude>
    <elevation>46</elevation>
    <locationLabels>
      <type>CNTRY</type>
      <id>FIPS:US</id>
      <displayName>United States</displayName>
    </locationLabels>
    <coverage>0.9891</coverage>
  </station>
  <station>
    <id>GHCND:US1FLHB0045</id>
    <displayName>PLANT CITY 1.9 SSW, FL US</displayName>
    <minDate>2007-10-13</minDate>
    <maxDate>2010-02-06</maxDate>
    <latitude>27.982</latitude>
    <longitude>-82.1452</longitude>
    <elevation>44.5</elevation>
    <locationLabels>
      <type>CNTRY</type>
      <id>FIPS:US</id>
      <displayName>United States</displayName>
    </locationLabels>
    <coverage>0.6156</coverage>
  </station>
  <station>
    <id>GHCND:US1FLHB0016</id>
    <displayName>PLANT CITY 3.4 E, FL US</displayName>
    <minDate>2007-10-02</minDate>
    <maxDate>2012-07-18</maxDate>
    <latitude>28.0088</latitude>
    <longitude>-82.0724</longitude>
    <elevation>50</elevation>
    <locationLabels>
      <type>CNTRY</type>
      <id>FIPS:US</id>
      <displayName>United States</displayName>
    </locationLabels>
    <coverage>0.6638</coverage>
  </station>
  <station>
    <id>GHCND:US1FLHB0001</id>
    <displayName>PLANT CITY 6.4 NW, FL US</displayName>
    <minDate>2007-10-06</minDate>
    <maxDate>2011-08-24</maxDate>
    <latitude>28.0651</latitude>
    <longitude>-82.2092</longitude>
    <elevation>31.1</elevation>
    <locationLabels>
      <type>CNTRY</type>
      <id>FIPS:US</id>
      <displayName>United States</displayName>
    </locationLabels>
    <coverage>0.8985</coverage>
  </station>
  <station>
    <id>GHCND:USC00087205</id>
    <displayName>PLANT CITY, FL US</displayName>
    <minDate>1892-09-01</minDate>
    <maxDate>2013-01-15</maxDate>
    <latitude>28.0236</latitude>
    <longitude>-82.1422</longitude>
    <elevation>36.6</elevation>
    <locationLabels>
      <type>CNTRY</type>
      <id>FIPS:US</id>
      <displayName>United States</displayName>
    </locationLabels>
    <coverage>0.9318</coverage>
  </station>
  <station>
    <id>GHCND:USC00507352</id>
    <displayName>PLANT MATERIALS CNTR, AK US</displayName>
    <minDate>1975-08-01</minDate>
    <maxDate>1994-04-30</maxDate>
    <latitude>61.53333</latitude>
    <longitude>-149.08333</longitude>
    <elevation>20.4</elevation>
    <locationLabels>
      <type>CNTRY</type>
      <id>FIPS:US</id>
      <displayName>United States</displayName>
    </locationLabels>
    <coverage>0.9566</coverage>
  </station>
  <station>
    <id>GHCND:USC00087189</id>
    <displayName>PLANTATION, FL US</displayName>
    <minDate>2001-11-01</minDate>
    <maxDate>2006-01-15</maxDate>
    <latitude>26.11083</latitude>
    <longitude>-80.27278</longitude>
    <elevation>2.1</elevation>
    <locationLabels>
      <type>CNTRY</type>
      <id>FIPS:US</id>
      <displayName>United States</displayName>
    </locationLabels>
    <coverage>0.9713</coverage>
  </station>
  <station>
    <id>GHCND:USC00016508</id>
    <displayName>PLANTERSVILLE, AL US</displayName>
    <minDate>1940-01-01</minDate>
    <maxDate>2013-01-15</maxDate>
    <latitude>32.613</latitude>
    <longitude>-86.9055</longitude>
    <elevation>70.1</elevation>
    <locationLabels>
      <type>CNTRY</type>
      <id>FIPS:US</id>
      <displayName>United States</displayName>
    </locationLabels>
    <coverage>0.9822</coverage>
  </station>
  <station>
    <id>GHCND:USC00167364</id>
    <displayName>PLAQUEMINE 2 N, LA US</displayName>
    <minDate>1892-02-01</minDate>
    <maxDate>1962-04-30</maxDate>
    <latitude>30.3214</latitude>
    <longitude>-91.2517</longitude>
    <elevation>6.1</elevation>
    <locationLabels>
      <type>CNTRY</type>
      <id>FIPS:US</id>
      <displayName>United States</displayName>
    </locationLabels>
    <coverage>0.3056</coverage>
  </station>
  <station>
    <id>GHCND:USC00167366</id>
    <displayName>PLAQUEMINE 2 N, LA US</displayName>
    <minDate>1978-03-01</minDate>
    <maxDate>2013-01-16</maxDate>
    <latitude>30.3214</latitude>
    <longitude>-91.2517</longitude>
    <elevation>6.1</elevation>
    <locationLabels>
      <type>CNTRY</type>
      <id>FIPS:US</id>
      <displayName>United States</displayName>
    </locationLabels>
    <coverage>0.9969</coverage>
  </station>
  <station>
    <id>GHCND:USC00417091</id>
    <displayName>PLATA, TX US</displayName>
    <minDate>1964-10-01</minDate>
    <maxDate>1977-02-28</maxDate>
    <latitude>29.85</latitude>
    <longitude>-104.01667</longitude>
    <elevation>1143.9</elevation>
    <locationLabels>
      <type>CNTRY</type>
      <id>FIPS:US</id>
      <displayName>United States</displayName>
    </locationLabels>
    <coverage>0.9252</coverage>
  </station>
  <station>
    <id>GHCND:USC00426910</id>
    <displayName>PLATEAU, UT US</displayName>
    <minDate>1902-04-01</minDate>
    <maxDate>1907-12-31</maxDate>
    <latitude>38.583333</latitude>
    <longitude>-111.833333</longitude>
    <elevation>2133.6</elevation>
    <locationLabels>
      <type>CNTRY</type>
      <id>FIPS:US</id>
      <displayName>United States</displayName>
    </locationLabels>
    <coverage>0.9962</coverage>
  </station>
  <station>
    <id>GHCND:USC00046975</id>
    <displayName>PLATINA, CA US</displayName>
    <minDate>1962-03-24</minDate>
    <maxDate>1974-04-30</maxDate>
    <latitude>40.36667</latitude>
    <longitude>-122.88333</longitude>
    <elevation>688.8</elevation>
    <locationLabels>
      <type>CNTRY</type>
      <id>FIPS:US</id>
      <displayName>United States</displayName>
    </locationLabels>
    <coverage>0.9548</coverage>
  </station>
  <station>
    <id>GHCND:USC00507365</id>
    <displayName>PLATINUM, AK US</displayName>
    <minDate>1939-10-08</minDate>
    <maxDate>1964-06-30</maxDate>
    <latitude>59.01667</latitude>
    <longitude>-161.78333</longitude>
    <elevation>6.1</elevation>
    <locationLabels>
      <type>CNTRY</type>
      <id>FIPS:US</id>
      <displayName>United States</displayName>
    </locationLabels>
    <coverage>0.9048</coverage>
  </station>
  <station>
    <id>GHCND:US1MOTX0030</id>
    <displayName>PLATO 5.7 NE, MO US</displayName>
    <minDate>2011-01-11</minDate>
    <maxDate>2013-01-16</maxDate>
    <latitude>37.5572</latitude>
    <longitude>-92.1461</longitude>
    <elevation>420</elevation>
    <locationLabels>
      <type>CNTRY</type>
      <id>FIPS:US</id>
      <displayName>United States</displayName>
    </locationLabels>
    <coverage>0.7422</coverage>
  </station>
  <station>
    <id>GHCND:USC00056559</id>
    <displayName>PLATORO, CO US</displayName>
    <minDate>1949-11-01</minDate>
    <maxDate>1991-10-31</maxDate>
    <latitude>37.35</latitude>
    <longitude>-106.53333</longitude>
    <elevation>2997.4</elevation>
    <locationLabels>
      <type>CNTRY</type>
      <id>FIPS:US</id>
      <displayName>United States</displayName>
    </locationLabels>
    <coverage>0.2697</coverage>
  </station>
  <station>
    <id>GHCND:US1SDCM0001</id>
    <displayName>PLATTE 13.7 W, SD US</displayName>
    <minDate>2007-06-26</minDate>
    <maxDate>2012-12-20</maxDate>
    <latitude>43.3918</latitude>
    <longitude>-99.1162</longitude>
    <elevation>430.7</elevation>
    <locationLabels>
      <type>CNTRY</type>
      <id>FIPS:US</id>
      <displayName>United States</displayName>
    </locationLabels>
    <coverage>0.5372</coverage>
  </station>
  <station>
    <id>GHCND:USC00256769</id>
    <displayName>PLATTE CENTER, NE US</displayName>
    <minDate>1992-12-01</minDate>
    <maxDate>2002-10-31</maxDate>
    <latitude>41.54111</latitude>
    <longitude>-97.48694</longitude>
    <elevation>474</elevation>
    <locationLabels>
      <type>CNTRY</type>
      <id>FIPS:US</id>
      <displayName>United States</displayName>
    </locationLabels>
    <coverage>0.9997</coverage>
  </station>
  <station>
    <id>GHCND:US1MOFSA165</id>
    <displayName>PLATTE CITY 0.3 ENE, MO US</displayName>
    <minDate>2006-05-01</minDate>
    <maxDate>2013-01-14</maxDate>
    <latitude>39.3633</latitude>
    <longitude>-94.7724</longitude>
    <elevation>285.9</elevation>
    <locationLabels>
      <type>CNTRY</type>
      <id>FIPS:US</id>
      <displayName>United States</displayName>
    </locationLabels>
    <coverage>0.9955</coverage>
  </station>
  <station>
    <id>GHCND:US1MOPT0013</id>
    <displayName>PLATTE CITY 1.3 ENE, MO US</displayName>
    <minDate>2011-05-20</minDate>
    <maxDate>2012-12-20</maxDate>
    <latitude>39.3705</latitude>
    <longitude>-94.7566</longitude>
    <elevation>269.7</elevation>
    <locationLabels>
      <type>CNTRY</type>
      <id>FIPS:US</id>
      <displayName>United States</displayName>
    </locationLabels>
    <coverage>0.296</coverage>
  </station>
  <station>
    <id>GHCND:US1MOPT0009</id>
    <displayName>PLATTE CITY 2.0 SSE, MO US</displayName>
    <minDate>2010-09-18</minDate>
    <maxDate>2013-01-16</maxDate>
    <latitude>39.3343</latitude>
    <longitude>-94.7642</longitude>
    <elevation>255.1</elevation>
    <locationLabels>
      <type>CNTRY</type>
      <id>FIPS:US</id>
      <displayName>United States</displayName>
    </locationLabels>
    <coverage>0.8486</coverage>
  </station>
  <station>
    <id>GHCND:US1MOPT0002</id>
    <displayName>PLATTE CITY 2.6 ENE, MO US</displayName>
    <minDate>2006-05-11</minDate>
    <maxDate>2007-10-22</maxDate>
    <latitude>39.3694</latitude>
    <longitude>-94.7304</longitude>
    <elevation>267</elevation>
    <locationLabels>
      <type>CNTRY</type>
      <id>FIPS:US</id>
      <displayName>United States</displayName>
    </locationLabels>
    <coverage>0.2396</coverage>
  </station>
  <station>
    <id>GHCND:US1MOPT0007</id>
    <displayName>PLATTE CITY 2.9 NNE, MO US</displayName>
    <minDate>2009-05-27</minDate>
    <maxDate>2013-01-16</maxDate>
    <latitude>39.3979</latitude>
    <longitude>-94.7526</longitude>
    <elevation>261.2</elevation>
    <locationLabels>
      <type>CNTRY</type>
      <id>FIPS:US</id>
      <displayName>United States</displayName>
    </locationLabels>
    <coverage>0.8122</coverage>
  </station>
  <station>
    <id>GHCND:USC00236726</id>
    <displayName>PLATTE CITY, MO US</displayName>
    <minDate>1941-01-13</minDate>
    <maxDate>1942-05-22</maxDate>
    <latitude>39.369</latitude>
    <longitude>-94.7865</longitude>
    <elevation>249.9</elevation>
    <locationLabels>
      <type>CNTRY</type>
      <id>FIPS:US</id>
      <displayName>United States</displayName>
    </locationLabels>
    <coverage>0.9596</coverage>
  </station>
  <station>
    <id>GHCND:USC00236728</id>
    <displayName>PLATTE CITY, MO US</displayName>
    <minDate>1987-02-01</minDate>
    <maxDate>1987-10-31</maxDate>
    <latitude>39.38333</latitude>
    <longitude>-94.76667</longitude>
    <elevation>249.9</elevation>
    <locationLabels>
      <type>CNTRY</type>
      <id>FIPS:US</id>
      <displayName>United States</displayName>
    </locationLabels>
    <coverage>1</coverage>
  </station>
  <station>
    <id>GHCND:USC00306649</id>
    <displayName>PLATTE CLOVE, NY US</displayName>
    <minDate>1998-09-01</minDate>
    <maxDate>2013-01-16</maxDate>
    <latitude>42.1389</latitude>
    <longitude>-74.0914</longitude>
    <elevation>619.4</elevation>
    <locationLabels>
      <type>CNTRY</type>
      <id>FIPS:US</id>
      <displayName>United States</displayName>
    </locationLabels>
    <coverage>0.9311</coverage>
  </station>
  <station>
    <id>GHCND:USC00396669</id>
    <displayName>PLATTE, SD US</displayName>
    <minDate>1951-11-10</minDate>
    <maxDate>2012-11-30</maxDate>
    <latitude>43.3891</latitude>
    <longitude>-98.8413</longitude>
    <elevation>490.7</elevation>
    <locationLabels>
      <type>CNTRY</type>
      <id>FIPS:US</id>
      <displayName>United States</displayName>
    </locationLabels>
    <coverage>0.9905</coverage>
  </station>
  <station>
    <id>GHCND:US1COWE0018</id>
    <displayName>PLATTEVILLE 2.7 SSW, CO US</displayName>
    <minDate>2005-09-28</minDate>
    <maxDate>2007-08-28</maxDate>
    <latitude>40.1791</latitude>
    <longitude>-104.8433</longitude>
    <elevation>1473.1</elevation>
    <locationLabels>
      <type>CNTRY</type>
      <id>FIPS:US</id>
      <displayName>United States</displayName>
    </locationLabels>
    <coverage>0.2243</coverage>
  </station>
  <station>
    <id>GHCND:USC00476646</id>
    <displayName>PLATTEVILLE, WI US</displayName>
    <minDate>1936-03-11</minDate>
    <maxDate>2012-09-05</maxDate>
    <latitude>42.7488</latitude>
    <longitude>-90.4655</longitude>
    <elevation>301.8</elevation>
    <locationLabels>
      <type>CNTRY</type>
      <id>FIPS:US</id>
      <displayName>United States</displayName>
    </locationLabels>
    <coverage>0.9632</coverage>
  </station>
  <station>
    <id>GHCND:US1MOFSA049</id>
    <displayName>PLATTSBURG 0.6 W, MO US</displayName>
    <minDate>2006-05-01</minDate>
    <maxDate>2013-01-15</maxDate>
    <latitude>39.5647</latitude>
    <longitude>-94.474</longitude>
    <elevation>288</elevation>
    <locationLabels>
      <type>CNTRY</type>
      <id>FIPS:US</id>
      <displayName>United States</displayName>
    </locationLabels>
    <coverage>0.9976</coverage>
  </station>
  <station>
    <id>GHCND:US1MOCN0002</id>
    <displayName>PLATTSBURG 5.7 S, MO US</displayName>
    <minDate>2006-07-19</minDate>
    <maxDate>2013-01-16</maxDate>
    <latitude>39.4847</latitude>
    <longitude>-94.4417</longitude>
    <elevation>296.9</elevation>
    <locationLabels>
      <type>CNTRY</type>
      <id>FIPS:US</id>
      <displayName>United States</displayName>
    </locationLabels>
    <coverage>0.9553</coverage>
  </station>
  <station>
    <id>GHCND:USC00236739</id>
    <displayName>PLATTSBURG, MO US</displayName>
    <minDate>1966-06-01</minDate>
    <maxDate>2009-10-31</maxDate>
    <latitude>39.5669</latitude>
    <longitude>-94.4544</longitude>
    <elevation>275.8</elevation>
    <locationLabels>
      <type>CNTRY</type>
      <id>FIPS:US</id>
      <displayName>United States</displayName>
    </locationLabels>
    <coverage>0.825</coverage>
  </station>
  <station>
    <id>GHCND:USC00336675</id>
    <displayName>PLATTSBURG, OH US</displayName>
    <minDate>1893-01-01</minDate>
    <maxDate>1918-03-31</maxDate>
    <latitude>39.416667</latitude>
    <longitude>-83.116667</longitude>
    <elevation>344.4</elevation>
    <locationLabels>
      <type>CNTRY</type>
      <id>FIPS:US</id>
      <displayName>United States</displayName>
    </locationLabels>
    <coverage>0.9559</coverage>
  </station>
  <station>
    <id>GHCND:USC00306660</id>
    <displayName>PLATTSBURGH 3 S, NY US</displayName>
    <minDate>2011-08-01</minDate>
    <maxDate>2012-11-30</maxDate>
    <latitude>44.6523</latitude>
    <longitude>-73.44</longitude>
    <elevation>54.3</elevation>
    <locationLabels>
      <type>CNTRY</type>
      <id>FIPS:US</id>
      <displayName>United States</displayName>
    </locationLabels>
    <coverage>1</coverage>
  </station>
  <station>
    <id>GHCND:USC00306659</id>
    <displayName>PLATTSBURGH AFB, NY US</displayName>
    <minDate>1898-03-01</minDate>
    <maxDate>1995-02-28</maxDate>
    <latitude>44.65</latitude>
    <longitude>-73.46667</longitude>
    <elevation>50.3</elevation>
    <locationLabels>
      <type>CNTRY</type>
      <id>FIPS:US</id>
      <displayName>United States</displayName>
    </locationLabels>
    <coverage>0.6213</coverage>
  </station>
  <station>
    <id>GHCND:USW00094733</id>
    <displayName>PLATTSBURGH CLINTON CO AIRPORT, NY US</displayName>
    <minDate>1998-07-02</minDate>
    <maxDate>2007-04-29</maxDate>
    <latitude>44.68722</latitude>
    <longitude>-73.52306</longitude>
    <elevation>113.4</elevation>
    <locationLabels>
      <type>CNTRY</type>
      <id>FIPS:US</id>
      <displayName>United States</displayName>
    </locationLabels>
    <coverage>0.9981</coverage>
  </station>
  <station>
    <id>GHCND:USW00004742</id>
    <displayName>PLATTSBURGH INTERNATIONAL AIRPORT, NY US</displayName>
    <minDate>1956-01-15</minDate>
    <maxDate>1970-12-31</maxDate>
    <latitude>44.65</latitude>
    <longitude>-73.46667</longitude>
    <elevation>71.3</elevation>
    <locationLabels>
      <type>CNTRY</type>
      <id>FIPS:US</id>
      <displayName>United States</displayName>
    </locationLabels>
    <coverage>0.9941</coverage>
  </station>
  <station>
    <id>GHCND:USW00064776</id>
    <displayName>PLATTSBURGH INTERNATIONAL AIRPORT, NY US</displayName>
    <minDate>2007-06-18</minDate>
    <maxDate>2013-01-14</maxDate>
    <latitude>44.65</latitude>
    <longitude>-73.46667</longitude>
    <elevation>71.3</elevation>
    <locationLabels>
      <type>CNTRY</type>
      <id>FIPS:US</id>
      <displayName>United States</displayName>
    </locationLabels>
    <coverage>0.9818</coverage>
  </station>
  <station>
    <id>GHCND:USC00256795</id>
    <displayName>PLATTSMOUTH 1 E, NE US</displayName>
    <minDate>1894-11-01</minDate>
    <maxDate>2013-01-11</maxDate>
    <latitude>41.0266</latitude>
    <longitude>-95.8827</longitude>
    <elevation>306.3</elevation>
    <locationLabels>
      <type>CNTRY</type>
      <id>FIPS:US</id>
      <displayName>United States</displayName>
    </locationLabels>
    <coverage>0.7003</coverage>
  </station>
  <station>
    <id>GHCND:US10cass001</id>
    <displayName>PLATTSMOUTH 1.4 SW, NE US</displayName>
    <minDate>2007-08-31</minDate>
    <maxDate>2013-01-16</maxDate>
    <latitude>40.9946</latitude>
    <longitude>-95.8976</longitude>
    <elevation>337.1</elevation>
    <locationLabels>
      <type>CNTRY</type>
      <id>FIPS:US</id>
      <displayName>United States</displayName>
    </locationLabels>
    <coverage>0.9598</coverage>
  </station>
  <station>
    <id>GHCND:USC00256797</id>
    <displayName>PLATTSMOUTH RIVER, NE US</displayName>
    <minDate>1891-10-01</minDate>
    <maxDate>1932-07-31</maxDate>
    <latitude>41</latitude>
    <longitude>-95.866667</longitude>
    <elevation>287.1</elevation>
    <locationLabels>
      <type>CNTRY</type>
      <id>FIPS:US</id>
      <displayName>United States</displayName>
    </locationLabels>
    <coverage>0.4711</coverage>
  </station>
  <station>
    <id>GHCND:USC00296951</id>
    <displayName>PLAZA LARGA, NM US</displayName>
    <minDate>1948-06-01</minDate>
    <maxDate>1951-09-30</maxDate>
    <latitude>35.08333</latitude>
    <longitude>-103.6</longitude>
    <elevation>1241.1</elevation>
    <locationLabels>
      <type>CNTRY</type>
      <id>FIPS:US</id>
      <displayName>United States</displayName>
    </locationLabels>
    <coverage>0.9942</coverage>
  </station>
  <station>
    <id>GHCND:USC00417097</id>
    <displayName>PLEAK, TX US</displayName>
    <minDate>1948-06-01</minDate>
    <maxDate>1950-09-24</maxDate>
    <latitude>29.46667</latitude>
    <longitude>-95.78333</longitude>
    <elevation>24.1</elevation>
    <locationLabels>
      <type>CNTRY</type>
      <id>FIPS:US</id>
      <displayName>United States</displayName>
    </locationLabels>
    <coverage>0.6217</coverage>
  </station>
  <station>
    <id>GHCND:USC00426915</id>
    <displayName>PLEASANT CREEK POWER, UT US</displayName>
    <minDate>1956-01-01</minDate>
    <maxDate>1967-02-28</maxDate>
    <latitude>39.53333</latitude>
    <longitude>-111.36667</longitude>
    <elevation>2104.9</elevation>
    <locationLabels>
      <type>CNTRY</type>
      <id>FIPS:US</id>
      <displayName>United States</displayName>
    </locationLabels>
    <coverage>0.998</coverage>
  </station>
  <station>
    <id>GHCND:US10sewa005</id>
    <displayName>PLEASANT DALE 2.5 NNW, NE US</displayName>
    <minDate>2007-01-01</minDate>
    <maxDate>2013-01-16</maxDate>
    <latitude>40.8157</latitude>
    <longitude>-96.9506</longitude>
    <elevation>413</elevation>
    <locationLabels>
      <type>CNTRY</type>
      <id>FIPS:US</id>
      <displayName>United States</displayName>
    </locationLabels>
    <coverage>0.9846</coverage>
  </station>
  <station>
    <id>GHCND:US10sewa016</id>
    <displayName>PLEASANT DALE 4.3 NW, NE US</displayName>
    <minDate>2008-05-02</minDate>
    <maxDate>2012-09-13</maxDate>
    <latitude>40.8292</latitude>
    <longitude>-96.9898</longitude>
    <elevation>441</elevation>
    <locationLabels>
      <type>CNTRY</type>
      <id>FIPS:US</id>
      <displayName>United States</displayName>
    </locationLabels>
    <coverage>0.7569</coverage>
  </station>
  <station>
    <id>GHCND:US1UTUT0022</id>
    <displayName>PLEASANT GROVE 1.0 WNW, UT US</displayName>
    <minDate>2011-04-21</minDate>
    <maxDate>2013-01-16</maxDate>
    <latitude>40.3783</latitude>
    <longitude>-111.7488</longitude>
    <elevation>1406.7</elevation>
    <locationLabels>
      <type>CNTRY</type>
      <id>FIPS:US</id>
      <displayName>United States</displayName>
    </locationLabels>
    <coverage>0.9419</coverage>
  </station>
  <station>
    <id>GHCND:US1ARST0013</id>
    <displayName>PLEASANT GROVE 1.9 WNW, AR US</displayName>
    <minDate>2012-07-09</minDate>
    <maxDate>2013-01-14</maxDate>
    <latitude>35.8258</latitude>
    <longitude>-91.9405</longitude>
    <elevation>219.5</elevation>
    <locationLabels>
      <type>CNTRY</type>
      <id>FIPS:US</id>
      <displayName>United States</displayName>
    </locationLabels>
    <coverage>0.9263</coverage>
  </station>
  <station>
    <id>GHCND:USC00016521</id>
    <displayName>PLEASANT GROVE SCHOOL, AL US</displayName>
    <minDate>1949-05-01</minDate>
    <maxDate>1962-03-31</maxDate>
    <latitude>34.95</latitude>
    <longitude>-85.91667</longitude>
    <elevation>192</elevation>
    <locationLabels>
      <type>CNTRY</type>
      <id>FIPS:US</id>
      <displayName>United States</displayName>
    </locationLabels>
    <coverage>0.9947</coverage>
  </station>
  <station>
    <id>GHCND:USR0000PLGV</id>
    <displayName>PLEASANT GROVE UTAH, UT US</displayName>
    <minDate>1997-06-03</minDate>
    <maxDate>2012-08-31</maxDate>
    <latitude>40.4311</latitude>
    <longitude>-111.75</longitude>
    <elevation>1585</elevation>
    <locationLabels>
      <type>CNTRY</type>
      <id>FIPS:US</id>
      <displayName>United States</displayName>
    </locationLabels>
    <coverage>0.8745</coverage>
  </station>
  <station>
    <id>GHCND:USC00426919</id>
    <displayName>PLEASANT GROVE, UT US</displayName>
    <minDate>1946-09-01</minDate>
    <maxDate>2012-12-15</maxDate>
    <latitude>40.3675</latitude>
    <longitude>-111.7338</longitude>
    <elevation>1436.2</elevation>
    <locationLabels>
      <type>CNTRY</type>
      <id>FIPS:US</id>
      <displayName>United States</displayName>
    </locationLabels>
    <coverage>0.9933</coverage>
  </station>
  <station>
    <id>GHCND:US1TNCM0010</id>
    <displayName>PLEASANT HILL 0.5 ESE, TN US</displayName>
    <minDate>2007-07-09</minDate>
    <maxDate>2013-01-16</maxDate>
    <latitude>35.9736</latitude>
    <longitude>-85.1886</longitude>
    <elevation>577</elevation>
    <locationLabels>
      <type>CNTRY</type>
      <id>FIPS:US</id>
      <displayName>United States</displayName>
    </locationLabels>
    <coverage>0.6682</coverage>
  </station>
  <station>
    <id>GHCND:US1ORLA0075</id>
    <displayName>PLEASANT HILL 1 S, OR US</displayName>
    <minDate>2007-12-09</minDate>
    <maxDate>2010-08-30</maxDate>
    <latitude>43.9675</latitude>
    <longitude>-122.945</longitude>
    <elevation>178.3</elevation>
    <locationLabels>
      <type>CNTRY</type>
      <id>FIPS:US</id>
      <displayName>United States</displayName>
    </locationLabels>
    <coverage>0.9468</coverage>
  </station>
  <station>
    <id>GHCND:US1CACC0003</id>
    <displayName>PLEASANT HILL 1.2 ESE, CA US</displayName>
    <minDate>2008-11-02</minDate>
    <maxDate>2012-12-22</maxDate>
    <latitude>37.9485</latitude>
    <longitude>-122.0541</longitude>
    <elevation>17.4</elevation>
    <locationLabels>
      <type>CNTRY</type>
      <id>FIPS:US</id>
      <displayName>United States</displayName>
    </locationLabels>
    <coverage>0.8452</coverage>
  </station>
  <station>
    <id>GHCND:US1ORLA0024</id>
    <displayName>PLEASANT HILL 3 SE, OR US</displayName>
    <minDate>2007-12-14</minDate>
    <maxDate>2013-01-12</maxDate>
    <latitude>43.9499</latitude>
    <longitude>-122.8852</longitude>
    <elevation>199.3</elevation>
    <locationLabels>
      <type>CNTRY</type>
      <id>FIPS:US</id>
      <displayName>United States</displayName>
    </locationLabels>
    <coverage>0.9941</coverage>
  </station>
  <station>
    <id>GHCND:USC00336702</id>
    <displayName>PLEASANT HILL LAKE, OH US</displayName>
    <minDate>1949-01-01</minDate>
    <maxDate>1987-07-31</maxDate>
    <latitude>40.61667</latitude>
    <longitude>-82.33333</longitude>
    <elevation>342.9</elevation>
    <locationLabels>
      <type>CNTRY</type>
      <id>FIPS:US</id>
      <displayName>United States</displayName>
    </locationLabels>
    <coverage>0.979</coverage>
  </station>
  <station>
    <id>GHCND:USC00467055</id>
    <displayName>PLEASANT HILL PRESTON, WV US</displayName>
    <minDate>1889-05-11</minDate>
    <maxDate>1895-05-31</maxDate>
    <latitude>39.516667</latitude>
    <longitude>-79.533333</longitude>
    <locationLabels>
      <type>CNTRY</type>
      <id>FIPS:US</id>
      <displayName>United States</displayName>
    </locationLabels>
    <coverage>0.3639</coverage>
  </station>
  <station>
    <id>GHCND:USC00016526</id>
    <displayName>PLEASANT HILL, AL US</displayName>
    <minDate>1948-07-01</minDate>
    <maxDate>1951-09-30</maxDate>
    <latitude>32.15</latitude>
    <longitude>-86.91667</longitude>
    <elevation>31.1</elevation>
    <locationLabels>
      <type>CNTRY</type>
      <id>FIPS:US</id>
      <displayName>United States</displayName>
    </locationLabels>
    <coverage>0.6377</coverage>
  </station>
  <station>
    <id>GHCND:USC00116861</id>
    <displayName>PLEASANT HILL, IL US</displayName>
    <minDate>1941-01-01</minDate>
    <maxDate>1976-06-30</maxDate>
    <latitude>39.45</latitude>
    <longitude>-90.86667</longitude>
    <elevation>143</elevation>
    <locationLabels>
      <type>CNTRY</type>
      <id>FIPS:US</id>
      <displayName>United States</displayName>
    </locationLabels>
    <coverage>0.9971</coverage>
  </station>
  <station>
    <id>GHCND:USC00187070</id>
    <displayName>PLEASANT HILL, MD US</displayName>
    <minDate>1925-10-01</minDate>
    <maxDate>1943-12-31</maxDate>
    <latitude>39.433333</latitude>
    <longitude>-76.8</longitude>
    <elevation>201.2</elevation>
    <locationLabels>
      <type>CNTRY</type>
      <id>FIPS:US</id>
      <displayName>United States</displayName>
    </locationLabels>
    <coverage>0.9347</coverage>
  </station>
  <station>
    <id>GHCND:USC00236748</id>
    <displayName>PLEASANT HILL, MO US</displayName>
    <minDate>1938-08-01</minDate>
    <maxDate>1972-10-31</maxDate>
    <latitude>38.78333</latitude>
    <longitude>-94.28333</longitude>
    <elevation>287.1</elevation>
    <locationLabels>
      <type>CNTRY</type>
      <id>FIPS:US</id>
      <displayName>United States</displayName>
    </locationLabels>
    <coverage>0.9591</coverage>
  </station>
  <station>
    <id>GHCND:USC00227066</id>
    <displayName>PLEASANT HILL, MS US</displayName>
    <minDate>1946-11-01</minDate>
    <maxDate>2013-01-14</maxDate>
    <latitude>34.923</latitude>
    <longitude>-89.9402</longitude>
    <elevation>115.8</elevation>
    <locationLabels>
      <type>CNTRY</type>
      <id>FIPS:US</id>
      <displayName>United States</displayName>
    </locationLabels>
    <coverage>0.9368</coverage>
  </station>
  <station>
    <id>GHCND:USC00256824</id>
    <displayName>PLEASANT HILL, NE US</displayName>
    <minDate>1898-10-01</minDate>
    <maxDate>1900-12-31</maxDate>
    <latitude>40.583333</latitude>
    <longitude>-97.083333</longitude>
    <locationLabels>
      <type>CNTRY</type>
      <id>FIPS:US</id>
      <displayName>United States</displayName>
    </locationLabels>
    <coverage>0.9988</coverage>
  </station>
  <station>
    <id>GHCND:USC00296955</id>
    <displayName>PLEASANT HILL, NM US</displayName>
    <minDate>1914-10-01</minDate>
    <maxDate>1931-09-30</maxDate>
    <latitude>34.5</latitude>
    <longitude>-103.08333</longitude>
    <elevation>1280.2</elevation>
    <locationLabels>
      <type>CNTRY</type>
      <id>FIPS:US</id>
      <displayName>United States</displayName>
    </locationLabels>
    <coverage>0.5202</coverage>
  </station>
  <station>
    <id>GHCND:USC00336697</id>
    <displayName>PLEASANT HILL, OH US</displayName>
    <minDate>1922-03-01</minDate>
    <maxDate>2012-11-23</maxDate>
    <latitude>40.0562</latitude>
    <longitude>-84.3554</longitude>
    <elevation>280.4</elevation>
    <locationLabels>
      <type>CNTRY</type>
      <id>FIPS:US</id>
      <displayName>United States</displayName>
    </locationLabels>
    <coverage>0.9576</coverage>
  </station>
  <station>
    <id>GHCND:USC00236749</id>
    <displayName>PLEASANT HOPE, MO US</displayName>
    <minDate>2002-10-01</minDate>
    <maxDate>2012-07-02</maxDate>
    <latitude>37.4902</latitude>
    <longitude>-93.2811</longitude>
    <elevation>343.5</elevation>
    <locationLabels>
      <type>CNTRY</type>
      <id>FIPS:US</id>
      <displayName>United States</displayName>
    </locationLabels>
    <coverage>0.9826</coverage>
  </station>
  <station>
    <id>GHCND:USC00216573</id>
    <displayName>PLEASANT MOUND, MN US</displayName>
    <minDate>1894-10-01</minDate>
    <maxDate>1905-02-28</maxDate>
    <latitude>44</latitude>
    <longitude>-94</longitude>
    <locationLabels>
      <type>CNTRY</type>
      <id>FIPS:US</id>
      <displayName>United States</displayName>
    </locationLabels>
    <coverage>0.918</coverage>
  </station>
  <station>
    <id>GHCND:USC00367029</id>
    <displayName>PLEASANT MOUNT 1 W, PA US</displayName>
    <minDate>1924-10-01</minDate>
    <maxDate>2013-01-16</maxDate>
    <latitude>41.7394</latitude>
    <longitude>-75.4465</longitude>
    <elevation>548.6</elevation>
    <locationLabels>
      <type>CNTRY</type>
      <id>FIPS:US</id>
      <displayName>United States</displayName>
    </locationLabels>
    <coverage>0.9779</coverage>
  </station>
  <station>
    <id>GHCND:US1PAWN0042</id>
    <displayName>PLEASANT MOUNT 1.0 E, PA US</displayName>
    <minDate>2009-09-01</minDate>
    <maxDate>2013-01-16</maxDate>
    <latitude>41.7395</latitude>
    <longitude>-75.443</longitude>
    <elevation>581.6</elevation>
    <locationLabels>
      <type>CNTRY</type>
      <id>FIPS:US</id>
      <displayName>United States</displayName>
    </locationLabels>
    <coverage>0.9959</coverage>
  </station>
  <station>
    <id>GHCND:US1ARIN0005</id>
    <displayName>PLEASANT PLAINS 3.9 W, AR US</displayName>
    <minDate>2012-06-09</minDate>
    <maxDate>2013-01-15</maxDate>
    <latitude>35.5527</latitude>
    <longitude>-91.6972</longitude>
    <elevation>247.5</elevation>
    <locationLabels>
      <type>CNTRY</type>
      <id>FIPS:US</id>
      <displayName>United States</displayName>
    </locationLabels>
    <coverage>0.6923</coverage>
  </station>
  <station>
    <id>GHCND:US1WIKN0002</id>
    <displayName>PLEASANT PRAIRIE 3.4 ESE, WI US</displayName>
    <minDate>2007-09-13</minDate>
    <maxDate>2008-05-03</maxDate>
    <latitude>42.5087</latitude>
    <longitude>-87.8188</longitude>
    <elevation>188.4</elevation>
    <locationLabels>
      <type>CNTRY</type>
      <id>FIPS:US</id>
      <displayName>United States</displayName>
    </locationLabels>
    <coverage>0.765</coverage>
  </station>
  <station>
    <id>GHCND:US1MIOK0013</id>
    <displayName>PLEASANT RIDGE 0.5 WNW, MI US</displayName>
    <minDate>2008-09-09</minDate>
    <maxDate>2013-01-11</maxDate>
    <latitude>42.4725</latitude>
    <longitude>-83.1536</longitude>
    <elevation>200.3</elevation>
    <locationLabels>
      <type>CNTRY</type>
      <id>FIPS:US</id>
      <displayName>United States</displayName>
    </locationLabels>
    <coverage>0.9344</coverage>
  </station>
  <station>
    <id>GHCND:USC00287123</id>
    <displayName>PLEASANT RUN, NJ US</displayName>
    <minDate>1957-01-01</minDate>
    <maxDate>1959-03-31</maxDate>
    <latitude>40.56667</latitude>
    <longitude>-74.8</longitude>
    <elevation>43</elevation>
    <locationLabels>
      <type>CNTRY</type>
      <id>FIPS:US</id>
      <displayName>United States</displayName>
    </locationLabels>
    <coverage>1</coverage>
  </station>
  <station>
    <id>GHCND:US1MOCY0001</id>
    <displayName>PLEASANT VALLEY 0.5 NNE, MO US</displayName>
    <minDate>2006-02-06</minDate>
    <maxDate>2006-11-21</maxDate>
    <latitude>39.2248</latitude>
    <longitude>-94.4785</longitude>
    <elevation>260.9</elevation>
    <locationLabels>
      <type>CNTRY</type>
      <id>FIPS:US</id>
      <displayName>United States</displayName>
    </locationLabels>
    <coverage>0.7682</coverage>
  </station>
  <station>
    <id>GHCND:US1MOCY0002</id>
    <displayName>PLEASANT VALLEY 0.8 NW, MO US</displayName>
    <minDate>2006-02-07</minDate>
    <maxDate>2013-01-16</maxDate>
    <latitude>39.228</latitude>
    <longitude>-94.4908</longitude>
    <elevation>267</elevation>
    <locationLabels>
      <type>CNTRY</type>
      <id>FIPS:US</id>
      <displayName>United States</displayName>
    </locationLabels>
    <coverage>0.931</coverage>
  </station>
  <station>
    <id>GHCND:USR0000APLE</id>
    <displayName>PLEASANT VALLEY ARIZONA, AZ US</displayName>
    <minDate>1997-04-18</minDate>
    <maxDate>2012-08-30</maxDate>
    <latitude>34.0933</latitude>
    <longitude>-110.9333</longitude>
    <elevation>1539.2</elevation>
    <locationLabels>
      <type>CNTRY</type>
      <id>FIPS:US</id>
      <displayName>United States</displayName>
    </locationLabels>
    <coverage>0.9482</coverage>
  </station>
  <station>
    <id>GHCND:USC00029622</id>
    <displayName>PLEASANT VALLEY R S, AZ US</displayName>
    <minDate>1903-07-01</minDate>
    <maxDate>1964-08-31</maxDate>
    <latitude>34.0988</latitude>
    <longitude>-110.9441</longitude>
    <elevation>1539.2</elevation>
    <locationLabels>
      <type>CNTRY</type>
      <id>FIPS:US</id>
      <displayName>United States</displayName>
    </locationLabels>
    <coverage>0.7904</coverage>
  </station>
  <station>
    <id>GHCND:USC00026653</id>
    <displayName>PLEASANT VALLEY R S, AZ US</displayName>
    <minDate>1964-09-01</minDate>
    <maxDate>2012-11-30</maxDate>
    <latitude>34.0988</latitude>
    <longitude>-110.9441</longitude>
    <elevation>1539.2</elevation>
    <locationLabels>
      <type>CNTRY</type>
      <id>FIPS:US</id>
      <displayName>United States</displayName>
    </locationLabels>
    <coverage>0.9565</coverage>
  </station>
  <station>
    <id>GHCND:USC00246580</id>
    <displayName>PLEASANT VALLEY, MT US</displayName>
    <minDate>1950-04-01</minDate>
    <maxDate>2013-01-11</maxDate>
    <latitude>48.1056</latitude>
    <longitude>-114.8778</longitude>
    <elevation>1079</elevation>
    <locationLabels>
      <type>CNTRY</type>
      <id>FIPS:US</id>
      <displayName>United States</displayName>
    </locationLabels>
    <coverage>0.1649</coverage>
  </station>
  <station>
    <id>GHCND:USC00246576</id>
    <displayName>PLEASANT VALLEY, MT US</displayName>
    <minDate>1906-01-01</minDate>
    <maxDate>1972-11-24</maxDate>
    <latitude>48.13333</latitude>
    <longitude>-114.91667</longitude>
    <elevation>1097.9</elevation>
    <locationLabels>
      <type>CNTRY</type>
      <id>FIPS:US</id>
      <displayName>United States</displayName>
    </locationLabels>
    <coverage>0.8539</coverage>
  </station>
  <station>
    <id>GHCND:USC00266290</id>
    <displayName>PLEASANT VALLEY, NV US</displayName>
    <minDate>1950-01-01</minDate>
    <maxDate>1951-09-30</maxDate>
    <latitude>39.35</latitude>
    <longitude>-119.76667</longitude>
    <elevation>1464</elevation>
    <locationLabels>
      <type>CNTRY</type>
      <id>FIPS:US</id>
      <displayName>United States</displayName>
    </locationLabels>
    <coverage>0.8934</coverage>
  </station>
</stationCollection>
