<?xml version="1.0" encoding="UTF-8" standalone="yes"?>
<stationCollection totalCount="46020" pageCount="461" pageSize="100" page="293">
  <station>
    <id>GHCND:US10otoe017</id>
    <displayName>NEBRASKA CITY 4.2 WSW, NE US</displayName>
    <minDate>2007-06-01</minDate>
    <maxDate>2011-12-24</maxDate>
    <latitude>40.6548</latitude>
    <longitude>-95.9348</longitude>
    <elevation>362.1</elevation>
    <locationLabels>
      <type>CNTRY</type>
      <id>FIPS:US</id>
      <displayName>United States</displayName>
    </locationLabels>
    <coverage>0.5474</coverage>
  </station>
  <station>
    <id>GHCND:US10otoe012</id>
    <displayName>NEBRASKA CITY 7.7 S, NE US</displayName>
    <minDate>2007-04-11</minDate>
    <maxDate>2010-06-30</maxDate>
    <latitude>40.5664</latitude>
    <longitude>-95.841</longitude>
    <elevation>323.1</elevation>
    <locationLabels>
      <type>CNTRY</type>
      <id>FIPS:US</id>
      <displayName>United States</displayName>
    </locationLabels>
    <coverage>0.6075</coverage>
  </station>
  <station>
    <id>GHCND:USC00475786</id>
    <displayName>NECEDAH 2 SE, WI US</displayName>
    <minDate>1953-05-01</minDate>
    <maxDate>2012-07-27</maxDate>
    <latitude>44.0261</latitude>
    <longitude>-90.0813</longitude>
    <elevation>281</elevation>
    <locationLabels>
      <type>CNTRY</type>
      <id>FIPS:US</id>
      <displayName>United States</displayName>
    </locationLabels>
    <coverage>0.9826</coverage>
  </station>
  <station>
    <id>GHCND:USW00054903</id>
    <displayName>NECEDAH 5 WNW, WI US</displayName>
    <minDate>2004-10-03</minDate>
    <maxDate>2013-01-15</maxDate>
    <latitude>44.0604</latitude>
    <longitude>-90.1737</longitude>
    <elevation>284.4</elevation>
    <locationLabels>
      <type>CNTRY</type>
      <id>FIPS:US</id>
      <displayName>United States</displayName>
    </locationLabels>
    <coverage>0.9917</coverage>
  </station>
  <station>
    <id>GHCND:US1COBO0092</id>
    <displayName>NEDERLAND .47 ESE, CO US</displayName>
    <minDate>2003-05-20</minDate>
    <maxDate>2012-02-24</maxDate>
    <latitude>39.9588</latitude>
    <longitude>-105.5026</longitude>
    <elevation>2541.1</elevation>
    <locationLabels>
      <type>CNTRY</type>
      <id>FIPS:US</id>
      <displayName>United States</displayName>
    </locationLabels>
    <coverage>0.6962</coverage>
  </station>
  <station>
    <id>GHCND:US1COBO0034</id>
    <displayName>NEDERLAND .5 WNW, CO US</displayName>
    <minDate>2002-04-28</minDate>
    <maxDate>2013-01-16</maxDate>
    <latitude>39.9645</latitude>
    <longitude>-105.5196</longitude>
    <elevation>2539.9</elevation>
    <locationLabels>
      <type>CNTRY</type>
      <id>FIPS:US</id>
      <displayName>United States</displayName>
    </locationLabels>
    <coverage>0.6587</coverage>
  </station>
  <station>
    <id>GHCND:US1COBO0185</id>
    <displayName>NEDERLAND 0.2 NNW, CO US</displayName>
    <minDate>2004-10-16</minDate>
    <maxDate>2005-12-21</maxDate>
    <latitude>39.9643</latitude>
    <longitude>-105.5118</longitude>
    <elevation>2542.9</elevation>
    <locationLabels>
      <type>CNTRY</type>
      <id>FIPS:US</id>
      <displayName>United States</displayName>
    </locationLabels>
    <coverage>0.9213</coverage>
  </station>
  <station>
    <id>GHCND:US1COBO0322</id>
    <displayName>NEDERLAND 0.4 WNW, CO US</displayName>
    <minDate>2012-06-26</minDate>
    <maxDate>2013-01-16</maxDate>
    <latitude>39.966</latitude>
    <longitude>-105.5125</longitude>
    <elevation>25.6</elevation>
    <locationLabels>
      <type>CNTRY</type>
      <id>FIPS:US</id>
      <displayName>United States</displayName>
    </locationLabels>
    <coverage>0.9512</coverage>
  </station>
  <station>
    <id>GHCND:US1COBO0300</id>
    <displayName>NEDERLAND 0.7 NW, CO US</displayName>
    <minDate>2011-09-12</minDate>
    <maxDate>2013-01-08</maxDate>
    <latitude>39.9683</latitude>
    <longitude>-105.5158</longitude>
    <elevation>2596.6</elevation>
    <locationLabels>
      <type>CNTRY</type>
      <id>FIPS:US</id>
      <displayName>United States</displayName>
    </locationLabels>
    <coverage>0.6598</coverage>
  </station>
  <station>
    <id>GHCND:US1COBO0062</id>
    <displayName>NEDERLAND 0.9 E, CO US</displayName>
    <minDate>2002-08-23</minDate>
    <maxDate>2007-07-29</maxDate>
    <latitude>39.9608</latitude>
    <longitude>-105.4936</longitude>
    <elevation>2543.9</elevation>
    <locationLabels>
      <type>CNTRY</type>
      <id>FIPS:US</id>
      <displayName>United States</displayName>
    </locationLabels>
    <coverage>0.4745</coverage>
  </station>
  <station>
    <id>GHCND:US1TXJJ0001</id>
    <displayName>NEDERLAND 1.9 SE, TX US</displayName>
    <minDate>2007-10-01</minDate>
    <maxDate>2012-03-28</maxDate>
    <latitude>29.9536</latitude>
    <longitude>-93.9705</longitude>
    <elevation>0.9</elevation>
    <locationLabels>
      <type>CNTRY</type>
      <id>FIPS:US</id>
      <displayName>United States</displayName>
    </locationLabels>
    <coverage>0.8129</coverage>
  </station>
  <station>
    <id>GHCND:USC00055878</id>
    <displayName>NEDERLAND 2 NNE, CO US</displayName>
    <minDate>1970-04-13</minDate>
    <maxDate>1988-05-31</maxDate>
    <latitude>39.98333</latitude>
    <longitude>-105.5</longitude>
    <elevation>2511.6</elevation>
    <locationLabels>
      <type>CNTRY</type>
      <id>FIPS:US</id>
      <displayName>United States</displayName>
    </locationLabels>
    <coverage>0.9902</coverage>
  </station>
  <station>
    <id>GHCND:US1COBO0054</id>
    <displayName>NEDERLAND 2.5 N, CO US</displayName>
    <minDate>2002-06-13</minDate>
    <maxDate>2004-08-25</maxDate>
    <latitude>39.999</latitude>
    <longitude>-105.5078</longitude>
    <elevation>2653.9</elevation>
    <locationLabels>
      <type>CNTRY</type>
      <id>FIPS:US</id>
      <displayName>United States</displayName>
    </locationLabels>
    <coverage>0.3851</coverage>
  </station>
  <station>
    <id>GHCND:US1COBO0075</id>
    <displayName>NEDERLAND 2.61 NNE, CO US</displayName>
    <minDate>2002-01-07</minDate>
    <maxDate>2012-12-23</maxDate>
    <latitude>39.986</latitude>
    <longitude>-105.4848</longitude>
    <elevation>2542</elevation>
    <locationLabels>
      <type>CNTRY</type>
      <id>FIPS:US</id>
      <displayName>United States</displayName>
    </locationLabels>
    <coverage>0.8799</coverage>
  </station>
  <station>
    <id>GHCND:US1COBO0247</id>
    <displayName>NEDERLAND 3.3 NNE, CO US</displayName>
    <minDate>2007-08-12</minDate>
    <maxDate>2013-01-04</maxDate>
    <latitude>40.0026</latitude>
    <longitude>-105.4719</longitude>
    <elevation>2492</elevation>
    <locationLabels>
      <type>CNTRY</type>
      <id>FIPS:US</id>
      <displayName>United States</displayName>
    </locationLabels>
    <coverage>0.1809</coverage>
  </station>
  <station>
    <id>GHCND:US1COBO0296</id>
    <displayName>NEDERLAND 3.7 ENE, CO US</displayName>
    <minDate>2011-04-01</minDate>
    <maxDate>2012-12-29</maxDate>
    <latitude>39.9892</latitude>
    <longitude>-105.445</longitude>
    <elevation>2491.4</elevation>
    <locationLabels>
      <type>CNTRY</type>
      <id>FIPS:US</id>
      <displayName>United States</displayName>
    </locationLabels>
    <coverage>0.5728</coverage>
  </station>
  <station>
    <id>GHCND:US1COBO0233</id>
    <displayName>NEDERLAND 4.2 E, CO US</displayName>
    <minDate>2006-12-03</minDate>
    <maxDate>2013-01-16</maxDate>
    <latitude>39.9733</latitude>
    <longitude>-105.4279</longitude>
    <elevation>2523.1</elevation>
    <locationLabels>
      <type>CNTRY</type>
      <id>FIPS:US</id>
      <displayName>United States</displayName>
    </locationLabels>
    <coverage>0.8069</coverage>
  </station>
  <station>
    <id>GHCND:US1COBO0110</id>
    <displayName>NEDERLAND 4.8 ENE, CO US</displayName>
    <minDate>2003-04-27</minDate>
    <maxDate>2013-01-14</maxDate>
    <latitude>39.9771</latitude>
    <longitude>-105.4253</longitude>
    <elevation>2588.1</elevation>
    <locationLabels>
      <type>CNTRY</type>
      <id>FIPS:US</id>
      <displayName>United States</displayName>
    </locationLabels>
    <coverage>0.8502</coverage>
  </station>
  <station>
    <id>GHCND:USC00055881</id>
    <displayName>NEDERLAND 5 NNW, CO US</displayName>
    <minDate>1997-04-01</minDate>
    <maxDate>1997-08-31</maxDate>
    <latitude>40.0361</latitude>
    <longitude>-105.5461</longitude>
    <elevation>3051</elevation>
    <locationLabels>
      <type>CNTRY</type>
      <id>FIPS:US</id>
      <displayName>United States</displayName>
    </locationLabels>
    <coverage>0.8235</coverage>
  </station>
  <station>
    <id>GHCND:US1COBO0063</id>
    <displayName>NEDERLAND 5.2 NNW, CO US</displayName>
    <minDate>2002-08-28</minDate>
    <maxDate>2005-11-08</maxDate>
    <latitude>40.0359</latitude>
    <longitude>-105.5442</longitude>
    <elevation>3026.1</elevation>
    <locationLabels>
      <type>CNTRY</type>
      <id>FIPS:US</id>
      <displayName>United States</displayName>
    </locationLabels>
    <coverage>0.7271</coverage>
  </station>
  <station>
    <id>GHCND:US1COBO0057</id>
    <displayName>NEDERLAND 5.8 E, CO US</displayName>
    <minDate>2002-06-17</minDate>
    <maxDate>2013-01-16</maxDate>
    <latitude>39.9714</latitude>
    <longitude>-105.3968</longitude>
    <elevation>2401.8</elevation>
    <locationLabels>
      <type>CNTRY</type>
      <id>FIPS:US</id>
      <displayName>United States</displayName>
    </locationLabels>
    <coverage>0.9576</coverage>
  </station>
  <station>
    <id>GHCND:US1COBO0064</id>
    <displayName>NEDERLAND 7.2 NW, CO US</displayName>
    <minDate>2002-08-28</minDate>
    <maxDate>2007-03-26</maxDate>
    <latitude>40.0548</latitude>
    <longitude>-105.5893</longitude>
    <elevation>3535.1</elevation>
    <locationLabels>
      <type>CNTRY</type>
      <id>FIPS:US</id>
      <displayName>United States</displayName>
    </locationLabels>
    <coverage>0.7165</coverage>
  </station>
  <station>
    <id>GHCND:USR0000CNEE</id>
    <displayName>NEEDLE CREEK COLORADO, CO US</displayName>
    <minDate>2002-09-05</minDate>
    <maxDate>2012-08-31</maxDate>
    <latitude>38.3894</latitude>
    <longitude>-106.5303</longitude>
    <elevation>2712.7</elevation>
    <locationLabels>
      <type>CNTRY</type>
      <id>FIPS:US</id>
      <displayName>United States</displayName>
    </locationLabels>
    <coverage>0.9189</coverage>
  </station>
  <station>
    <id>GHCND:USW00023179</id>
    <displayName>NEEDLES AIRPORT, CA US</displayName>
    <minDate>1948-07-01</minDate>
    <maxDate>2013-01-15</maxDate>
    <latitude>34.7675</latitude>
    <longitude>-114.6188</longitude>
    <elevation>271.3</elevation>
    <locationLabels>
      <type>CNTRY</type>
      <id>FIPS:US</id>
      <displayName>United States</displayName>
    </locationLabels>
    <coverage>0.9899</coverage>
  </station>
  <station>
    <id>GHCND:USC00046119</id>
    <displayName>NEEDLES, CA US</displayName>
    <minDate>1977-10-09</minDate>
    <maxDate>1979-08-31</maxDate>
    <latitude>34.83333</latitude>
    <longitude>-114.6</longitude>
    <elevation>166.1</elevation>
    <locationLabels>
      <type>CNTRY</type>
      <id>FIPS:US</id>
      <displayName>United States</displayName>
    </locationLabels>
    <coverage>0.6488</coverage>
  </station>
  <station>
    <id>GHCND:USC00096259</id>
    <displayName>NEEDMORE 2 W, GA US</displayName>
    <minDate>2001-08-01</minDate>
    <maxDate>2003-10-31</maxDate>
    <latitude>30.67111</latitude>
    <longitude>-82.75139</longitude>
    <elevation>41.1</elevation>
    <locationLabels>
      <type>CNTRY</type>
      <id>FIPS:US</id>
      <displayName>United States</displayName>
    </locationLabels>
    <coverage>0.9185</coverage>
  </station>
  <station>
    <id>GHCND:USC00316071</id>
    <displayName>NEEDMORE, NC US</displayName>
    <minDate>1949-01-01</minDate>
    <maxDate>1962-03-31</maxDate>
    <latitude>35.33333</latitude>
    <longitude>-83.53333</longitude>
    <elevation>558.1</elevation>
    <locationLabels>
      <type>CNTRY</type>
      <id>FIPS:US</id>
      <displayName>United States</displayName>
    </locationLabels>
    <coverage>0.9992</coverage>
  </station>
  <station>
    <id>GHCND:US1TXFB0014</id>
    <displayName>NEEDVILLE 2.6 E, TX US</displayName>
    <minDate>2009-05-22</minDate>
    <maxDate>2010-11-11</maxDate>
    <latitude>29.4008</latitude>
    <longitude>-95.7959</longitude>
    <elevation>25.6</elevation>
    <locationLabels>
      <type>CNTRY</type>
      <id>FIPS:US</id>
      <displayName>United States</displayName>
    </locationLabels>
    <coverage>0.2486</coverage>
  </station>
  <station>
    <id>GHCND:US1TXFB0001</id>
    <displayName>NEEDVILLE 4.8 N, TX US</displayName>
    <minDate>2007-05-26</minDate>
    <maxDate>2012-08-06</maxDate>
    <latitude>29.4649</latitude>
    <longitude>-95.8279</longitude>
    <elevation>29</elevation>
    <locationLabels>
      <type>CNTRY</type>
      <id>FIPS:US</id>
      <displayName>United States</displayName>
    </locationLabels>
    <coverage>0.5742</coverage>
  </station>
  <station>
    <id>GHCND:USC00096266</id>
    <displayName>NEEL GAP, GA US</displayName>
    <minDate>1948-08-01</minDate>
    <maxDate>1962-03-31</maxDate>
    <latitude>34.73333</latitude>
    <longitude>-83.91667</longitude>
    <elevation>1007.1</elevation>
    <locationLabels>
      <type>CNTRY</type>
      <id>FIPS:US</id>
      <displayName>United States</displayName>
    </locationLabels>
    <coverage>0.9804</coverage>
  </station>
  <station>
    <id>GHCND:USC00235950</id>
    <displayName>NEELYVILLE 7 E, MO US</displayName>
    <minDate>2007-06-01</minDate>
    <maxDate>2010-11-30</maxDate>
    <latitude>36.5539</latitude>
    <longitude>-90.3944</longitude>
    <elevation>91.1</elevation>
    <locationLabels>
      <type>CNTRY</type>
      <id>FIPS:US</id>
      <displayName>United States</displayName>
    </locationLabels>
    <coverage>0.8006</coverage>
  </station>
  <station>
    <id>GHCND:USC00046122</id>
    <displayName>NEENACH, CA US</displayName>
    <minDate>1893-12-01</minDate>
    <maxDate>1963-12-31</maxDate>
    <latitude>34.8</latitude>
    <longitude>-118.58333</longitude>
    <elevation>880.9</elevation>
    <locationLabels>
      <type>CNTRY</type>
      <id>FIPS:US</id>
      <displayName>United States</displayName>
    </locationLabels>
    <coverage>0.3398</coverage>
  </station>
  <station>
    <id>GHCND:US1SCOR0011</id>
    <displayName>NEESES 7.0 SE, SC US</displayName>
    <minDate>2012-05-13</minDate>
    <maxDate>2013-01-14</maxDate>
    <latitude>33.4656</latitude>
    <longitude>-81.0397</longitude>
    <elevation>76.2</elevation>
    <locationLabels>
      <type>CNTRY</type>
      <id>FIPS:US</id>
      <displayName>United States</displayName>
    </locationLabels>
    <coverage>0.7733</coverage>
  </station>
  <station>
    <id>GHCND:USC00366174</id>
    <displayName>NEFFS MILLS 3 NE, PA US</displayName>
    <minDate>1941-06-01</minDate>
    <maxDate>1954-06-30</maxDate>
    <latitude>40.66667</latitude>
    <longitude>-77.91667</longitude>
    <elevation>274.9</elevation>
    <locationLabels>
      <type>CNTRY</type>
      <id>FIPS:US</id>
      <displayName>United States</displayName>
    </locationLabels>
    <coverage>0.9679</coverage>
  </station>
  <station>
    <id>GHCND:USC00416247</id>
    <displayName>NEGLEY 4 SSW, TX US</displayName>
    <minDate>1946-06-01</minDate>
    <maxDate>2003-03-31</maxDate>
    <latitude>33.70417</latitude>
    <longitude>-95.07</longitude>
    <elevation>123.4</elevation>
    <locationLabels>
      <type>CNTRY</type>
      <id>FIPS:US</id>
      <displayName>United States</displayName>
    </locationLabels>
    <coverage>0.9168</coverage>
  </station>
  <station>
    <id>GHCND:RQC00666514</id>
    <displayName>NEGRO COROZAL, PR US</displayName>
    <minDate>1976-01-01</minDate>
    <maxDate>2011-11-30</maxDate>
    <latitude>18.2886</latitude>
    <longitude>-66.3433</longitude>
    <elevation>538.3</elevation>
    <locationLabels>
      <type>CNTRY</type>
      <id>FIPS:US</id>
      <displayName>United States</displayName>
    </locationLabels>
    <coverage>0.9556</coverage>
  </station>
  <station>
    <id>GHCND:US1ORTL0001</id>
    <displayName>NEHALEM 4.1 ESE, OR US</displayName>
    <minDate>2007-11-29</minDate>
    <maxDate>2013-01-16</maxDate>
    <latitude>45.695</latitude>
    <longitude>-123.814</longitude>
    <elevation>22.9</elevation>
    <locationLabels>
      <type>CNTRY</type>
      <id>FIPS:US</id>
      <displayName>United States</displayName>
    </locationLabels>
    <coverage>0.9856</coverage>
  </station>
  <station>
    <id>GHCND:USC00355971</id>
    <displayName>NEHALEM 9 NE, OR US</displayName>
    <minDate>1969-04-01</minDate>
    <maxDate>2012-11-30</maxDate>
    <latitude>45.8127</latitude>
    <longitude>-123.7752</longitude>
    <elevation>42.7</elevation>
    <locationLabels>
      <type>CNTRY</type>
      <id>FIPS:US</id>
      <displayName>United States</displayName>
    </locationLabels>
    <coverage>0.9726</coverage>
  </station>
  <station>
    <id>GHCND:USC00355969</id>
    <displayName>NEHALEM, OR US</displayName>
    <minDate>1894-08-01</minDate>
    <maxDate>1951-09-30</maxDate>
    <latitude>45.7086</latitude>
    <longitude>-123.8958</longitude>
    <elevation>6.7</elevation>
    <locationLabels>
      <type>CNTRY</type>
      <id>FIPS:US</id>
      <displayName>United States</displayName>
    </locationLabels>
    <coverage>0.2786</coverage>
  </station>
  <station>
    <id>GHCND:USC00305658</id>
    <displayName>NEHASANE, NY US</displayName>
    <minDate>1907-11-01</minDate>
    <maxDate>1915-05-31</maxDate>
    <latitude>43.95</latitude>
    <longitude>-74.833333</longitude>
    <elevation>518.2</elevation>
    <locationLabels>
      <type>CNTRY</type>
      <id>FIPS:US</id>
      <displayName>United States</displayName>
    </locationLabels>
    <coverage>0.9848</coverage>
  </station>
  <station>
    <id>GHCND:USC00255820</id>
    <displayName>NEHAWKA 5 SW, NE US</displayName>
    <minDate>1950-11-01</minDate>
    <maxDate>1951-09-30</maxDate>
    <latitude>40.78333</latitude>
    <longitude>-96.03333</longitude>
    <elevation>342</elevation>
    <locationLabels>
      <type>CNTRY</type>
      <id>FIPS:US</id>
      <displayName>United States</displayName>
    </locationLabels>
    <coverage>0.9491</coverage>
  </station>
  <station>
    <id>GHCND:US1MTCC0008</id>
    <displayName>NEIHART 0.9 SE, MT US</displayName>
    <minDate>2011-02-06</minDate>
    <maxDate>2013-01-16</maxDate>
    <latitude>46.9224</latitude>
    <longitude>-110.7241</longitude>
    <elevation>1748</elevation>
    <locationLabels>
      <type>CNTRY</type>
      <id>FIPS:US</id>
      <displayName>United States</displayName>
    </locationLabels>
    <coverage>0.5443</coverage>
  </station>
  <station>
    <id>GHCND:USC00246007</id>
    <displayName>NEIHART 7 NW, MT US</displayName>
    <minDate>2005-06-01</minDate>
    <maxDate>2013-01-15</maxDate>
    <latitude>47.03806</latitude>
    <longitude>-110.78583</longitude>
    <elevation>1507.2</elevation>
    <locationLabels>
      <type>CNTRY</type>
      <id>FIPS:US</id>
      <displayName>United States</displayName>
    </locationLabels>
    <coverage>0.8597</coverage>
  </station>
  <station>
    <id>GHCND:USC00246008</id>
    <displayName>NEIHART 8 NNW, MT US</displayName>
    <minDate>1967-07-01</minDate>
    <maxDate>2012-12-04</maxDate>
    <latitude>47.0413</latitude>
    <longitude>-110.7761</longitude>
    <elevation>1594.1</elevation>
    <locationLabels>
      <type>CNTRY</type>
      <id>FIPS:US</id>
      <displayName>United States</displayName>
    </locationLabels>
    <coverage>0.853</coverage>
  </station>
  <station>
    <id>GHCND:USC00246001</id>
    <displayName>NEIHART, MT US</displayName>
    <minDate>1905-03-12</minDate>
    <maxDate>1967-05-31</maxDate>
    <latitude>46.93333</latitude>
    <longitude>-110.73333</longitude>
    <elevation>1723</elevation>
    <locationLabels>
      <type>CNTRY</type>
      <id>FIPS:US</id>
      <displayName>United States</displayName>
    </locationLabels>
    <coverage>0.035</coverage>
  </station>
  <station>
    <id>GHCND:USC00475808</id>
    <displayName>NEILLSVILLE 3 SW, WI US</displayName>
    <minDate>1893-01-01</minDate>
    <maxDate>2013-01-16</maxDate>
    <latitude>44.5378</latitude>
    <longitude>-90.535</longitude>
    <elevation>329.2</elevation>
    <locationLabels>
      <type>CNTRY</type>
      <id>FIPS:US</id>
      <displayName>United States</displayName>
    </locationLabels>
    <coverage>0.9702</coverage>
  </station>
  <station>
    <id>GHCND:USC00508556</id>
    <displayName>NELCHINA HIGHWAY CAM, AK US</displayName>
    <minDate>1969-04-16</minDate>
    <maxDate>1976-10-30</maxDate>
    <latitude>61.98333</latitude>
    <longitude>-146.86667</longitude>
    <elevation>757.7</elevation>
    <locationLabels>
      <type>CNTRY</type>
      <id>FIPS:US</id>
      <displayName>United States</displayName>
    </locationLabels>
    <coverage>0.9659</coverage>
  </station>
  <station>
    <id>GHCND:USC00506270</id>
    <displayName>NELCHINA HIGHWAY CAM, AK US</displayName>
    <minDate>1978-08-01</minDate>
    <maxDate>1983-05-31</maxDate>
    <latitude>61.98333</latitude>
    <longitude>-146.86667</longitude>
    <elevation>757.7</elevation>
    <locationLabels>
      <type>CNTRY</type>
      <id>FIPS:US</id>
      <displayName>United States</displayName>
    </locationLabels>
    <coverage>0.9841</coverage>
  </station>
  <station>
    <id>GHCND:USC00255830</id>
    <displayName>NELIGH, NE US</displayName>
    <minDate>1918-04-01</minDate>
    <maxDate>2013-01-16</maxDate>
    <latitude>42.1302</latitude>
    <longitude>-98.0275</longitude>
    <elevation>536.4</elevation>
    <locationLabels>
      <type>CNTRY</type>
      <id>FIPS:US</id>
      <displayName>United States</displayName>
    </locationLabels>
    <coverage>0.8058</coverage>
  </station>
  <station>
    <id>GHCND:USC00335708</id>
    <displayName>NELLIE, OH US</displayName>
    <minDate>1894-08-01</minDate>
    <maxDate>1915-04-30</maxDate>
    <latitude>40.416667</latitude>
    <longitude>-82.1</longitude>
    <elevation>243.8</elevation>
    <locationLabels>
      <type>CNTRY</type>
      <id>FIPS:US</id>
      <displayName>United States</displayName>
    </locationLabels>
    <coverage>0.9261</coverage>
  </station>
  <station>
    <id>GHCND:USC00355980</id>
    <displayName>NELSCOTT, OR US</displayName>
    <minDate>1931-08-23</minDate>
    <maxDate>1938-02-28</maxDate>
    <latitude>44.95</latitude>
    <longitude>-124</longitude>
    <elevation>11.6</elevation>
    <locationLabels>
      <type>CNTRY</type>
      <id>FIPS:US</id>
      <displayName>United States</displayName>
    </locationLabels>
    <coverage>0.8883</coverage>
  </station>
  <station>
    <id>GHCND:US10nuck022</id>
    <displayName>NELSON 0.3 E, NE US</displayName>
    <minDate>2008-01-27</minDate>
    <maxDate>2012-06-23</maxDate>
    <latitude>40.2026</latitude>
    <longitude>-98.062</longitude>
    <elevation>518.2</elevation>
    <locationLabels>
      <type>CNTRY</type>
      <id>FIPS:US</id>
      <displayName>United States</displayName>
    </locationLabels>
    <coverage>0.2286</coverage>
  </station>
  <station>
    <id>GHCND:US10nuck026</id>
    <displayName>NELSON 0.3 S, NE US</displayName>
    <minDate>2010-03-27</minDate>
    <maxDate>2013-01-16</maxDate>
    <latitude>40.1974</latitude>
    <longitude>-98.0686</longitude>
    <elevation>0</elevation>
    <locationLabels>
      <type>CNTRY</type>
      <id>FIPS:US</id>
      <displayName>United States</displayName>
    </locationLabels>
    <coverage>0.853</coverage>
  </station>
  <station>
    <id>GHCND:US10nuck019</id>
    <displayName>NELSON 0.3 SW, NE US</displayName>
    <minDate>2007-01-01</minDate>
    <maxDate>2013-01-11</maxDate>
    <latitude>40.1986</latitude>
    <longitude>-98.134</longitude>
    <elevation>535.8</elevation>
    <locationLabels>
      <type>CNTRY</type>
      <id>FIPS:US</id>
      <displayName>United States</displayName>
    </locationLabels>
    <coverage>0.9501</coverage>
  </station>
  <station>
    <id>GHCND:US1ILLE0007</id>
    <displayName>NELSON 1.6 E, IL US</displayName>
    <minDate>2007-05-20</minDate>
    <maxDate>2008-12-01</maxDate>
    <latitude>41.7975</latitude>
    <longitude>-89.5708</longitude>
    <elevation>203.9</elevation>
    <locationLabels>
      <type>CNTRY</type>
      <id>FIPS:US</id>
      <displayName>United States</displayName>
    </locationLabels>
    <coverage>0.9395</coverage>
  </station>
  <station>
    <id>GHCND:US10nuck027</id>
    <displayName>NELSON 6.3 N, NE US</displayName>
    <minDate>2010-07-25</minDate>
    <maxDate>2012-12-16</maxDate>
    <latitude>40.2926</latitude>
    <longitude>-98.0722</longitude>
    <elevation>0</elevation>
    <locationLabels>
      <type>CNTRY</type>
      <id>FIPS:US</id>
      <displayName>United States</displayName>
    </locationLabels>
    <coverage>0.7877</coverage>
  </station>
  <station>
    <id>GHCND:US1GAPC0007</id>
    <displayName>NELSON 6.6 NE, GA US</displayName>
    <minDate>2009-10-04</minDate>
    <maxDate>2013-01-16</maxDate>
    <latitude>34.4506</latitude>
    <longitude>-84.2923</longitude>
    <elevation>487.1</elevation>
    <locationLabels>
      <type>CNTRY</type>
      <id>FIPS:US</id>
      <displayName>United States</displayName>
    </locationLabels>
    <coverage>0.7985</coverage>
  </station>
  <station>
    <id>GHCND:USC00416257</id>
    <displayName>NELSON RANCH, TX US</displayName>
    <minDate>1962-07-01</minDate>
    <maxDate>1983-02-28</maxDate>
    <latitude>29.95</latitude>
    <longitude>-99.51667</longitude>
    <elevation>647.7</elevation>
    <locationLabels>
      <type>CNTRY</type>
      <id>FIPS:US</id>
      <displayName>United States</displayName>
    </locationLabels>
    <coverage>1</coverage>
  </station>
  <station>
    <id>GHCND:USC00255840</id>
    <displayName>NELSON, NE US</displayName>
    <minDate>1910-01-01</minDate>
    <maxDate>2012-11-30</maxDate>
    <latitude>40.1983</latitude>
    <longitude>-98.0733</longitude>
    <elevation>522.7</elevation>
    <locationLabels>
      <type>CNTRY</type>
      <id>FIPS:US</id>
      <displayName>United States</displayName>
    </locationLabels>
    <coverage>0.9119</coverage>
  </station>
  <station>
    <id>GHCND:USC00275730</id>
    <displayName>NELSON, NH US</displayName>
    <minDate>1940-10-01</minDate>
    <maxDate>1951-10-31</maxDate>
    <latitude>42.98333</latitude>
    <longitude>-72.13333</longitude>
    <elevation>463.9</elevation>
    <locationLabels>
      <type>CNTRY</type>
      <id>FIPS:US</id>
      <displayName>United States</displayName>
    </locationLabels>
    <coverage>0.9526</coverage>
  </station>
  <station>
    <id>GHCND:USC00445983</id>
    <displayName>NELSONIA, VA US</displayName>
    <minDate>1959-06-01</minDate>
    <maxDate>1976-11-30</maxDate>
    <latitude>37.81667</latitude>
    <longitude>-75.58333</longitude>
    <elevation>14.9</elevation>
    <locationLabels>
      <type>CNTRY</type>
      <id>FIPS:US</id>
      <displayName>United States</displayName>
    </locationLabels>
    <coverage>0.6693</coverage>
  </station>
  <station>
    <id>GHCND:US1OHAT0010</id>
    <displayName>NELSONVILLE 0.1 N, OH US</displayName>
    <minDate>2010-03-15</minDate>
    <maxDate>2010-07-19</maxDate>
    <latitude>39.4608</latitude>
    <longitude>-82.226</longitude>
    <elevation>229.8</elevation>
    <locationLabels>
      <type>CNTRY</type>
      <id>FIPS:US</id>
      <displayName>United States</displayName>
    </locationLabels>
    <coverage>0.811</coverage>
  </station>
  <station>
    <id>GHCND:USC00335718</id>
    <displayName>NELSONVILLE, OH US</displayName>
    <minDate>1951-10-01</minDate>
    <maxDate>2013-01-15</maxDate>
    <latitude>39.5014</latitude>
    <longitude>-82.2439</longitude>
    <elevation>213.4</elevation>
    <locationLabels>
      <type>CNTRY</type>
      <id>FIPS:US</id>
      <displayName>United States</displayName>
    </locationLabels>
    <coverage>0.9847</coverage>
  </station>
  <station>
    <id>GHCND:US10nema007</id>
    <displayName>NEMAHA .1 NORTH, NE US</displayName>
    <minDate>2007-03-30</minDate>
    <maxDate>2010-10-23</maxDate>
    <latitude>40.3445</latitude>
    <longitude>-95.6718</longitude>
    <elevation>299.9</elevation>
    <locationLabels>
      <type>CNTRY</type>
      <id>FIPS:US</id>
      <displayName>United States</displayName>
    </locationLabels>
    <coverage>0.1173</coverage>
  </station>
  <station>
    <id>GHCND:USC00255850</id>
    <displayName>NEMAHA, NE US</displayName>
    <minDate>1894-12-01</minDate>
    <maxDate>1908-11-30</maxDate>
    <latitude>40.366667</latitude>
    <longitude>-95.666667</longitude>
    <locationLabels>
      <type>CNTRY</type>
      <id>FIPS:US</id>
      <displayName>United States</displayName>
    </locationLabels>
    <coverage>0.9578</coverage>
  </station>
  <station>
    <id>GHCND:USR0000SNEM</id>
    <displayName>NEMO SOUTH DAKOTA, SD US</displayName>
    <minDate>1993-05-10</minDate>
    <maxDate>2012-08-31</maxDate>
    <latitude>44.1917</latitude>
    <longitude>-103.5097</longitude>
    <elevation>1415.5</elevation>
    <locationLabels>
      <type>CNTRY</type>
      <id>FIPS:US</id>
      <displayName>United States</displayName>
    </locationLabels>
    <coverage>0.9585</coverage>
  </station>
  <station>
    <id>GHCND:USW00026435</id>
    <displayName>NENANA MUNICIPAL AIRPORT, AK US</displayName>
    <minDate>1916-12-01</minDate>
    <maxDate>2013-01-14</maxDate>
    <latitude>64.55</latitude>
    <longitude>-149.07167</longitude>
    <elevation>109.7</elevation>
    <locationLabels>
      <type>CNTRY</type>
      <id>FIPS:US</id>
      <displayName>United States</displayName>
    </locationLabels>
    <coverage>0.7809</coverage>
  </station>
  <station>
    <id>GHCND:USC00255860</id>
    <displayName>NENZEL 20 S, NE US</displayName>
    <minDate>1916-09-01</minDate>
    <maxDate>1982-07-31</maxDate>
    <latitude>42.65</latitude>
    <longitude>-101.16667</longitude>
    <elevation>939.1</elevation>
    <locationLabels>
      <type>CNTRY</type>
      <id>FIPS:US</id>
      <displayName>United States</displayName>
    </locationLabels>
    <coverage>0.9574</coverage>
  </station>
  <station>
    <id>GHCND:USC00255868</id>
    <displayName>NENZEL 23 SSW, NE US</displayName>
    <minDate>1982-11-01</minDate>
    <maxDate>1996-03-31</maxDate>
    <latitude>42.61667</latitude>
    <longitude>-101.28333</longitude>
    <elevation>990.6</elevation>
    <locationLabels>
      <type>CNTRY</type>
      <id>FIPS:US</id>
      <displayName>United States</displayName>
    </locationLabels>
    <coverage>0.9137</coverage>
  </station>
  <station>
    <id>GHCND:US1KSWL0006</id>
    <displayName>NEODESHA 2.9 SSW, KS US</displayName>
    <minDate>2008-02-12</minDate>
    <maxDate>2010-03-28</maxDate>
    <latitude>37.3848</latitude>
    <longitude>-95.6994</longitude>
    <elevation>253.9</elevation>
    <locationLabels>
      <type>CNTRY</type>
      <id>FIPS:US</id>
      <displayName>United States</displayName>
    </locationLabels>
    <coverage>0.1546</coverage>
  </station>
  <station>
    <id>GHCND:US1KSWL0009</id>
    <displayName>NEODESHA 5.0 WSW, KS US</displayName>
    <minDate>2010-05-11</minDate>
    <maxDate>2013-01-13</maxDate>
    <latitude>37.3853</latitude>
    <longitude>-95.7588</longitude>
    <elevation>272.2</elevation>
    <locationLabels>
      <type>CNTRY</type>
      <id>FIPS:US</id>
      <displayName>United States</displayName>
    </locationLabels>
    <coverage>0.1134</coverage>
  </station>
  <station>
    <id>GHCND:US1KSWL0003</id>
    <displayName>NEODESHA 7.4 W, KS US</displayName>
    <minDate>2007-07-20</minDate>
    <maxDate>2013-01-09</maxDate>
    <latitude>37.4141</latitude>
    <longitude>-95.8148</longitude>
    <elevation>282.9</elevation>
    <locationLabels>
      <type>CNTRY</type>
      <id>FIPS:US</id>
      <displayName>United States</displayName>
    </locationLabels>
    <coverage>0.5582</coverage>
  </station>
  <station>
    <id>GHCND:USC00145632</id>
    <displayName>NEODESHA, KS US</displayName>
    <minDate>2005-10-01</minDate>
    <maxDate>2012-12-15</maxDate>
    <latitude>37.4155</latitude>
    <longitude>-95.6919</longitude>
    <elevation>243.8</elevation>
    <locationLabels>
      <type>CNTRY</type>
      <id>FIPS:US</id>
      <displayName>United States</displayName>
    </locationLabels>
    <coverage>0.9856</coverage>
  </station>
  <station>
    <id>GHCND:USC00116025</id>
    <displayName>NEOGA 4 NW, IL US</displayName>
    <minDate>2005-10-01</minDate>
    <maxDate>2013-01-16</maxDate>
    <latitude>39.3535</latitude>
    <longitude>-88.4999</longitude>
    <elevation>190.5</elevation>
    <locationLabels>
      <type>CNTRY</type>
      <id>FIPS:US</id>
      <displayName>United States</displayName>
    </locationLabels>
    <coverage>0.9906</coverage>
  </station>
  <station>
    <id>GHCND:USC00116024</id>
    <displayName>NEOGA, IL US</displayName>
    <minDate>2006-10-01</minDate>
    <maxDate>2013-01-16</maxDate>
    <latitude>39.3197</latitude>
    <longitude>-88.4617</longitude>
    <elevation>198.1</elevation>
    <locationLabels>
      <type>CNTRY</type>
      <id>FIPS:US</id>
      <displayName>United States</displayName>
    </locationLabels>
    <coverage>0.9722</coverage>
  </station>
  <station>
    <id>GHCND:USC00346240</id>
    <displayName>NEOLA, OK US</displayName>
    <minDate>1906-01-01</minDate>
    <maxDate>1915-12-31</maxDate>
    <latitude>35.016667</latitude>
    <longitude>-98.533333</longitude>
    <elevation>457.2</elevation>
    <locationLabels>
      <type>CNTRY</type>
      <id>FIPS:US</id>
      <displayName>United States</displayName>
    </locationLabels>
    <coverage>0.9989</coverage>
  </station>
  <station>
    <id>GHCND:USC00426123</id>
    <displayName>NEOLA, UT US</displayName>
    <minDate>1956-04-26</minDate>
    <maxDate>2013-01-15</maxDate>
    <latitude>40.4178</latitude>
    <longitude>-110.0511</longitude>
    <elevation>1813.6</elevation>
    <locationLabels>
      <type>CNTRY</type>
      <id>FIPS:US</id>
      <displayName>United States</displayName>
    </locationLabels>
    <coverage>0.9452</coverage>
  </station>
  <station>
    <id>GHCND:US1WIMM0001</id>
    <displayName>NEOPIT 0.2 WSW, WI US</displayName>
    <minDate>2011-06-07</minDate>
    <maxDate>2012-12-12</maxDate>
    <latitude>44.9804</latitude>
    <longitude>-88.8293</longitude>
    <elevation>322.2</elevation>
    <locationLabels>
      <type>CNTRY</type>
      <id>FIPS:US</id>
      <displayName>United States</displayName>
    </locationLabels>
    <coverage>0.9189</coverage>
  </station>
  <station>
    <id>GHCND:US1MONW0013</id>
    <displayName>NEOSHO 3.2 SSW, MO US</displayName>
    <minDate>2008-08-08</minDate>
    <maxDate>2013-01-16</maxDate>
    <latitude>36.8011</latitude>
    <longitude>-94.3962</longitude>
    <elevation>378</elevation>
    <locationLabels>
      <type>CNTRY</type>
      <id>FIPS:US</id>
      <displayName>United States</displayName>
    </locationLabels>
    <coverage>0.9575</coverage>
  </station>
  <station>
    <id>GHCND:US1MOFSA145</id>
    <displayName>NEOSHO 3.9 WNW, MO US</displayName>
    <minDate>2006-05-01</minDate>
    <maxDate>2013-01-14</maxDate>
    <latitude>36.8636</latitude>
    <longitude>-94.4408</longitude>
    <elevation>351.1</elevation>
    <locationLabels>
      <type>CNTRY</type>
      <id>FIPS:US</id>
      <displayName>United States</displayName>
    </locationLabels>
    <coverage>0.9963</coverage>
  </station>
  <station>
    <id>GHCND:USC00145680</id>
    <displayName>NEOSHO RAPIDS, KS US</displayName>
    <minDate>1905-04-01</minDate>
    <maxDate>2011-08-31</maxDate>
    <latitude>38.3639</latitude>
    <longitude>-95.9934</longitude>
    <elevation>330.1</elevation>
    <locationLabels>
      <type>CNTRY</type>
      <id>FIPS:US</id>
      <displayName>United States</displayName>
    </locationLabels>
    <coverage>0.9705</coverage>
  </station>
  <station>
    <id>GHCND:USC00235976</id>
    <displayName>NEOSHO, MO US</displayName>
    <minDate>1893-01-01</minDate>
    <maxDate>2013-01-16</maxDate>
    <latitude>36.8638</latitude>
    <longitude>-94.36</longitude>
    <elevation>308.2</elevation>
    <locationLabels>
      <type>CNTRY</type>
      <id>FIPS:US</id>
      <displayName>United States</displayName>
    </locationLabels>
    <coverage>0.9896</coverage>
  </station>
  <station>
    <id>GHCND:USC00055890</id>
    <displayName>NEPESTA 2 NW, CO US</displayName>
    <minDate>1978-05-01</minDate>
    <maxDate>1979-11-30</maxDate>
    <latitude>38.18333</latitude>
    <longitude>-104.16667</longitude>
    <elevation>1342</elevation>
    <locationLabels>
      <type>CNTRY</type>
      <id>FIPS:US</id>
      <displayName>United States</displayName>
    </locationLabels>
    <coverage>1</coverage>
  </station>
  <station>
    <id>GHCND:USC00426140</id>
    <displayName>NEPHI 5 SSW, UT US</displayName>
    <minDate>1906-02-01</minDate>
    <maxDate>1941-08-31</maxDate>
    <latitude>39.65</latitude>
    <longitude>-111.86667</longitude>
    <elevation>1598.1</elevation>
    <locationLabels>
      <type>CNTRY</type>
      <id>FIPS:US</id>
      <displayName>United States</displayName>
    </locationLabels>
    <coverage>0.8253</coverage>
  </station>
  <station>
    <id>GHCND:USC00426135</id>
    <displayName>NEPHI, UT US</displayName>
    <minDate>1904-06-01</minDate>
    <maxDate>2013-01-15</maxDate>
    <latitude>39.7121</latitude>
    <longitude>-111.8319</longitude>
    <elevation>1563</elevation>
    <locationLabels>
      <type>CNTRY</type>
      <id>FIPS:US</id>
      <displayName>United States</displayName>
    </locationLabels>
    <coverage>0.7052</coverage>
  </station>
  <station>
    <id>GHCND:USC00455822</id>
    <displayName>NEPPEL, WA US</displayName>
    <minDate>1911-08-01</minDate>
    <maxDate>1917-06-12</maxDate>
    <latitude>47.133333</latitude>
    <longitude>-119.133333</longitude>
    <elevation>326.1</elevation>
    <locationLabels>
      <type>CNTRY</type>
      <id>FIPS:US</id>
      <displayName>United States</displayName>
    </locationLabels>
    <coverage>0.9323</coverage>
  </station>
  <station>
    <id>GHCND:US1FLDV0013</id>
    <displayName>NEPTUNE BEACH 0.5 NNW, FL US</displayName>
    <minDate>2007-10-18</minDate>
    <maxDate>2013-01-14</maxDate>
    <latitude>30.3216</latitude>
    <longitude>-81.3956</longitude>
    <locationLabels>
      <type>CNTRY</type>
      <id>FIPS:US</id>
      <displayName>United States</displayName>
    </locationLabels>
    <coverage>0.9629</coverage>
  </station>
  <station>
    <id>GHCND:US1MNGH0004</id>
    <displayName>NERSTRAND 4.2 E, MN US</displayName>
    <minDate>2011-02-01</minDate>
    <maxDate>2013-01-14</maxDate>
    <latitude>44.3425</latitude>
    <longitude>-92.9792</longitude>
    <elevation>321.3</elevation>
    <locationLabels>
      <type>CNTRY</type>
      <id>FIPS:US</id>
      <displayName>United States</displayName>
    </locationLabels>
    <coverage>0.986</coverage>
  </station>
  <station>
    <id>GHCND:USC00255882</id>
    <displayName>NESBIT, NE US</displayName>
    <minDate>1893-01-01</minDate>
    <maxDate>1902-10-31</maxDate>
    <latitude>41.483333</latitude>
    <longitude>-100.666667</longitude>
    <elevation>929.6</elevation>
    <locationLabels>
      <type>CNTRY</type>
      <id>FIPS:US</id>
      <displayName>United States</displayName>
    </locationLabels>
    <coverage>0.8705</coverage>
  </station>
  <station>
    <id>GHCND:USC00366194</id>
    <displayName>NESHAMINY FALLS, PA US</displayName>
    <minDate>1915-01-01</minDate>
    <maxDate>2013-01-15</maxDate>
    <latitude>40.1358</latitude>
    <longitude>-74.955</longitude>
    <elevation>18.3</elevation>
    <locationLabels>
      <type>CNTRY</type>
      <id>FIPS:US</id>
      <displayName>United States</displayName>
    </locationLabels>
    <coverage>0.9746</coverage>
  </station>
  <station>
    <id>GHCND:US1SCWL0005</id>
    <displayName>NESMITH 0.2 ENE, SC US</displayName>
    <minDate>2012-04-29</minDate>
    <maxDate>2013-01-14</maxDate>
    <latitude>33.66</latitude>
    <longitude>-79.51</longitude>
    <elevation>9.8</elevation>
    <locationLabels>
      <type>CNTRY</type>
      <id>FIPS:US</id>
      <displayName>United States</displayName>
    </locationLabels>
    <coverage>0.7356</coverage>
  </station>
  <station>
    <id>GHCND:USC00455832</id>
    <displayName>NESPELEM 2 S, WA US</displayName>
    <minDate>1915-02-14</minDate>
    <maxDate>1991-05-30</maxDate>
    <latitude>48.13333</latitude>
    <longitude>-118.98333</longitude>
    <elevation>576.1</elevation>
    <locationLabels>
      <type>CNTRY</type>
      <id>FIPS:US</id>
      <displayName>United States</displayName>
    </locationLabels>
    <coverage>0.9247</coverage>
  </station>
  <station>
    <id>GHCND:US1KSNS0010</id>
    <displayName>NESS CITY 0.1 E, KS US</displayName>
    <minDate>2009-02-01</minDate>
    <maxDate>2012-02-04</maxDate>
    <latitude>38.453</latitude>
    <longitude>-99.903</longitude>
    <elevation>688.8</elevation>
    <locationLabels>
      <type>CNTRY</type>
      <id>FIPS:US</id>
      <displayName>United States</displayName>
    </locationLabels>
    <coverage>0.8462</coverage>
  </station>
  <station>
    <id>GHCND:US1KSNS0004</id>
    <displayName>NESS CITY 10.2 SW, KS US</displayName>
    <minDate>2006-01-09</minDate>
    <maxDate>2008-12-24</maxDate>
    <latitude>38.349</latitude>
    <longitude>-100.038</longitude>
    <elevation>719.3</elevation>
    <locationLabels>
      <type>CNTRY</type>
      <id>FIPS:US</id>
      <displayName>United States</displayName>
    </locationLabels>
    <coverage>0.8085</coverage>
  </station>
  <station>
    <id>GHCND:USC00145692</id>
    <displayName>NESS CITY, KS US</displayName>
    <minDate>1893-04-01</minDate>
    <maxDate>2013-01-15</maxDate>
    <latitude>38.4479</latitude>
    <longitude>-99.9101</longitude>
    <elevation>685.8</elevation>
    <locationLabels>
      <type>CNTRY</type>
      <id>FIPS:US</id>
      <displayName>United States</displayName>
    </locationLabels>
    <coverage>0.9114</coverage>
  </station>
  <station>
    <id>GHCND:USC00205768</id>
    <displayName>NESTORIA, MI US</displayName>
    <minDate>1942-11-04</minDate>
    <maxDate>1943-11-24</maxDate>
    <latitude>46.56667</latitude>
    <longitude>-88.26667</longitude>
    <locationLabels>
      <type>CNTRY</type>
      <id>FIPS:US</id>
      <displayName>United States</displayName>
    </locationLabels>
    <coverage>0.9145</coverage>
  </station>
  <station>
    <id>GHCND:US1PADL0003</id>
    <displayName>NETHER PROVIDENCE TOWNSHIP 0.4, PA US</displayName>
    <minDate>2010-01-30</minDate>
    <maxDate>2011-11-29</maxDate>
    <latitude>39.8962</latitude>
    <longitude>-75.3619</longitude>
    <elevation>37.2</elevation>
    <locationLabels>
      <type>CNTRY</type>
      <id>FIPS:US</id>
      <displayName>United States</displayName>
    </locationLabels>
    <coverage>0.9477</coverage>
  </station>
  <station>
    <id>GHCND:USC00296079</id>
    <displayName>NETHERWOOD PARK, NM US</displayName>
    <minDate>1954-02-01</minDate>
    <maxDate>1957-04-24</maxDate>
    <latitude>35.1</latitude>
    <longitude>-106.61667</longitude>
    <elevation>1565.1</elevation>
    <locationLabels>
      <type>CNTRY</type>
      <id>FIPS:US</id>
      <displayName>United States</displayName>
    </locationLabels>
    <coverage>1</coverage>
  </station>
  <station>
    <id>GHCND:USC00290222</id>
    <displayName>NETHERWOOD PARK, NM US</displayName>
    <minDate>1935-05-01</minDate>
    <maxDate>1954-01-31</maxDate>
    <latitude>35.1</latitude>
    <longitude>-106.61667</longitude>
    <elevation>1565.1</elevation>
    <locationLabels>
      <type>CNTRY</type>
      <id>FIPS:US</id>
      <displayName>United States</displayName>
    </locationLabels>
    <coverage>0.9793</coverage>
  </station>
  <station>
    <id>GHCND:USC00215819</id>
    <displayName>NETT LAKE, MN US</displayName>
    <minDate>1968-08-08</minDate>
    <maxDate>1973-12-31</maxDate>
    <latitude>48.1</latitude>
    <longitude>-93.08333</longitude>
    <elevation>411.5</elevation>
    <locationLabels>
      <type>CNTRY</type>
      <id>FIPS:US</id>
      <displayName>United States</displayName>
    </locationLabels>
    <coverage>0.4934</coverage>
  </station>
</stationCollection>
