<?xml version="1.0" encoding="UTF-8" standalone="yes"?>
<stationCollection totalCount="46020" pageCount="461" pageSize="100" page="438">
  <station>
    <id>GHCND:USC00349364</id>
    <displayName>WATONGA, OK US</displayName>
    <minDate>1902-11-01</minDate>
    <maxDate>2013-01-16</maxDate>
    <latitude>35.8578</latitude>
    <longitude>-98.4139</longitude>
    <elevation>466.3</elevation>
    <locationLabels>
      <type>CNTRY</type>
      <id>FIPS:US</id>
      <displayName>United States</displayName>
    </locationLabels>
    <coverage>0.7879</coverage>
  </station>
  <station>
    <id>GHCND:USC00369340</id>
    <displayName>WATROUS 9 S LEE FIRE, PA US</displayName>
    <minDate>1943-06-14</minDate>
    <maxDate>1949-09-30</maxDate>
    <latitude>41.61667</latitude>
    <longitude>-77.55</longitude>
    <elevation>737.9</elevation>
    <locationLabels>
      <type>CNTRY</type>
      <id>FIPS:US</id>
      <displayName>United States</displayName>
    </locationLabels>
    <coverage>0.9735</coverage>
  </station>
  <station>
    <id>GHCND:US1ILIR0006</id>
    <displayName>WATSEKA 0.9 E, IL US</displayName>
    <minDate>2010-08-04</minDate>
    <maxDate>2012-12-10</maxDate>
    <latitude>40.7767</latitude>
    <longitude>-87.7156</longitude>
    <elevation>194.8</elevation>
    <locationLabels>
      <type>CNTRY</type>
      <id>FIPS:US</id>
      <displayName>United States</displayName>
    </locationLabels>
    <coverage>0.6093</coverage>
  </station>
  <station>
    <id>GHCND:USC00119021</id>
    <displayName>WATSEKA 2 NW, IL US</displayName>
    <minDate>1893-01-01</minDate>
    <maxDate>2013-01-16</maxDate>
    <latitude>40.7928</latitude>
    <longitude>-87.7556</longitude>
    <elevation>189</elevation>
    <locationLabels>
      <type>CNTRY</type>
      <id>FIPS:US</id>
      <displayName>United States</displayName>
    </locationLabels>
    <coverage>0.8966</coverage>
  </station>
  <station>
    <id>GHCND:US1ILIR0003</id>
    <displayName>WATSEKA 5.3 W, IL US</displayName>
    <minDate>2007-11-06</minDate>
    <maxDate>2013-01-16</maxDate>
    <latitude>40.7846</latitude>
    <longitude>-87.8335</longitude>
    <elevation>196.9</elevation>
    <locationLabels>
      <type>CNTRY</type>
      <id>FIPS:US</id>
      <displayName>United States</displayName>
    </locationLabels>
    <coverage>0.9684</coverage>
  </station>
  <station>
    <id>GHCND:US1ILEF0010</id>
    <displayName>WATSON 0.3 NE, IL US</displayName>
    <minDate>2008-08-04</minDate>
    <maxDate>2013-01-16</maxDate>
    <latitude>39.0284</latitude>
    <longitude>-88.5659</longitude>
    <elevation>171</elevation>
    <locationLabels>
      <type>CNTRY</type>
      <id>FIPS:US</id>
      <displayName>United States</displayName>
    </locationLabels>
    <coverage>0.9514</coverage>
  </station>
  <station>
    <id>GHCND:USC00218729</id>
    <displayName>WATSON 1 NE, MN US</displayName>
    <minDate>2011-07-01</minDate>
    <maxDate>2012-11-30</maxDate>
    <latitude>45.0227</latitude>
    <longitude>-95.7896</longitude>
    <elevation>289.6</elevation>
    <locationLabels>
      <type>CNTRY</type>
      <id>FIPS:US</id>
      <displayName>United States</displayName>
    </locationLabels>
    <coverage>0.8073</coverage>
  </station>
  <station>
    <id>GHCND:USC00169480</id>
    <displayName>WATSON 3 ESE, LA US</displayName>
    <minDate>1978-02-01</minDate>
    <maxDate>2009-11-30</maxDate>
    <latitude>30.56222</latitude>
    <longitude>-90.92139</longitude>
    <elevation>18.3</elevation>
    <locationLabels>
      <type>CNTRY</type>
      <id>FIPS:US</id>
      <displayName>United States</displayName>
    </locationLabels>
    <coverage>0.6466</coverage>
  </station>
  <station>
    <id>GHCND:USC00429320</id>
    <displayName>WATSON NEAR, UT US</displayName>
    <minDate>1908-03-01</minDate>
    <maxDate>1928-12-31</maxDate>
    <latitude>39.85</latitude>
    <longitude>-109.183333</longitude>
    <elevation>1892.8</elevation>
    <locationLabels>
      <type>CNTRY</type>
      <id>FIPS:US</id>
      <displayName>United States</displayName>
    </locationLabels>
    <coverage>0.8647</coverage>
  </station>
  <station>
    <id>GHCND:USC00037603</id>
    <displayName>WATSON, AR US</displayName>
    <minDate>1985-12-01</minDate>
    <maxDate>1988-06-30</maxDate>
    <latitude>33.9</latitude>
    <longitude>-91.26667</longitude>
    <elevation>44.8</elevation>
    <locationLabels>
      <type>CNTRY</type>
      <id>FIPS:US</id>
      <displayName>United States</displayName>
    </locationLabels>
    <coverage>0.2248</coverage>
  </station>
  <station>
    <id>GHCND:USC00419504</id>
    <displayName>WATSON, TX US</displayName>
    <minDate>1968-02-01</minDate>
    <maxDate>2013-01-15</maxDate>
    <latitude>30.9327</latitude>
    <longitude>-98.0197</longitude>
    <elevation>306.3</elevation>
    <locationLabels>
      <type>CNTRY</type>
      <id>FIPS:US</id>
      <displayName>United States</displayName>
    </locationLabels>
    <coverage>0.9924</coverage>
  </station>
  <station>
    <id>GHCND:US1PANM0001</id>
    <displayName>WATSONTOWN 0.2 N, PA US</displayName>
    <minDate>2007-07-03</minDate>
    <maxDate>2011-10-24</maxDate>
    <latitude>41.0871</latitude>
    <longitude>-76.8647</longitude>
    <elevation>148.1</elevation>
    <locationLabels>
      <type>CNTRY</type>
      <id>FIPS:US</id>
      <displayName>United States</displayName>
    </locationLabels>
    <coverage>0.2616</coverage>
  </station>
  <station>
    <id>GHCND:USC00369345</id>
    <displayName>WATSONTOWN, PA US</displayName>
    <minDate>1948-07-01</minDate>
    <maxDate>1966-12-31</maxDate>
    <latitude>41.08333</latitude>
    <longitude>-76.86667</longitude>
    <elevation>149</elevation>
    <locationLabels>
      <type>CNTRY</type>
      <id>FIPS:US</id>
      <displayName>United States</displayName>
    </locationLabels>
    <coverage>0.9633</coverage>
  </station>
  <station>
    <id>GHCND:USC00049468</id>
    <displayName>WATSONVILLE 3 SW, CA US</displayName>
    <minDate>1948-07-01</minDate>
    <maxDate>1951-09-30</maxDate>
    <latitude>36.88333</latitude>
    <longitude>-121.8</longitude>
    <elevation>21</elevation>
    <locationLabels>
      <type>CNTRY</type>
      <id>FIPS:US</id>
      <displayName>United States</displayName>
    </locationLabels>
    <coverage>0.8593</coverage>
  </station>
  <station>
    <id>GHCND:USW00023277</id>
    <displayName>WATSONVILLE MUNICIPAL AIRPORT, CA US</displayName>
    <minDate>1998-07-19</minDate>
    <maxDate>2013-01-14</maxDate>
    <latitude>36.93583</latitude>
    <longitude>-121.78861</longitude>
    <elevation>48.8</elevation>
    <locationLabels>
      <type>CNTRY</type>
      <id>FIPS:US</id>
      <displayName>United States</displayName>
    </locationLabels>
    <coverage>0.9824</coverage>
  </station>
  <station>
    <id>GHCND:USW00023249</id>
    <displayName>WATSONVILLE MUNICIPAL AIRPORT, CA US</displayName>
    <minDate>1945-03-01</minDate>
    <maxDate>1945-10-14</maxDate>
    <latitude>36.93583</latitude>
    <longitude>-121.78861</longitude>
    <elevation>48.8</elevation>
    <locationLabels>
      <type>CNTRY</type>
      <id>FIPS:US</id>
      <displayName>United States</displayName>
    </locationLabels>
    <coverage>0.9693</coverage>
  </station>
  <station>
    <id>GHCND:USC00049473</id>
    <displayName>WATSONVILLE WATERWORKS, CA US</displayName>
    <minDate>1908-01-01</minDate>
    <maxDate>2013-01-14</maxDate>
    <latitude>36.9308</latitude>
    <longitude>-121.7691</longitude>
    <elevation>29</elevation>
    <locationLabels>
      <type>CNTRY</type>
      <id>FIPS:US</id>
      <displayName>United States</displayName>
    </locationLabels>
    <coverage>0.9226</coverage>
  </station>
  <station>
    <id>GHCND:USC00208703</id>
    <displayName>WATTON 1 E, MI US</displayName>
    <minDate>1948-12-01</minDate>
    <maxDate>1949-11-04</maxDate>
    <latitude>46.53333</latitude>
    <longitude>-88.58333</longitude>
    <locationLabels>
      <type>CNTRY</type>
      <id>FIPS:US</id>
      <displayName>United States</displayName>
    </locationLabels>
    <coverage>0.8053</coverage>
  </station>
  <station>
    <id>GHCND:USC00208706</id>
    <displayName>WATTON, MI US</displayName>
    <minDate>2005-07-01</minDate>
    <maxDate>2013-01-16</maxDate>
    <latitude>46.5102</latitude>
    <longitude>-88.6666</longitude>
    <elevation>434.9</elevation>
    <locationLabels>
      <type>CNTRY</type>
      <id>FIPS:US</id>
      <displayName>United States</displayName>
    </locationLabels>
    <coverage>0.9985</coverage>
  </station>
  <station>
    <id>GHCND:USC00349382</id>
    <displayName>WATTS 5 N, OK US</displayName>
    <minDate>1922-04-18</minDate>
    <maxDate>1954-08-31</maxDate>
    <latitude>36.18333</latitude>
    <longitude>-94.56667</longitude>
    <elevation>360</elevation>
    <locationLabels>
      <type>CNTRY</type>
      <id>FIPS:US</id>
      <displayName>United States</displayName>
    </locationLabels>
    <coverage>0.9159</coverage>
  </station>
  <station>
    <id>GHCND:USC00409484</id>
    <displayName>WATTS BAR DAM, TN US</displayName>
    <minDate>1949-01-01</minDate>
    <maxDate>1962-03-31</maxDate>
    <latitude>35.61667</latitude>
    <longitude>-84.78333</longitude>
    <elevation>253</elevation>
    <locationLabels>
      <type>CNTRY</type>
      <id>FIPS:US</id>
      <displayName>United States</displayName>
    </locationLabels>
    <coverage>0.9915</coverage>
  </station>
  <station>
    <id>GHCND:USC00398980</id>
    <displayName>WAUBAY NATIONAL WILD LIFE REFUGE, SD US</displayName>
    <minDate>1952-05-02</minDate>
    <maxDate>2013-01-13</maxDate>
    <latitude>45.4247</latitude>
    <longitude>-97.327</longitude>
    <elevation>557.8</elevation>
    <locationLabels>
      <type>CNTRY</type>
      <id>FIPS:US</id>
      <displayName>United States</displayName>
    </locationLabels>
    <coverage>0.9872</coverage>
  </station>
  <station>
    <id>GHCND:USC00478932</id>
    <displayName>WAUBEKA, WI US</displayName>
    <minDate>1993-07-01</minDate>
    <maxDate>2012-11-19</maxDate>
    <latitude>43.47028</latitude>
    <longitude>-87.98361</longitude>
    <elevation>286.5</elevation>
    <locationLabels>
      <type>CNTRY</type>
      <id>FIPS:US</id>
      <displayName>United States</displayName>
    </locationLabels>
    <coverage>0.4782</coverage>
  </station>
  <station>
    <id>GHCND:USC00089401</id>
    <displayName>WAUCHULA, FL US</displayName>
    <minDate>1933-01-01</minDate>
    <maxDate>2013-01-07</maxDate>
    <latitude>27.5477</latitude>
    <longitude>-81.7994</longitude>
    <elevation>18.3</elevation>
    <locationLabels>
      <type>CNTRY</type>
      <id>FIPS:US</id>
      <displayName>United States</displayName>
    </locationLabels>
    <coverage>0.9706</coverage>
  </station>
  <station>
    <id>GHCND:USC00138742</id>
    <displayName>WAUCOMA 3 SE, IA US</displayName>
    <minDate>1954-12-01</minDate>
    <maxDate>2012-12-30</maxDate>
    <latitude>43.0534</latitude>
    <longitude>-92.0371</longitude>
    <elevation>318.5</elevation>
    <locationLabels>
      <type>CNTRY</type>
      <id>FIPS:US</id>
      <displayName>United States</displayName>
    </locationLabels>
    <coverage>0.94</coverage>
  </station>
  <station>
    <id>GHCND:US1IAFY0003</id>
    <displayName>WAUCOMA 3.2 S, IA US</displayName>
    <minDate>2008-06-27</minDate>
    <maxDate>2013-01-16</maxDate>
    <latitude>43.0087</latitude>
    <longitude>-92.0271</longitude>
    <elevation>313.3</elevation>
    <locationLabels>
      <type>CNTRY</type>
      <id>FIPS:US</id>
      <displayName>United States</displayName>
    </locationLabels>
    <coverage>0.9832</coverage>
  </station>
  <station>
    <id>GHCND:US1IADL0005</id>
    <displayName>WAUKEE 0.9 WSW, IA US</displayName>
    <minDate>2007-08-28</minDate>
    <maxDate>2012-04-18</maxDate>
    <latitude>41.6023</latitude>
    <longitude>-93.879</longitude>
    <elevation>285</elevation>
    <locationLabels>
      <type>CNTRY</type>
      <id>FIPS:US</id>
      <displayName>United States</displayName>
    </locationLabels>
    <coverage>0.4039</coverage>
  </station>
  <station>
    <id>GHCND:USC00138747</id>
    <displayName>WAUKEE, IA US</displayName>
    <minDate>1894-10-01</minDate>
    <maxDate>1953-03-31</maxDate>
    <latitude>41.61667</latitude>
    <longitude>-93.88333</longitude>
    <elevation>313.9</elevation>
    <locationLabels>
      <type>CNTRY</type>
      <id>FIPS:US</id>
      <displayName>United States</displayName>
    </locationLabels>
    <coverage>0.8714</coverage>
  </station>
  <station>
    <id>GHCND:US1ILLK0019</id>
    <displayName>WAUKEGAN 2.2 N, IL US</displayName>
    <minDate>2007-03-24</minDate>
    <maxDate>2013-01-16</maxDate>
    <latitude>42.4024</latitude>
    <longitude>-87.8636</longitude>
    <elevation>218.8</elevation>
    <locationLabels>
      <type>CNTRY</type>
      <id>FIPS:US</id>
      <displayName>United States</displayName>
    </locationLabels>
    <coverage>0.8565</coverage>
  </station>
  <station>
    <id>GHCND:USC00119030</id>
    <displayName>WAUKEGAN NUMBER 2, IL US</displayName>
    <minDate>1986-11-01</minDate>
    <maxDate>1999-07-31</maxDate>
    <latitude>42.36056</latitude>
    <longitude>-87.81861</longitude>
    <elevation>198.1</elevation>
    <locationLabels>
      <type>CNTRY</type>
      <id>FIPS:US</id>
      <displayName>United States</displayName>
    </locationLabels>
    <coverage>0.8868</coverage>
  </station>
  <station>
    <id>GHCND:USC00119029</id>
    <displayName>WAUKEGAN, IL US</displayName>
    <minDate>1923-01-01</minDate>
    <maxDate>2002-07-31</maxDate>
    <latitude>42.34917</latitude>
    <longitude>-87.88278</longitude>
    <elevation>213.4</elevation>
    <locationLabels>
      <type>CNTRY</type>
      <id>FIPS:US</id>
      <displayName>United States</displayName>
    </locationLabels>
    <coverage>0.9697</coverage>
  </station>
  <station>
    <id>GHCND:US1WIWK0012</id>
    <displayName>WAUKESHA 1.8 SE, WI US</displayName>
    <minDate>2007-09-01</minDate>
    <maxDate>2013-01-16</maxDate>
    <latitude>42.9934</latitude>
    <longitude>-88.2144</longitude>
    <elevation>294.1</elevation>
    <locationLabels>
      <type>CNTRY</type>
      <id>FIPS:US</id>
      <displayName>United States</displayName>
    </locationLabels>
    <coverage>0.9649</coverage>
  </station>
  <station>
    <id>GHCND:US1WIWK0017</id>
    <displayName>WAUKESHA 2.0 WSW, WI US</displayName>
    <minDate>2009-05-27</minDate>
    <maxDate>2010-08-03</maxDate>
    <latitude>43.0064</latitude>
    <longitude>-88.2774</longitude>
    <elevation>267.6</elevation>
    <locationLabels>
      <type>CNTRY</type>
      <id>FIPS:US</id>
      <displayName>United States</displayName>
    </locationLabels>
    <coverage>0.5553</coverage>
  </station>
  <station>
    <id>GHCND:US1WIWK0004</id>
    <displayName>WAUKESHA 2.1 SSW, WI US</displayName>
    <minDate>2007-09-01</minDate>
    <maxDate>2013-01-16</maxDate>
    <latitude>42.9847</latitude>
    <longitude>-88.2531</longitude>
    <elevation>249</elevation>
    <locationLabels>
      <type>CNTRY</type>
      <id>FIPS:US</id>
      <displayName>United States</displayName>
    </locationLabels>
    <coverage>0.7405</coverage>
  </station>
  <station>
    <id>GHCND:US1WIWK0015</id>
    <displayName>WAUKESHA 3.0 E, WI US</displayName>
    <minDate>2008-04-14</minDate>
    <maxDate>2010-05-30</maxDate>
    <latitude>43.0196</latitude>
    <longitude>-88.1791</longitude>
    <elevation>288.3</elevation>
    <locationLabels>
      <type>CNTRY</type>
      <id>FIPS:US</id>
      <displayName>United States</displayName>
    </locationLabels>
    <coverage>0.4685</coverage>
  </station>
  <station>
    <id>GHCND:USC00478937</id>
    <displayName>WAUKESHA, WI US</displayName>
    <minDate>1893-01-01</minDate>
    <maxDate>2013-01-16</maxDate>
    <latitude>43.0063</latitude>
    <longitude>-88.2491</longitude>
    <elevation>253</elevation>
    <locationLabels>
      <type>CNTRY</type>
      <id>FIPS:US</id>
      <displayName>United States</displayName>
    </locationLabels>
    <coverage>0.9474</coverage>
  </station>
  <station>
    <id>GHCND:USC00349391</id>
    <displayName>WAUKOMIS, OK US</displayName>
    <minDate>1897-01-01</minDate>
    <maxDate>1958-07-31</maxDate>
    <latitude>36.28333</latitude>
    <longitude>-97.9</longitude>
    <elevation>381</elevation>
    <locationLabels>
      <type>CNTRY</type>
      <id>FIPS:US</id>
      <displayName>United States</displayName>
    </locationLabels>
    <coverage>0.9832</coverage>
  </station>
  <station>
    <id>GHCND:USC00138755</id>
    <displayName>WAUKON, IA US</displayName>
    <minDate>1934-10-01</minDate>
    <maxDate>2013-01-16</maxDate>
    <latitude>43.2741</latitude>
    <longitude>-91.4711</longitude>
    <elevation>388.6</elevation>
    <locationLabels>
      <type>CNTRY</type>
      <id>FIPS:US</id>
      <displayName>United States</displayName>
    </locationLabels>
    <coverage>0.9618</coverage>
  </station>
  <station>
    <id>GHCND:USC00459021</id>
    <displayName>WAUNA 3 W, WA US</displayName>
    <minDate>1938-07-01</minDate>
    <maxDate>2012-11-30</maxDate>
    <latitude>47.3725</latitude>
    <longitude>-122.7027</longitude>
    <elevation>5.2</elevation>
    <locationLabels>
      <type>CNTRY</type>
      <id>FIPS:US</id>
      <displayName>United States</displayName>
    </locationLabels>
    <coverage>0.9529</coverage>
  </station>
  <station>
    <id>GHCND:USC00359121</id>
    <displayName>WAUNA, OR US</displayName>
    <minDate>2011-01-01</minDate>
    <maxDate>2012-11-30</maxDate>
    <latitude>46.15639</latitude>
    <longitude>-123.40222</longitude>
    <elevation>-0.6</elevation>
    <locationLabels>
      <type>CNTRY</type>
      <id>FIPS:US</id>
      <displayName>United States</displayName>
    </locationLabels>
    <coverage>0.9</coverage>
  </station>
  <station>
    <id>GHCND:US1WIDA0018</id>
    <displayName>WAUNAKEE 0.6 W, WI US</displayName>
    <minDate>2010-04-04</minDate>
    <maxDate>2010-12-10</maxDate>
    <latitude>43.1868</latitude>
    <longitude>-89.4637</longitude>
    <elevation>286.2</elevation>
    <locationLabels>
      <type>CNTRY</type>
      <id>FIPS:US</id>
      <displayName>United States</displayName>
    </locationLabels>
    <coverage>0.9841</coverage>
  </station>
  <station>
    <id>GHCND:US10dund016</id>
    <displayName>WAUNETA 10.0 SW, NE US</displayName>
    <minDate>2007-03-01</minDate>
    <maxDate>2007-11-20</maxDate>
    <latitude>40.3219</latitude>
    <longitude>-101.5138</longitude>
    <elevation>1024.1</elevation>
    <locationLabels>
      <type>CNTRY</type>
      <id>FIPS:US</id>
      <displayName>United States</displayName>
    </locationLabels>
    <coverage>1</coverage>
  </station>
  <station>
    <id>GHCND:US10chas030</id>
    <displayName>WAUNETA 11.4 NNW, NE US</displayName>
    <minDate>2007-01-06</minDate>
    <maxDate>2008-08-29</maxDate>
    <latitude>40.5789</latitude>
    <longitude>-101.4193</longitude>
    <elevation>969</elevation>
    <locationLabels>
      <type>CNTRY</type>
      <id>FIPS:US</id>
      <displayName>United States</displayName>
    </locationLabels>
    <coverage>0.6694</coverage>
  </station>
  <station>
    <id>GHCND:US10chas021</id>
    <displayName>WAUNETA 2.8 W, NE US</displayName>
    <minDate>2007-01-02</minDate>
    <maxDate>2009-10-21</maxDate>
    <latitude>40.4253</latitude>
    <longitude>-101.4242</longitude>
    <elevation>908.9</elevation>
    <locationLabels>
      <type>CNTRY</type>
      <id>FIPS:US</id>
      <displayName>United States</displayName>
    </locationLabels>
    <coverage>0.7842</coverage>
  </station>
  <station>
    <id>GHCND:US10haye004</id>
    <displayName>WAUNETA 5.1 E, NE US</displayName>
    <minDate>2007-01-01</minDate>
    <maxDate>2013-01-15</maxDate>
    <latitude>40.3999</latitude>
    <longitude>-101.2766</longitude>
    <elevation>926.9</elevation>
    <locationLabels>
      <type>CNTRY</type>
      <id>FIPS:US</id>
      <displayName>United States</displayName>
    </locationLabels>
    <coverage>0.9511</coverage>
  </station>
  <station>
    <id>GHCND:US10dund020</id>
    <displayName>WAUNETA 5.8 S, NE US</displayName>
    <minDate>2007-01-01</minDate>
    <maxDate>2013-01-16</maxDate>
    <latitude>40.3347</latitude>
    <longitude>-101.3795</longitude>
    <elevation>992.1</elevation>
    <locationLabels>
      <type>CNTRY</type>
      <id>FIPS:US</id>
      <displayName>United States</displayName>
    </locationLabels>
    <coverage>0.9629</coverage>
  </station>
  <station>
    <id>GHCND:US10dund018</id>
    <displayName>WAUNETA 5.9 SSE, NE US</displayName>
    <minDate>2007-03-24</minDate>
    <maxDate>2010-10-17</maxDate>
    <latitude>40.3343</latitude>
    <longitude>-101.3468</longitude>
    <elevation>983.9</elevation>
    <locationLabels>
      <type>CNTRY</type>
      <id>FIPS:US</id>
      <displayName>United States</displayName>
    </locationLabels>
    <coverage>0.4195</coverage>
  </station>
  <station>
    <id>GHCND:US10chas034</id>
    <displayName>WAUNETA 6.1 W, NE US</displayName>
    <minDate>2008-06-04</minDate>
    <maxDate>2013-01-16</maxDate>
    <latitude>40.4309</latitude>
    <longitude>-101.4868</longitude>
    <elevation>930.9</elevation>
    <locationLabels>
      <type>CNTRY</type>
      <id>FIPS:US</id>
      <displayName>United States</displayName>
    </locationLabels>
    <coverage>0.9354</coverage>
  </station>
  <station>
    <id>GHCND:US10dund015</id>
    <displayName>WAUNETA 6.5 S, NE US</displayName>
    <minDate>2007-01-01</minDate>
    <maxDate>2013-01-16</maxDate>
    <latitude>40.3361</latitude>
    <longitude>-101.4339</longitude>
    <elevation>1001</elevation>
    <locationLabels>
      <type>CNTRY</type>
      <id>FIPS:US</id>
      <displayName>United States</displayName>
    </locationLabels>
    <coverage>0.9832</coverage>
  </station>
  <station>
    <id>GHCND:USC00259020</id>
    <displayName>WAUNETA, NE US</displayName>
    <minDate>1898-06-04</minDate>
    <maxDate>2012-04-27</maxDate>
    <latitude>40.4121</latitude>
    <longitude>-101.3611</longitude>
    <elevation>896.4</elevation>
    <locationLabels>
      <type>CNTRY</type>
      <id>FIPS:US</id>
      <displayName>United States</displayName>
    </locationLabels>
    <coverage>0.9282</coverage>
  </station>
  <station>
    <id>GHCND:USC00478951</id>
    <displayName>WAUPACA, WI US</displayName>
    <minDate>1895-04-01</minDate>
    <maxDate>2013-01-16</maxDate>
    <latitude>44.3547</latitude>
    <longitude>-89.0592</longitude>
    <elevation>255.1</elevation>
    <locationLabels>
      <type>CNTRY</type>
      <id>FIPS:US</id>
      <displayName>United States</displayName>
    </locationLabels>
    <coverage>0.9718</coverage>
  </station>
  <station>
    <id>GHCND:USC00349400</id>
    <displayName>WAURIKA 1 ENE MESONET, OK US</displayName>
    <minDate>2009-02-01</minDate>
    <maxDate>2013-01-04</maxDate>
    <latitude>34.1678</latitude>
    <longitude>-97.9882</longitude>
    <elevation>282.9</elevation>
    <locationLabels>
      <type>CNTRY</type>
      <id>FIPS:US</id>
      <displayName>United States</displayName>
    </locationLabels>
    <coverage>0.9212</coverage>
  </station>
  <station>
    <id>GHCND:USC00349399</id>
    <displayName>WAURIKA DAM, OK US</displayName>
    <minDate>1987-05-01</minDate>
    <maxDate>1997-05-31</maxDate>
    <latitude>34.23333</latitude>
    <longitude>-98.05</longitude>
    <elevation>302.1</elevation>
    <locationLabels>
      <type>CNTRY</type>
      <id>FIPS:US</id>
      <displayName>United States</displayName>
    </locationLabels>
    <coverage>0.987</coverage>
  </station>
  <station>
    <id>GHCND:USC00349395</id>
    <displayName>WAURIKA, OK US</displayName>
    <minDate>1910-01-01</minDate>
    <maxDate>2008-09-10</maxDate>
    <latitude>34.17472</latitude>
    <longitude>-97.99639</longitude>
    <elevation>278</elevation>
    <locationLabels>
      <type>CNTRY</type>
      <id>FIPS:US</id>
      <displayName>United States</displayName>
    </locationLabels>
    <coverage>0.9704</coverage>
  </station>
  <station>
    <id>GHCND:US10knox003</id>
    <displayName>WAUSA 2.4 NW, NE US</displayName>
    <minDate>2009-04-11</minDate>
    <maxDate>2012-06-02</maxDate>
    <latitude>42.525</latitude>
    <longitude>-97.5736</longitude>
    <elevation>548.9</elevation>
    <locationLabels>
      <type>CNTRY</type>
      <id>FIPS:US</id>
      <displayName>United States</displayName>
    </locationLabels>
    <coverage>0.2324</coverage>
  </station>
  <station>
    <id>GHCND:US1WIMT0005</id>
    <displayName>WAUSAU 1.6 E, WI US</displayName>
    <minDate>2009-09-17</minDate>
    <maxDate>2012-04-19</maxDate>
    <latitude>44.9586</latitude>
    <longitude>-89.612</longitude>
    <elevation>410.6</elevation>
    <locationLabels>
      <type>CNTRY</type>
      <id>FIPS:US</id>
      <displayName>United States</displayName>
    </locationLabels>
    <coverage>0.2653</coverage>
  </station>
  <station>
    <id>GHCND:US1WIMT0004</id>
    <displayName>WAUSAU 1.7 ENE, WI US</displayName>
    <minDate>2008-08-30</minDate>
    <maxDate>2013-01-14</maxDate>
    <latitude>44.9694</latitude>
    <longitude>-89.6109</longitude>
    <elevation>370.3</elevation>
    <locationLabels>
      <type>CNTRY</type>
      <id>FIPS:US</id>
      <displayName>United States</displayName>
    </locationLabels>
    <coverage>0.7817</coverage>
  </station>
  <station>
    <id>GHCND:USC00478963</id>
    <displayName>WAUSAU 7 SSW, WI US</displayName>
    <minDate>1948-08-22</minDate>
    <maxDate>1951-09-30</maxDate>
    <latitude>44.86667</latitude>
    <longitude>-89.65</longitude>
    <elevation>359.7</elevation>
    <locationLabels>
      <type>CNTRY</type>
      <id>FIPS:US</id>
      <displayName>United States</displayName>
    </locationLabels>
    <coverage>0.9753</coverage>
  </station>
  <station>
    <id>GHCND:USW00014897</id>
    <displayName>WAUSAU ASOS, WI US</displayName>
    <minDate>1941-12-01</minDate>
    <maxDate>2013-01-15</maxDate>
    <latitude>44.9288</latitude>
    <longitude>-89.6277</longitude>
    <elevation>365.8</elevation>
    <locationLabels>
      <type>CNTRY</type>
      <id>FIPS:US</id>
      <displayName>United States</displayName>
    </locationLabels>
    <coverage>0.9941</coverage>
  </station>
  <station>
    <id>GHCND:USR0000MWAU</id>
    <displayName>WAUSAU MISSISSIPPI, MS US</displayName>
    <minDate>2002-03-13</minDate>
    <maxDate>2012-08-31</maxDate>
    <latitude>31.5242</latitude>
    <longitude>-88.8889</longitude>
    <elevation>95.1</elevation>
    <locationLabels>
      <type>CNTRY</type>
      <id>FIPS:US</id>
      <displayName>United States</displayName>
    </locationLabels>
    <coverage>0.9038</coverage>
  </station>
  <station>
    <id>GHCND:USC00478971</id>
    <displayName>WAUSAU RECORD HERALD, WI US</displayName>
    <minDate>1895-04-01</minDate>
    <maxDate>1960-12-31</maxDate>
    <latitude>44.95</latitude>
    <longitude>-89.61667</longitude>
    <elevation>371.9</elevation>
    <locationLabels>
      <type>CNTRY</type>
      <id>FIPS:US</id>
      <displayName>United States</displayName>
    </locationLabels>
    <coverage>0.6854</coverage>
  </station>
  <station>
    <id>GHCND:USC00478969</id>
    <displayName>WAUSAU WSAW TV, WI US</displayName>
    <minDate>2001-09-01</minDate>
    <maxDate>2013-01-15</maxDate>
    <latitude>44.9463</latitude>
    <longitude>-89.6222</longitude>
    <elevation>364.8</elevation>
    <locationLabels>
      <type>CNTRY</type>
      <id>FIPS:US</id>
      <displayName>United States</displayName>
    </locationLabels>
    <coverage>0.9249</coverage>
  </station>
  <station>
    <id>GHCND:USC00089417</id>
    <displayName>WAUSAU, FL US</displayName>
    <minDate>1897-08-01</minDate>
    <maxDate>1923-05-29</maxDate>
    <latitude>30.633333</latitude>
    <longitude>-85.583333</longitude>
    <elevation>76.2</elevation>
    <locationLabels>
      <type>CNTRY</type>
      <id>FIPS:US</id>
      <displayName>United States</displayName>
    </locationLabels>
    <coverage>0.8505</coverage>
  </station>
  <station>
    <id>GHCND:US1WIMR0001</id>
    <displayName>WAUSAUKEE 5.5 NE, WI US</displayName>
    <minDate>2010-05-01</minDate>
    <maxDate>2012-12-02</maxDate>
    <latitude>45.4256</latitude>
    <longitude>-87.8631</longitude>
    <elevation>213.4</elevation>
    <locationLabels>
      <type>CNTRY</type>
      <id>FIPS:US</id>
      <displayName>United States</displayName>
    </locationLabels>
    <coverage>0.132</coverage>
  </station>
  <station>
    <id>GHCND:USC00478978</id>
    <displayName>WAUSAUKEE, WI US</displayName>
    <minDate>1897-01-01</minDate>
    <maxDate>2013-01-16</maxDate>
    <latitude>45.3802</latitude>
    <longitude>-87.9566</longitude>
    <elevation>227.1</elevation>
    <locationLabels>
      <type>CNTRY</type>
      <id>FIPS:US</id>
      <displayName>United States</displayName>
    </locationLabels>
    <coverage>0.5803</coverage>
  </station>
  <station>
    <id>GHCND:US1OHFL0002</id>
    <displayName>WAUSEON 0.2 SE, OH US</displayName>
    <minDate>2011-04-02</minDate>
    <maxDate>2013-01-16</maxDate>
    <latitude>41.5515</latitude>
    <longitude>-84.1387</longitude>
    <elevation>234.1</elevation>
    <locationLabels>
      <type>CNTRY</type>
      <id>FIPS:US</id>
      <displayName>United States</displayName>
    </locationLabels>
    <coverage>0.9299</coverage>
  </station>
  <station>
    <id>GHCND:USC00338822</id>
    <displayName>WAUSEON WATER PLANT, OH US</displayName>
    <minDate>1893-02-01</minDate>
    <maxDate>2013-01-16</maxDate>
    <latitude>41.5183</latitude>
    <longitude>-84.1452</longitude>
    <elevation>228.6</elevation>
    <locationLabels>
      <type>CNTRY</type>
      <id>FIPS:US</id>
      <displayName>United States</displayName>
    </locationLabels>
    <coverage>0.9916</coverage>
  </station>
  <station>
    <id>GHCND:USC00478984</id>
    <displayName>WAUTOMA 4 N, WI US</displayName>
    <minDate>2005-01-01</minDate>
    <maxDate>2009-06-08</maxDate>
    <latitude>44.1405</latitude>
    <longitude>-89.2977</longitude>
    <elevation>321.9</elevation>
    <locationLabels>
      <type>CNTRY</type>
      <id>FIPS:US</id>
      <displayName>United States</displayName>
    </locationLabels>
    <coverage>0.9698</coverage>
  </station>
  <station>
    <id>GHCND:US1WIWH0002</id>
    <displayName>WAUTOMA 4.7 NW, WI US</displayName>
    <minDate>2009-04-13</minDate>
    <maxDate>2013-01-15</maxDate>
    <latitude>44.1227</latitude>
    <longitude>-89.3508</longitude>
    <elevation>332.5</elevation>
    <locationLabels>
      <type>CNTRY</type>
      <id>FIPS:US</id>
      <displayName>United States</displayName>
    </locationLabels>
    <coverage>0.6645</coverage>
  </station>
  <station>
    <id>GHCND:USC00478987</id>
    <displayName>WAUTOMA SILVER LAKE SAN DIST, WI US</displayName>
    <minDate>2009-08-01</minDate>
    <maxDate>2013-01-16</maxDate>
    <latitude>44.04111</latitude>
    <longitude>-89.24333</longitude>
    <elevation>264.9</elevation>
    <locationLabels>
      <type>CNTRY</type>
      <id>FIPS:US</id>
      <displayName>United States</displayName>
    </locationLabels>
    <coverage>0.9953</coverage>
  </station>
  <station>
    <id>GHCND:US1MSHC0011</id>
    <displayName>WAVELAND 1.1 NW, MS US</displayName>
    <minDate>2009-10-11</minDate>
    <maxDate>2013-01-15</maxDate>
    <latitude>30.2973</latitude>
    <longitude>-89.3987</longitude>
    <elevation>4</elevation>
    <locationLabels>
      <type>CNTRY</type>
      <id>FIPS:US</id>
      <displayName>United States</displayName>
    </locationLabels>
    <coverage>0.9011</coverage>
  </station>
  <station>
    <id>GHCND:USC00129300</id>
    <displayName>WAVELAND, IN US</displayName>
    <minDate>1948-07-01</minDate>
    <maxDate>2001-08-31</maxDate>
    <latitude>39.87778</latitude>
    <longitude>-87.03722</longitude>
    <elevation>238</elevation>
    <locationLabels>
      <type>CNTRY</type>
      <id>FIPS:US</id>
      <displayName>United States</displayName>
    </locationLabels>
    <coverage>0.5688</coverage>
  </station>
  <station>
    <id>GHCND:USC00229426</id>
    <displayName>WAVELAND, MS US</displayName>
    <minDate>1982-05-01</minDate>
    <maxDate>2013-01-08</maxDate>
    <latitude>30.2947</latitude>
    <longitude>-89.383</longitude>
    <elevation>2.4</elevation>
    <locationLabels>
      <type>CNTRY</type>
      <id>FIPS:US</id>
      <displayName>United States</displayName>
    </locationLabels>
    <coverage>0.9546</coverage>
  </station>
  <station>
    <id>GHCND:US1ILMG0004</id>
    <displayName>WAVERLY 0.3 SSW, IL US</displayName>
    <minDate>2008-02-27</minDate>
    <maxDate>2010-10-25</maxDate>
    <latitude>39.5895</latitude>
    <longitude>-89.955</longitude>
    <elevation>203.9</elevation>
    <locationLabels>
      <type>CNTRY</type>
      <id>FIPS:US</id>
      <displayName>United States</displayName>
    </locationLabels>
    <coverage>0.6183</coverage>
  </station>
  <station>
    <id>GHCND:US10lanc031</id>
    <displayName>WAVERLY 0.4 WNW, NE US</displayName>
    <minDate>2007-08-30</minDate>
    <maxDate>2010-11-16</maxDate>
    <latitude>40.9192</latitude>
    <longitude>-96.536</longitude>
    <elevation>338</elevation>
    <locationLabels>
      <type>CNTRY</type>
      <id>FIPS:US</id>
      <displayName>United States</displayName>
    </locationLabels>
    <coverage>0.7523</coverage>
  </station>
  <station>
    <id>GHCND:USC00058860</id>
    <displayName>WAVERLY 1 W, CO US</displayName>
    <minDate>2004-04-01</minDate>
    <maxDate>2013-01-16</maxDate>
    <latitude>37.4297</latitude>
    <longitude>-106.0317</longitude>
    <elevation>2317.4</elevation>
    <locationLabels>
      <type>CNTRY</type>
      <id>FIPS:US</id>
      <displayName>United States</displayName>
    </locationLabels>
    <coverage>0.9935</coverage>
  </station>
  <station>
    <id>GHCND:US1TNHP0008</id>
    <displayName>WAVERLY 2.8 ENE, TN US</displayName>
    <minDate>2007-11-01</minDate>
    <maxDate>2010-03-22</maxDate>
    <latitude>36.1147</latitude>
    <longitude>-87.7455</longitude>
    <elevation>230.1</elevation>
    <locationLabels>
      <type>CNTRY</type>
      <id>FIPS:US</id>
      <displayName>United States</displayName>
    </locationLabels>
    <coverage>0.5464</coverage>
  </station>
  <station>
    <id>GHCND:USC00238770</id>
    <displayName>WAVERLY 3 W, MO US</displayName>
    <minDate>2011-01-01</minDate>
    <maxDate>2012-11-30</maxDate>
    <latitude>39.2106</latitude>
    <longitude>-93.5211</longitude>
    <elevation>268.2</elevation>
    <locationLabels>
      <type>CNTRY</type>
      <id>FIPS:US</id>
      <displayName>United States</displayName>
    </locationLabels>
    <coverage>1</coverage>
  </station>
  <station>
    <id>GHCND:US1KSCF0003</id>
    <displayName>WAVERLY 5.1 WSW, KS US</displayName>
    <minDate>2012-03-13</minDate>
    <maxDate>2013-01-15</maxDate>
    <latitude>38.3761</latitude>
    <longitude>-95.6938</longitude>
    <elevation>351.7</elevation>
    <locationLabels>
      <type>CNTRY</type>
      <id>FIPS:US</id>
      <displayName>United States</displayName>
    </locationLabels>
    <coverage>0.9579</coverage>
  </station>
  <station>
    <id>GHCND:US1KSCF0005</id>
    <displayName>WAVERLY 7.8 SSW, KS US</displayName>
    <minDate>2012-03-01</minDate>
    <maxDate>2012-11-14</maxDate>
    <latitude>38.2922</latitude>
    <longitude>-95.655</longitude>
    <elevation>342</elevation>
    <locationLabels>
      <type>CNTRY</type>
      <id>FIPS:US</id>
      <displayName>United States</displayName>
    </locationLabels>
    <coverage>0.9846</coverage>
  </station>
  <station>
    <id>GHCND:USC00409493</id>
    <displayName>WAVERLY AIRPORT, TN US</displayName>
    <minDate>2000-10-01</minDate>
    <maxDate>2012-10-09</maxDate>
    <latitude>36.1142</latitude>
    <longitude>-87.7419</longitude>
    <elevation>228.3</elevation>
    <locationLabels>
      <type>CNTRY</type>
      <id>FIPS:US</id>
      <displayName>United States</displayName>
    </locationLabels>
    <coverage>0.8377</coverage>
  </station>
  <station>
    <id>GHCND:USC00448938</id>
    <displayName>WAVERLY HILLS, VA US</displayName>
    <minDate>1945-03-01</minDate>
    <maxDate>1970-02-28</maxDate>
    <latitude>38.88333</latitude>
    <longitude>-77.11667</longitude>
    <elevation>103.9</elevation>
    <locationLabels>
      <type>CNTRY</type>
      <id>FIPS:US</id>
      <displayName>United States</displayName>
    </locationLabels>
    <coverage>0.9572</coverage>
  </station>
  <station>
    <id>GHCND:USC00099177</id>
    <displayName>WAVERLY, GA US</displayName>
    <minDate>1901-06-21</minDate>
    <maxDate>1905-12-31</maxDate>
    <latitude>31.1</latitude>
    <longitude>-81.733333</longitude>
    <elevation>6.1</elevation>
    <locationLabels>
      <type>CNTRY</type>
      <id>FIPS:US</id>
      <displayName>United States</displayName>
    </locationLabels>
    <coverage>0.9927</coverage>
  </station>
  <station>
    <id>GHCND:USC00138771</id>
    <displayName>WAVERLY, IA US</displayName>
    <minDate>1896-01-01</minDate>
    <maxDate>1946-08-31</maxDate>
    <latitude>42.73333</latitude>
    <longitude>-92.46667</longitude>
    <elevation>287.1</elevation>
    <locationLabels>
      <type>CNTRY</type>
      <id>FIPS:US</id>
      <displayName>United States</displayName>
    </locationLabels>
    <coverage>0.9595</coverage>
  </station>
  <station>
    <id>GHCND:USC00119034</id>
    <displayName>WAVERLY, IL US</displayName>
    <minDate>1934-09-01</minDate>
    <maxDate>1945-09-30</maxDate>
    <latitude>39.68333</latitude>
    <longitude>-89.95</longitude>
    <elevation>205.4</elevation>
    <locationLabels>
      <type>CNTRY</type>
      <id>FIPS:US</id>
      <displayName>United States</displayName>
    </locationLabels>
    <coverage>0.9521</coverage>
  </station>
  <station>
    <id>GHCND:USC00148608</id>
    <displayName>WAVERLY, KS US</displayName>
    <minDate>1948-08-01</minDate>
    <maxDate>1993-05-31</maxDate>
    <latitude>38.4</latitude>
    <longitude>-95.6</longitude>
    <elevation>341.4</elevation>
    <locationLabels>
      <type>CNTRY</type>
      <id>FIPS:US</id>
      <displayName>United States</displayName>
    </locationLabels>
    <coverage>0.9828</coverage>
  </station>
  <station>
    <id>GHCND:USC00238768</id>
    <displayName>WAVERLY, MO US</displayName>
    <minDate>1915-01-01</minDate>
    <maxDate>2012-09-28</maxDate>
    <latitude>39.21667</latitude>
    <longitude>-93.51667</longitude>
    <elevation>243.8</elevation>
    <locationLabels>
      <type>CNTRY</type>
      <id>FIPS:US</id>
      <displayName>United States</displayName>
    </locationLabels>
    <coverage>0.723</coverage>
  </station>
  <station>
    <id>GHCND:USC00309047</id>
    <displayName>WAVERLY, NY US</displayName>
    <minDate>1893-01-01</minDate>
    <maxDate>2012-08-10</maxDate>
    <latitude>42.0019</latitude>
    <longitude>-76.525</longitude>
    <elevation>257.6</elevation>
    <locationLabels>
      <type>CNTRY</type>
      <id>FIPS:US</id>
      <displayName>United States</displayName>
    </locationLabels>
    <coverage>0.3776</coverage>
  </station>
  <station>
    <id>GHCND:USC00338830</id>
    <displayName>WAVERLY, OH US</displayName>
    <minDate>1893-06-01</minDate>
    <maxDate>2013-01-16</maxDate>
    <latitude>39.1114</latitude>
    <longitude>-82.9797</longitude>
    <elevation>170.7</elevation>
    <locationLabels>
      <type>CNTRY</type>
      <id>FIPS:US</id>
      <displayName>United States</displayName>
    </locationLabels>
    <coverage>0.9782</coverage>
  </station>
  <station>
    <id>GHCND:USC00409492</id>
    <displayName>WAVERLY, TN US</displayName>
    <minDate>1962-06-01</minDate>
    <maxDate>2000-06-30</maxDate>
    <latitude>36.0825</latitude>
    <longitude>-87.83472</longitude>
    <elevation>164.6</elevation>
    <locationLabels>
      <type>CNTRY</type>
      <id>FIPS:US</id>
      <displayName>United States</displayName>
    </locationLabels>
    <coverage>0.9552</coverage>
  </station>
  <station>
    <id>GHCND:USC00448933</id>
    <displayName>WAVERLY, VA US</displayName>
    <minDate>1955-08-15</minDate>
    <maxDate>1982-03-31</maxDate>
    <latitude>37.03333</latitude>
    <longitude>-77.1</longitude>
    <elevation>34.1</elevation>
    <locationLabels>
      <type>CNTRY</type>
      <id>FIPS:US</id>
      <displayName>United States</displayName>
    </locationLabels>
    <coverage>0.2032</coverage>
  </station>
  <station>
    <id>GHCND:USC00459024</id>
    <displayName>WAWAWAI 2 NW, WA US</displayName>
    <minDate>1927-11-02</minDate>
    <maxDate>1965-10-31</maxDate>
    <latitude>46.65</latitude>
    <longitude>-117.4</longitude>
    <elevation>214</elevation>
    <locationLabels>
      <type>CNTRY</type>
      <id>FIPS:US</id>
      <displayName>United States</displayName>
    </locationLabels>
    <coverage>0.8832</coverage>
  </station>
  <station>
    <id>GHCND:USC00049482</id>
    <displayName>WAWONA R S, CA US</displayName>
    <minDate>1940-10-01</minDate>
    <maxDate>1951-09-30</maxDate>
    <latitude>37.54</latitude>
    <longitude>-119.65222</longitude>
    <elevation>1214.6</elevation>
    <locationLabels>
      <type>CNTRY</type>
      <id>FIPS:US</id>
      <displayName>United States</displayName>
    </locationLabels>
    <coverage>0.3612</coverage>
  </station>
  <station>
    <id>GHCND:USC00049481</id>
    <displayName>WAWONA, CA US</displayName>
    <minDate>1934-01-01</minDate>
    <maxDate>1940-08-31</maxDate>
    <latitude>37.53333</latitude>
    <longitude>-119.66667</longitude>
    <elevation>1189.9</elevation>
    <locationLabels>
      <type>CNTRY</type>
      <id>FIPS:US</id>
      <displayName>United States</displayName>
    </locationLabels>
    <coverage>0.9848</coverage>
  </station>
  <station>
    <id>GHCND:US1TXEL0016</id>
    <displayName>WAXAHACHIE 0.6 E, TX US</displayName>
    <minDate>2011-08-12</minDate>
    <maxDate>2013-01-14</maxDate>
    <latitude>32.4067</latitude>
    <longitude>-96.8412</longitude>
    <elevation>185</elevation>
    <locationLabels>
      <type>CNTRY</type>
      <id>FIPS:US</id>
      <displayName>United States</displayName>
    </locationLabels>
    <coverage>0.5402</coverage>
  </station>
  <station>
    <id>GHCND:USC00419522</id>
    <displayName>WAXAHACHIE, TX US</displayName>
    <minDate>1897-05-01</minDate>
    <maxDate>2012-10-15</maxDate>
    <latitude>32.428</latitude>
    <longitude>-96.8422</longitude>
    <elevation>190.8</elevation>
    <locationLabels>
      <type>CNTRY</type>
      <id>FIPS:US</id>
      <displayName>United States</displayName>
    </locationLabels>
    <coverage>0.9571</coverage>
  </station>
  <station>
    <id>GHCND:US1NCUN0009</id>
    <displayName>WAXHAW 4.0 NNE, NC US</displayName>
    <minDate>2008-06-16</minDate>
    <maxDate>2013-01-14</maxDate>
    <latitude>34.9788</latitude>
    <longitude>-80.7165</longitude>
    <elevation>182.6</elevation>
    <locationLabels>
      <type>CNTRY</type>
      <id>FIPS:US</id>
      <displayName>United States</displayName>
    </locationLabels>
    <coverage>0.9319</coverage>
  </station>
  <station>
    <id>GHCND:US1NCUN0017</id>
    <displayName>WAXHAW 4.1 ENE, NC US</displayName>
    <minDate>2011-08-01</minDate>
    <maxDate>2013-01-16</maxDate>
    <latitude>34.9447</latitude>
    <longitude>-80.6747</longitude>
    <elevation>196.9</elevation>
    <locationLabels>
      <type>CNTRY</type>
      <id>FIPS:US</id>
      <displayName>United States</displayName>
    </locationLabels>
    <coverage>0.9009</coverage>
  </station>
  <station>
    <id>GHCND:US1NCUN0014</id>
    <displayName>WAXHAW 6.1 NE, NC US</displayName>
    <minDate>2009-04-01</minDate>
    <maxDate>2013-01-16</maxDate>
    <latitude>34.9761</latitude>
    <longitude>-80.6557</longitude>
    <elevation>198.7</elevation>
    <locationLabels>
      <type>CNTRY</type>
      <id>FIPS:US</id>
      <displayName>United States</displayName>
    </locationLabels>
    <coverage>0.9272</coverage>
  </station>
  <station>
    <id>GHCND:US1NCUN0020</id>
    <displayName>WAXHAW 7.5 NNW, NC US</displayName>
    <minDate>2012-07-18</minDate>
    <maxDate>2013-01-14</maxDate>
    <latitude>35.022</latitude>
    <longitude>-80.7997</longitude>
    <elevation>186.8</elevation>
    <locationLabels>
      <type>CNTRY</type>
      <id>FIPS:US</id>
      <displayName>United States</displayName>
    </locationLabels>
    <coverage>0.7072</coverage>
  </station>
</stationCollection>
