<?xml version="1.0" encoding="UTF-8" standalone="yes"?>
<stationCollection totalCount="46020" pageCount="461" pageSize="100" page="456">
  <station>
    <id>GHCND:US10hall018</id>
    <displayName>WOOD RIVER 4.9 WSW, NE US</displayName>
    <minDate>2007-01-02</minDate>
    <maxDate>2013-01-16</maxDate>
    <latitude>40.7859</latitude>
    <longitude>-98.6834</longitude>
    <elevation>611.1</elevation>
    <locationLabels>
      <type>CNTRY</type>
      <id>FIPS:US</id>
      <displayName>United States</displayName>
    </locationLabels>
    <coverage>0.9379</coverage>
  </station>
  <station>
    <id>GHCND:US10hall010</id>
    <displayName>WOOD RIVER 5.2 SSE, NE US</displayName>
    <minDate>2007-03-25</minDate>
    <maxDate>2008-10-23</maxDate>
    <latitude>40.7467</latitude>
    <longitude>-98.579</longitude>
    <elevation>598.9</elevation>
    <locationLabels>
      <type>CNTRY</type>
      <id>FIPS:US</id>
      <displayName>United States</displayName>
    </locationLabels>
    <coverage>0.4145</coverage>
  </station>
  <station>
    <id>GHCND:US10hall019</id>
    <displayName>WOOD RIVER 5.5 NE, NE US</displayName>
    <minDate>2007-01-01</minDate>
    <maxDate>2012-08-08</maxDate>
    <latitude>40.8883</latitude>
    <longitude>-98.5447</longitude>
    <elevation>593.1</elevation>
    <locationLabels>
      <type>CNTRY</type>
      <id>FIPS:US</id>
      <displayName>United States</displayName>
    </locationLabels>
    <coverage>0.746</coverage>
  </station>
  <station>
    <id>GHCND:USC00379327</id>
    <displayName>WOOD RIVER JUNCTION, RI US</displayName>
    <minDate>1938-04-01</minDate>
    <maxDate>1948-09-30</maxDate>
    <latitude>41.43333</latitude>
    <longitude>-71.7</longitude>
    <elevation>14.9</elevation>
    <locationLabels>
      <type>CNTRY</type>
      <id>FIPS:US</id>
      <displayName>United States</displayName>
    </locationLabels>
    <coverage>0.9565</coverage>
  </station>
  <station>
    <id>GHCND:USC00399442</id>
    <displayName>WOOD, SD US</displayName>
    <minDate>1913-01-01</minDate>
    <maxDate>2012-11-30</maxDate>
    <latitude>43.4977</latitude>
    <longitude>-100.4794</longitude>
    <elevation>664.5</elevation>
    <locationLabels>
      <type>CNTRY</type>
      <id>FIPS:US</id>
      <displayName>United States</displayName>
    </locationLabels>
    <coverage>0.9526</coverage>
  </station>
  <station>
    <id>GHCND:US1CAMR0002</id>
    <displayName>WOODACRE 0.6 SW, CA US</displayName>
    <minDate>2008-10-01</minDate>
    <maxDate>2013-01-06</maxDate>
    <latitude>38.005</latitude>
    <longitude>-122.6354</longitude>
    <elevation>133.8</elevation>
    <locationLabels>
      <type>CNTRY</type>
      <id>FIPS:US</id>
      <displayName>United States</displayName>
    </locationLabels>
    <coverage>0.9455</coverage>
  </station>
  <station>
    <id>GHCND:USR0000CWOO</id>
    <displayName>WOODACRE CALIFORNIA, CA US</displayName>
    <minDate>2003-05-23</minDate>
    <maxDate>2012-08-30</maxDate>
    <latitude>37.9906</latitude>
    <longitude>-122.6447</longitude>
    <elevation>426.7</elevation>
    <locationLabels>
      <type>CNTRY</type>
      <id>FIPS:US</id>
      <displayName>United States</displayName>
    </locationLabels>
    <coverage>0.6396</coverage>
  </station>
  <station>
    <id>GHCND:US1NJCM0007</id>
    <displayName>WOODBINE 0.8 NNW, NJ US</displayName>
    <minDate>2008-06-16</minDate>
    <maxDate>2013-01-16</maxDate>
    <latitude>39.2378</latitude>
    <longitude>-74.8173</longitude>
    <elevation>13.1</elevation>
    <locationLabels>
      <type>CNTRY</type>
      <id>FIPS:US</id>
      <displayName>United States</displayName>
    </locationLabels>
    <coverage>0.9558</coverage>
  </station>
  <station>
    <id>GHCND:US1MDHW0017</id>
    <displayName>WOODBINE 1.6 SE, MD US</displayName>
    <minDate>2007-06-25</minDate>
    <maxDate>2013-01-08</maxDate>
    <latitude>39.3353</latitude>
    <longitude>-77.0475</longitude>
    <elevation>175.9</elevation>
    <locationLabels>
      <type>CNTRY</type>
      <id>FIPS:US</id>
      <displayName>United States</displayName>
    </locationLabels>
    <coverage>0.8444</coverage>
  </station>
  <station>
    <id>GHCND:US1IAHR0006</id>
    <displayName>WOODBINE 3.7 ENE, IA US</displayName>
    <minDate>2009-05-06</minDate>
    <maxDate>2010-04-02</maxDate>
    <latitude>41.7626</latitude>
    <longitude>-95.6442</longitude>
    <elevation>348.4</elevation>
    <locationLabels>
      <type>CNTRY</type>
      <id>FIPS:US</id>
      <displayName>United States</displayName>
    </locationLabels>
    <coverage>0.5241</coverage>
  </station>
  <station>
    <id>GHCND:US1NJCM0012</id>
    <displayName>WOODBINE 5.1 NE, NJ US</displayName>
    <minDate>2009-07-29</minDate>
    <maxDate>2013-01-16</maxDate>
    <latitude>39.29</latitude>
    <longitude>-74.7556</longitude>
    <elevation>7</elevation>
    <locationLabels>
      <type>CNTRY</type>
      <id>FIPS:US</id>
      <displayName>United States</displayName>
    </locationLabels>
    <coverage>0.9905</coverage>
  </station>
  <station>
    <id>GHCND:USC00149022</id>
    <displayName>WOODBINE 7 N, KS US</displayName>
    <minDate>1971-07-23</minDate>
    <maxDate>1994-12-31</maxDate>
    <latitude>38.8848</latitude>
    <longitude>-96.91</longitude>
    <elevation>338.3</elevation>
    <locationLabels>
      <type>CNTRY</type>
      <id>FIPS:US</id>
      <displayName>United States</displayName>
    </locationLabels>
    <coverage>0.0646</coverage>
  </station>
  <station>
    <id>GHCND:US1IAHR0002</id>
    <displayName>WOODBINE 7.9 NNW, IA US</displayName>
    <minDate>2008-04-10</minDate>
    <maxDate>2013-01-13</maxDate>
    <latitude>41.8413</latitude>
    <longitude>-95.7684</longitude>
    <elevation>438.9</elevation>
    <locationLabels>
      <type>CNTRY</type>
      <id>FIPS:US</id>
      <displayName>United States</displayName>
    </locationLabels>
    <coverage>0.354</coverage>
  </station>
  <station>
    <id>GHCND:USC00099502</id>
    <displayName>WOODBINE, GA US</displayName>
    <minDate>1998-12-01</minDate>
    <maxDate>2013-01-16</maxDate>
    <latitude>30.9589</latitude>
    <longitude>-81.7072</longitude>
    <elevation>5.5</elevation>
    <locationLabels>
      <type>CNTRY</type>
      <id>FIPS:US</id>
      <displayName>United States</displayName>
    </locationLabels>
    <coverage>0.9986</coverage>
  </station>
  <station>
    <id>GHCND:USC00139164</id>
    <displayName>WOODBINE, IA US</displayName>
    <minDate>1943-06-01</minDate>
    <maxDate>1951-08-11</maxDate>
    <latitude>41.745</latitude>
    <longitude>-95.7091</longitude>
    <elevation>332.2</elevation>
    <locationLabels>
      <type>CNTRY</type>
      <id>FIPS:US</id>
      <displayName>United States</displayName>
    </locationLabels>
    <coverage>0.3059</coverage>
  </station>
  <station>
    <id>GHCND:US1VAPW0003</id>
    <displayName>WOODBRIDGE 0.5 SSW, VA US</displayName>
    <minDate>2005-11-06</minDate>
    <maxDate>2013-01-16</maxDate>
    <latitude>38.6284</latitude>
    <longitude>-77.2644</longitude>
    <elevation>32</elevation>
    <locationLabels>
      <type>CNTRY</type>
      <id>FIPS:US</id>
      <displayName>United States</displayName>
    </locationLabels>
    <coverage>0.8718</coverage>
  </station>
  <station>
    <id>GHCND:US1VAPW0008</id>
    <displayName>WOODBRIDGE 2.6 SSW, VA US</displayName>
    <minDate>2008-03-30</minDate>
    <maxDate>2010-01-18</maxDate>
    <latitude>38.6009</latitude>
    <longitude>-77.2817</longitude>
    <elevation>31.7</elevation>
    <locationLabels>
      <type>CNTRY</type>
      <id>FIPS:US</id>
      <displayName>United States</displayName>
    </locationLabels>
    <coverage>0.6803</coverage>
  </station>
  <station>
    <id>GHCND:US1VAPW0010</id>
    <displayName>WOODBRIDGE 5.9 NW, VA US</displayName>
    <minDate>2010-09-30</minDate>
    <maxDate>2013-01-16</maxDate>
    <latitude>38.6991</latitude>
    <longitude>-77.3355</longitude>
    <elevation>69.8</elevation>
    <locationLabels>
      <type>CNTRY</type>
      <id>FIPS:US</id>
      <displayName>United States</displayName>
    </locationLabels>
    <coverage>0.8583</coverage>
  </station>
  <station>
    <id>GHCND:US1NJMD0043</id>
    <displayName>WOODBRIDGE TWP 1.1 ESE, NJ US</displayName>
    <minDate>2012-06-26</minDate>
    <maxDate>2013-01-16</maxDate>
    <latitude>40.5554</latitude>
    <longitude>-74.274</longitude>
    <elevation>4</elevation>
    <locationLabels>
      <type>CNTRY</type>
      <id>FIPS:US</id>
      <displayName>United States</displayName>
    </locationLabels>
    <coverage>0.9805</coverage>
  </station>
  <station>
    <id>GHCND:USC00329550</id>
    <displayName>WOODBRIDGE, ND US</displayName>
    <minDate>1893-01-01</minDate>
    <maxDate>1903-04-30</maxDate>
    <latitude>48.9</latitude>
    <longitude>-98.666667</longitude>
    <locationLabels>
      <type>CNTRY</type>
      <id>FIPS:US</id>
      <displayName>United States</displayName>
    </locationLabels>
    <coverage>0.9252</coverage>
  </station>
  <station>
    <id>GHCND:US1INAL0032</id>
    <displayName>WOODBURN 2.8 WSW, IN US</displayName>
    <minDate>2009-11-09</minDate>
    <maxDate>2013-01-16</maxDate>
    <latitude>41.1174</latitude>
    <longitude>-84.9063</longitude>
    <elevation>227.1</elevation>
    <locationLabels>
      <type>CNTRY</type>
      <id>FIPS:US</id>
      <displayName>United States</displayName>
    </locationLabels>
    <coverage>0.8524</coverage>
  </station>
  <station>
    <id>GHCND:USC00129724</id>
    <displayName>WOODBURN 3 N, IN US</displayName>
    <minDate>2009-01-01</minDate>
    <maxDate>2013-01-16</maxDate>
    <latitude>41.1645</latitude>
    <longitude>-84.8482</longitude>
    <elevation>216.4</elevation>
    <locationLabels>
      <type>CNTRY</type>
      <id>FIPS:US</id>
      <displayName>United States</displayName>
    </locationLabels>
    <coverage>0.9736</coverage>
  </station>
  <station>
    <id>GHCND:US1MNWG0001</id>
    <displayName>WOODBURY 0.8 NNE, MN US</displayName>
    <minDate>2009-11-28</minDate>
    <maxDate>2012-12-28</maxDate>
    <latitude>44.9172</latitude>
    <longitude>-92.919</longitude>
    <elevation>304.2</elevation>
    <locationLabels>
      <type>CNTRY</type>
      <id>FIPS:US</id>
      <displayName>United States</displayName>
    </locationLabels>
    <coverage>0.1304</coverage>
  </station>
  <station>
    <id>GHCND:USC00409866</id>
    <displayName>WOODBURY 1 WNW, TN US</displayName>
    <minDate>1954-07-01</minDate>
    <maxDate>2013-01-16</maxDate>
    <latitude>35.8375</latitude>
    <longitude>-86.0894</longitude>
    <elevation>228.6</elevation>
    <locationLabels>
      <type>CNTRY</type>
      <id>FIPS:US</id>
      <displayName>United States</displayName>
    </locationLabels>
    <coverage>0.9947</coverage>
  </station>
  <station>
    <id>GHCND:US1MNWG0016</id>
    <displayName>WOODBURY 1.7 N, MN US</displayName>
    <minDate>2011-04-06</minDate>
    <maxDate>2013-01-16</maxDate>
    <latitude>44.9305</latitude>
    <longitude>-92.9249</longitude>
    <elevation>298.7</elevation>
    <locationLabels>
      <type>CNTRY</type>
      <id>FIPS:US</id>
      <displayName>United States</displayName>
    </locationLabels>
    <coverage>0.8926</coverage>
  </station>
  <station>
    <id>GHCND:USC00069783</id>
    <displayName>WOODBURY 3 W, CT US</displayName>
    <minDate>1948-06-01</minDate>
    <maxDate>1965-11-20</maxDate>
    <latitude>41.56667</latitude>
    <longitude>-73.26667</longitude>
    <elevation>285</elevation>
    <locationLabels>
      <type>CNTRY</type>
      <id>FIPS:US</id>
      <displayName>United States</displayName>
    </locationLabels>
    <coverage>0.9978</coverage>
  </station>
  <station>
    <id>GHCND:US1MNWG0005</id>
    <displayName>WOODBURY 3.8 NE, MN US</displayName>
    <minDate>2009-12-24</minDate>
    <maxDate>2013-01-14</maxDate>
    <latitude>44.9417</latitude>
    <longitude>-92.8629</longitude>
    <elevation>270.1</elevation>
    <locationLabels>
      <type>CNTRY</type>
      <id>FIPS:US</id>
      <displayName>United States</displayName>
    </locationLabels>
    <coverage>0.8775</coverage>
  </station>
  <station>
    <id>GHCND:US1TNCN0001</id>
    <displayName>WOODBURY 7.1 SE, TN US</displayName>
    <minDate>2007-07-10</minDate>
    <maxDate>2008-07-14</maxDate>
    <latitude>35.7582</latitude>
    <longitude>-85.9729</longitude>
    <elevation>340.2</elevation>
    <locationLabels>
      <type>CNTRY</type>
      <id>FIPS:US</id>
      <displayName>United States</displayName>
    </locationLabels>
    <coverage>0.2884</coverage>
  </station>
  <station>
    <id>GHCND:US1TNCN0003</id>
    <displayName>WOODBURY 9.6 ENE, TN US</displayName>
    <minDate>2007-09-01</minDate>
    <maxDate>2008-02-26</maxDate>
    <latitude>35.8596</latitude>
    <longitude>-85.9045</longitude>
    <elevation>341.1</elevation>
    <locationLabels>
      <type>CNTRY</type>
      <id>FIPS:US</id>
      <displayName>United States</displayName>
    </locationLabels>
    <coverage>0.7095</coverage>
  </station>
  <station>
    <id>GHCND:USC00069775</id>
    <displayName>WOODBURY, CT US</displayName>
    <minDate>1966-05-01</minDate>
    <maxDate>2009-02-28</maxDate>
    <latitude>41.5537</latitude>
    <longitude>-73.2296</longitude>
    <elevation>198.1</elevation>
    <locationLabels>
      <type>CNTRY</type>
      <id>FIPS:US</id>
      <displayName>United States</displayName>
    </locationLabels>
    <coverage>0.9903</coverage>
  </station>
  <station>
    <id>GHCND:USC00099506</id>
    <displayName>WOODBURY, GA US</displayName>
    <minDate>1900-08-01</minDate>
    <maxDate>2013-01-16</maxDate>
    <latitude>32.97083</latitude>
    <longitude>-84.61028</longitude>
    <elevation>222.5</elevation>
    <locationLabels>
      <type>CNTRY</type>
      <id>FIPS:US</id>
      <displayName>United States</displayName>
    </locationLabels>
    <coverage>0.977</coverage>
  </station>
  <station>
    <id>GHCND:USC00158824</id>
    <displayName>WOODBURY, KY US</displayName>
    <minDate>1917-02-01</minDate>
    <maxDate>2012-09-26</maxDate>
    <latitude>37.1852</latitude>
    <longitude>-86.6335</longitude>
    <elevation>134.1</elevation>
    <locationLabels>
      <type>CNTRY</type>
      <id>FIPS:US</id>
      <displayName>United States</displayName>
    </locationLabels>
    <coverage>0.9894</coverage>
  </station>
  <station>
    <id>GHCND:USC00299822</id>
    <displayName>WOODBURY, NM US</displayName>
    <minDate>1900-02-01</minDate>
    <maxDate>1902-08-31</maxDate>
    <latitude>35.7</latitude>
    <longitude>-106.38333</longitude>
    <elevation>2011.7</elevation>
    <locationLabels>
      <type>CNTRY</type>
      <id>FIPS:US</id>
      <displayName>United States</displayName>
    </locationLabels>
    <coverage>0.983</coverage>
  </station>
  <station>
    <id>GHCND:USC00289832</id>
    <displayName>WOODCLIFF LAKE, NJ US</displayName>
    <minDate>1919-07-01</minDate>
    <maxDate>2012-07-31</maxDate>
    <latitude>41.0139</latitude>
    <longitude>-74.0425</longitude>
    <elevation>31.4</elevation>
    <locationLabels>
      <type>CNTRY</type>
      <id>FIPS:US</id>
      <displayName>United States</displayName>
    </locationLabels>
    <coverage>0.9523</coverage>
  </station>
  <station>
    <id>GHCND:US1TXHYS013</id>
    <displayName>WOODCREEK 9.8 WNW, TX US</displayName>
    <minDate>2007-10-15</minDate>
    <maxDate>2013-01-09</maxDate>
    <latitude>30.11</latitude>
    <longitude>-98.2488</longitude>
    <elevation>394.1</elevation>
    <locationLabels>
      <type>CNTRY</type>
      <id>FIPS:US</id>
      <displayName>United States</displayName>
    </locationLabels>
    <coverage>0.0883</coverage>
  </station>
  <station>
    <id>GHCND:USC00439953</id>
    <displayName>WOODFORD, VT US</displayName>
    <minDate>1966-05-01</minDate>
    <maxDate>1966-08-31</maxDate>
    <latitude>42.88333</latitude>
    <longitude>-73.03333</longitude>
    <elevation>683.1</elevation>
    <locationLabels>
      <type>CNTRY</type>
      <id>FIPS:US</id>
      <displayName>United States</displayName>
    </locationLabels>
    <coverage>1</coverage>
  </station>
  <station>
    <id>GHCND:USC00049775</id>
    <displayName>WOODFORDS, CA US</displayName>
    <minDate>1909-11-01</minDate>
    <maxDate>1990-08-30</maxDate>
    <latitude>38.78333</latitude>
    <longitude>-119.8</longitude>
    <elevation>1722.1</elevation>
    <locationLabels>
      <type>CNTRY</type>
      <id>FIPS:US</id>
      <displayName>United States</displayName>
    </locationLabels>
    <coverage>0.7323</coverage>
  </station>
  <station>
    <id>GHCND:US1MIWY0011</id>
    <displayName>WOODHAVEN 0.9 WNW, MI US</displayName>
    <minDate>2008-08-01</minDate>
    <maxDate>2012-10-14</maxDate>
    <latitude>42.1365</latitude>
    <longitude>-83.2529</longitude>
    <elevation>181.1</elevation>
    <locationLabels>
      <type>CNTRY</type>
      <id>FIPS:US</id>
      <displayName>United States</displayName>
    </locationLabels>
    <coverage>0.2513</coverage>
  </station>
  <station>
    <id>GHCND:USC00119469</id>
    <displayName>WOODHULL, IL US</displayName>
    <minDate>1991-08-01</minDate>
    <maxDate>2011-12-31</maxDate>
    <latitude>41.1831</latitude>
    <longitude>-90.3166</longitude>
    <elevation>248.4</elevation>
    <locationLabels>
      <type>CNTRY</type>
      <id>FIPS:US</id>
      <displayName>United States</displayName>
    </locationLabels>
    <coverage>0.9391</coverage>
  </station>
  <station>
    <id>GHCND:US1WAKG0078</id>
    <displayName>WOODINVILLE 0.9 ENE, WA US</displayName>
    <minDate>2008-07-12</minDate>
    <maxDate>2013-01-16</maxDate>
    <latitude>47.7531</latitude>
    <longitude>-122.0943</longitude>
    <elevation>87.8</elevation>
    <locationLabels>
      <type>CNTRY</type>
      <id>FIPS:US</id>
      <displayName>United States</displayName>
    </locationLabels>
    <coverage>0.9121</coverage>
  </station>
  <station>
    <id>GHCND:US1WAKG0035</id>
    <displayName>WOODINVILLE 1.7 SE, WA US</displayName>
    <minDate>2008-06-17</minDate>
    <maxDate>2013-01-11</maxDate>
    <latitude>47.7295</latitude>
    <longitude>-122.0836</longitude>
    <elevation>66.4</elevation>
    <locationLabels>
      <type>CNTRY</type>
      <id>FIPS:US</id>
      <displayName>United States</displayName>
    </locationLabels>
    <coverage>0.815</coverage>
  </station>
  <station>
    <id>GHCND:USC00049781</id>
    <displayName>WOODLAND 1 WNW, CA US</displayName>
    <minDate>1906-03-01</minDate>
    <maxDate>2012-12-17</maxDate>
    <latitude>38.6827</latitude>
    <longitude>-121.7941</longitude>
    <elevation>21</elevation>
    <locationLabels>
      <type>CNTRY</type>
      <id>FIPS:US</id>
      <displayName>United States</displayName>
    </locationLabels>
    <coverage>0.8645</coverage>
  </station>
  <station>
    <id>GHCND:US1CAYL0010</id>
    <displayName>WOODLAND 2.8 SE, CA US</displayName>
    <minDate>2010-04-11</minDate>
    <maxDate>2013-01-04</maxDate>
    <latitude>38.6471</latitude>
    <longitude>-121.7322</longitude>
    <elevation>11.6</elevation>
    <locationLabels>
      <type>CNTRY</type>
      <id>FIPS:US</id>
      <displayName>United States</displayName>
    </locationLabels>
    <coverage>0.834</coverage>
  </station>
  <station>
    <id>GHCND:USC00429584</id>
    <displayName>WOODLAND 4 SE, UT US</displayName>
    <minDate>1922-12-01</minDate>
    <maxDate>1926-10-31</maxDate>
    <latitude>40.55778</latitude>
    <longitude>-111.16861</longitude>
    <elevation>2118.4</elevation>
    <locationLabels>
      <type>CNTRY</type>
      <id>FIPS:US</id>
      <displayName>United States</displayName>
    </locationLabels>
    <coverage>0.8176</coverage>
  </station>
  <station>
    <id>GHCND:US1CALA0007</id>
    <displayName>WOODLAND HILLS 2.6 WNW, CA US</displayName>
    <minDate>2008-11-24</minDate>
    <maxDate>2012-11-18</maxDate>
    <latitude>34.1805</latitude>
    <longitude>-118.6497</longitude>
    <elevation>272.5</elevation>
    <locationLabels>
      <type>CNTRY</type>
      <id>FIPS:US</id>
      <displayName>United States</displayName>
    </locationLabels>
    <coverage>0.851</coverage>
  </station>
  <station>
    <id>GHCND:USC00049785</id>
    <displayName>WOODLAND HILLS PIERCE COLLEGE, CA US</displayName>
    <minDate>2006-07-14</minDate>
    <maxDate>2013-01-16</maxDate>
    <latitude>34.18167</latitude>
    <longitude>-118.57417</longitude>
    <elevation>240.8</elevation>
    <locationLabels>
      <type>CNTRY</type>
      <id>FIPS:US</id>
      <displayName>United States</displayName>
    </locationLabels>
    <coverage>0.9971</coverage>
  </station>
  <station>
    <id>GHCND:US1NJPS0017</id>
    <displayName>WOODLAND PARK 0.1 NW, NJ US</displayName>
    <minDate>2010-04-24</minDate>
    <maxDate>2012-06-13</maxDate>
    <latitude>40.8918</latitude>
    <longitude>-74.196</longitude>
    <elevation>89.9</elevation>
    <locationLabels>
      <type>CNTRY</type>
      <id>FIPS:US</id>
      <displayName>United States</displayName>
    </locationLabels>
    <coverage>0.3325</coverage>
  </station>
  <station>
    <id>GHCND:US1COTL0014</id>
    <displayName>WOODLAND PARK 0.2 ESE, CO US</displayName>
    <minDate>2009-04-29</minDate>
    <maxDate>2013-01-08</maxDate>
    <latitude>38.9939</latitude>
    <longitude>-105.0483</longitude>
    <elevation>2575</elevation>
    <locationLabels>
      <type>CNTRY</type>
      <id>FIPS:US</id>
      <displayName>United States</displayName>
    </locationLabels>
    <coverage>0.1784</coverage>
  </station>
  <station>
    <id>GHCND:USW00003088</id>
    <displayName>WOODLAND PARK 14 WSW, CO US</displayName>
    <minDate>2010-06-30</minDate>
    <maxDate>2013-01-15</maxDate>
    <latitude>38.9105</latitude>
    <longitude>-105.2650</longitude>
    <elevation>2601.5</elevation>
    <locationLabels>
      <type>CNTRY</type>
      <id>FIPS:US</id>
      <displayName>United States</displayName>
    </locationLabels>
    <coverage>0.9946</coverage>
  </station>
  <station>
    <id>GHCND:USC00059210</id>
    <displayName>WOODLAND PARK 8 NNW, CO US</displayName>
    <minDate>1948-08-01</minDate>
    <maxDate>1951-09-30</maxDate>
    <latitude>39.1005</latitude>
    <longitude>-105.0942</longitude>
    <elevation>2365.2</elevation>
    <locationLabels>
      <type>CNTRY</type>
      <id>FIPS:US</id>
      <displayName>United States</displayName>
    </locationLabels>
    <coverage>0.9844</coverage>
  </station>
  <station>
    <id>GHCND:US1NJBT0025</id>
    <displayName>WOODLAND TWP 1.8 SW, NJ US</displayName>
    <minDate>2010-10-12</minDate>
    <maxDate>2012-12-30</maxDate>
    <latitude>39.821</latitude>
    <longitude>-74.5383</longitude>
    <elevation>29.6</elevation>
    <locationLabels>
      <type>CNTRY</type>
      <id>FIPS:US</id>
      <displayName>United States</displayName>
    </locationLabels>
    <coverage>0.8927</coverage>
  </station>
  <station>
    <id>GHCND:US1NJBT0002</id>
    <displayName>WOODLAND TWP 2.7 NW, NJ US</displayName>
    <minDate>2008-02-10</minDate>
    <maxDate>2009-01-31</maxDate>
    <latitude>39.874</latitude>
    <longitude>-74.545</longitude>
    <elevation>42.4</elevation>
    <locationLabels>
      <type>CNTRY</type>
      <id>FIPS:US</id>
      <displayName>United States</displayName>
    </locationLabels>
    <coverage>1</coverage>
  </station>
  <station>
    <id>GHCND:USC00169838</id>
    <displayName>WOODLAND, LA US</displayName>
    <minDate>1941-08-01</minDate>
    <maxDate>1957-11-30</maxDate>
    <latitude>30.95</latitude>
    <longitude>-90.93333</longitude>
    <elevation>98.1</elevation>
    <locationLabels>
      <type>CNTRY</type>
      <id>FIPS:US</id>
      <displayName>United States</displayName>
    </locationLabels>
    <coverage>0.8815</coverage>
  </station>
  <station>
    <id>GHCND:USC00179891</id>
    <displayName>WOODLAND, ME US</displayName>
    <minDate>1917-07-01</minDate>
    <maxDate>2013-01-16</maxDate>
    <latitude>45.15694</latitude>
    <longitude>-67.40444</longitude>
    <elevation>42.7</elevation>
    <locationLabels>
      <type>CNTRY</type>
      <id>FIPS:US</id>
      <displayName>United States</displayName>
    </locationLabels>
    <coverage>0.928</coverage>
  </station>
  <station>
    <id>GHCND:USC00229777</id>
    <displayName>WOODLAND, MS US</displayName>
    <minDate>1909-05-01</minDate>
    <maxDate>1913-09-30</maxDate>
    <latitude>33.78333</latitude>
    <longitude>-89.03333</longitude>
    <elevation>100.9</elevation>
    <locationLabels>
      <type>CNTRY</type>
      <id>FIPS:US</id>
      <displayName>United States</displayName>
    </locationLabels>
    <coverage>0.8736</coverage>
  </station>
  <station>
    <id>GHCND:USC00309576</id>
    <displayName>WOODLANDS ARDSLEY, NY US</displayName>
    <minDate>1948-05-01</minDate>
    <maxDate>1951-09-30</maxDate>
    <latitude>41.01667</latitude>
    <longitude>-73.85</longitude>
    <elevation>42.7</elevation>
    <locationLabels>
      <type>CNTRY</type>
      <id>FIPS:US</id>
      <displayName>United States</displayName>
    </locationLabels>
    <coverage>0.9439</coverage>
  </station>
  <station>
    <id>GHCND:USC00149026</id>
    <displayName>WOODLAWN, KS US</displayName>
    <minDate>1966-10-01</minDate>
    <maxDate>2009-11-30</maxDate>
    <latitude>39.783</latitude>
    <longitude>-95.9017</longitude>
    <elevation>402</elevation>
    <locationLabels>
      <type>CNTRY</type>
      <id>FIPS:US</id>
      <displayName>United States</displayName>
    </locationLabels>
    <coverage>0.9637</coverage>
  </station>
  <station>
    <id>GHCND:USC00259420</id>
    <displayName>WOODLAWN, NE US</displayName>
    <minDate>1895-08-01</minDate>
    <maxDate>1909-12-31</maxDate>
    <latitude>40.880003</latitude>
    <longitude>-96.779185</longitude>
    <elevation>360.9</elevation>
    <locationLabels>
      <type>CNTRY</type>
      <id>FIPS:US</id>
      <displayName>United States</displayName>
    </locationLabels>
    <coverage>0.2716</coverage>
  </station>
  <station>
    <id>GHCND:US1ILDP0076</id>
    <displayName>WOODRIDGE 1.7 NNE, IL US</displayName>
    <minDate>2009-04-10</minDate>
    <maxDate>2012-12-02</maxDate>
    <latitude>41.7623</latitude>
    <longitude>-88.0347</longitude>
    <elevation>230.1</elevation>
    <locationLabels>
      <type>CNTRY</type>
      <id>FIPS:US</id>
      <displayName>United States</displayName>
    </locationLabels>
    <coverage>0.4981</coverage>
  </station>
  <station>
    <id>GHCND:US1NYSV0005</id>
    <displayName>WOODRIDGE 5.5 S, NY US</displayName>
    <minDate>2005-09-01</minDate>
    <maxDate>2013-01-16</maxDate>
    <latitude>41.6326</latitude>
    <longitude>-74.5604</longitude>
    <elevation>474.6</elevation>
    <locationLabels>
      <type>CNTRY</type>
      <id>FIPS:US</id>
      <displayName>United States</displayName>
    </locationLabels>
    <coverage>0.8646</coverage>
  </station>
  <station>
    <id>GHCND:USC00489713</id>
    <displayName>WOODROCK, WY US</displayName>
    <minDate>1911-02-01</minDate>
    <maxDate>1914-09-30</maxDate>
    <latitude>44.666667</latitude>
    <longitude>-107.45</longitude>
    <elevation>2590.8</elevation>
    <locationLabels>
      <type>CNTRY</type>
      <id>FIPS:US</id>
      <displayName>United States</displayName>
    </locationLabels>
    <coverage>0.7048</coverage>
  </station>
  <station>
    <id>GHCND:US1COWA0035</id>
    <displayName>WOODROW 12 E, CO US</displayName>
    <minDate>2003-04-16</minDate>
    <maxDate>2004-09-01</maxDate>
    <latitude>39.9968</latitude>
    <longitude>-103.3753</longitude>
    <elevation>1427.1</elevation>
    <locationLabels>
      <type>CNTRY</type>
      <id>FIPS:US</id>
      <displayName>United States</displayName>
    </locationLabels>
    <coverage>0.4515</coverage>
  </station>
  <station>
    <id>GHCND:US1TXLK0001</id>
    <displayName>WOODROW 2.8 W, TX US</displayName>
    <minDate>2007-09-27</minDate>
    <maxDate>2013-01-10</maxDate>
    <latitude>33.4543</latitude>
    <longitude>-101.8908</longitude>
    <elevation>983.9</elevation>
    <locationLabels>
      <type>CNTRY</type>
      <id>FIPS:US</id>
      <displayName>United States</displayName>
    </locationLabels>
    <coverage>0.3399</coverage>
  </station>
  <station>
    <id>GHCND:US1TXLK0002</id>
    <displayName>WOODROW 2.8 WNW, TX US</displayName>
    <minDate>2007-09-27</minDate>
    <maxDate>2012-12-31</maxDate>
    <latitude>33.4606</latitude>
    <longitude>-101.8883</longitude>
    <elevation>986.9</elevation>
    <locationLabels>
      <type>CNTRY</type>
      <id>FIPS:US</id>
      <displayName>United States</displayName>
    </locationLabels>
    <coverage>0.0712</coverage>
  </station>
  <station>
    <id>GHCND:US1COWA0055</id>
    <displayName>WOODROW 4.6 SE, CO US</displayName>
    <minDate>2006-05-06</minDate>
    <maxDate>2012-12-25</maxDate>
    <latitude>39.9392</latitude>
    <longitude>-103.512</longitude>
    <elevation>1385</elevation>
    <locationLabels>
      <type>CNTRY</type>
      <id>FIPS:US</id>
      <displayName>United States</displayName>
    </locationLabels>
    <coverage>0.9345</coverage>
  </station>
  <station>
    <id>GHCND:US1COMR0030</id>
    <displayName>WOODROW 6 NNE, CO US</displayName>
    <minDate>2000-05-01</minDate>
    <maxDate>2001-05-31</maxDate>
    <latitude>40.0744</latitude>
    <longitude>-103.5692</longitude>
    <elevation>1334.1</elevation>
    <locationLabels>
      <type>CNTRY</type>
      <id>FIPS:US</id>
      <displayName>United States</displayName>
    </locationLabels>
    <coverage>0.5404</coverage>
  </station>
  <station>
    <id>GHCND:USC00059213</id>
    <displayName>WOODROW 6 NNE, CO US</displayName>
    <minDate>1993-06-01</minDate>
    <maxDate>2013-01-16</maxDate>
    <latitude>40.075</latitude>
    <longitude>-103.5677</longitude>
    <elevation>1333.2</elevation>
    <locationLabels>
      <type>CNTRY</type>
      <id>FIPS:US</id>
      <displayName>United States</displayName>
    </locationLabels>
    <coverage>0.9987</coverage>
  </station>
  <station>
    <id>GHCND:USC00109885</id>
    <displayName>WOODROW, ID US</displayName>
    <minDate>1914-02-22</minDate>
    <maxDate>1916-12-31</maxDate>
    <latitude>44.033333</latitude>
    <longitude>-112</longitude>
    <elevation>1585</elevation>
    <locationLabels>
      <type>CNTRY</type>
      <id>FIPS:US</id>
      <displayName>United States</displayName>
    </locationLabels>
    <coverage>0.8985</coverage>
  </station>
  <station>
    <id>GHCND:US1AZNV0006</id>
    <displayName>WOODRUFF 2.1 S, AZ US</displayName>
    <minDate>2009-09-29</minDate>
    <maxDate>2012-10-15</maxDate>
    <latitude>34.7519</latitude>
    <longitude>-110.0392</longitude>
    <elevation>1598.1</elevation>
    <locationLabels>
      <type>CNTRY</type>
      <id>FIPS:US</id>
      <displayName>United States</displayName>
    </locationLabels>
    <coverage>0.9856</coverage>
  </station>
  <station>
    <id>GHCND:USC00149028</id>
    <displayName>WOODRUFF 3 WSW, KS US</displayName>
    <minDate>1965-03-17</minDate>
    <maxDate>2003-03-31</maxDate>
    <latitude>39.98528</latitude>
    <longitude>-99.47194</longitude>
    <elevation>614.5</elevation>
    <locationLabels>
      <type>CNTRY</type>
      <id>FIPS:US</id>
      <displayName>United States</displayName>
    </locationLabels>
    <coverage>0.069</coverage>
  </station>
  <station>
    <id>GHCND:US1SCSP0038</id>
    <displayName>WOODRUFF 3.0 ESE, SC US</displayName>
    <minDate>2012-04-20</minDate>
    <maxDate>2012-12-30</maxDate>
    <latitude>34.7308</latitude>
    <longitude>-81.981</longitude>
    <elevation>201.5</elevation>
    <locationLabels>
      <type>CNTRY</type>
      <id>FIPS:US</id>
      <displayName>United States</displayName>
    </locationLabels>
    <coverage>0.6353</coverage>
  </station>
  <station>
    <id>GHCND:USC00389412</id>
    <displayName>WOODRUFF 5 NW, SC US</displayName>
    <minDate>1970-05-01</minDate>
    <maxDate>2013-01-16</maxDate>
    <latitude>34.7636</latitude>
    <longitude>-82.1061</longitude>
    <elevation>225.6</elevation>
    <locationLabels>
      <type>CNTRY</type>
      <id>FIPS:US</id>
      <displayName>United States</displayName>
    </locationLabels>
    <coverage>0.9803</coverage>
  </station>
  <station>
    <id>GHCND:USC00429595</id>
    <displayName>WOODRUFF, UT US</displayName>
    <minDate>1897-01-01</minDate>
    <maxDate>2012-11-30</maxDate>
    <latitude>41.525</latitude>
    <longitude>-111.1494</longitude>
    <elevation>1924.8</elevation>
    <locationLabels>
      <type>CNTRY</type>
      <id>FIPS:US</id>
      <displayName>United States</displayName>
    </locationLabels>
    <coverage>0.9002</coverage>
  </station>
  <station>
    <id>GHCND:US1UTDV0006</id>
    <displayName>WOODS CROSS 0.5 SW, UT US</displayName>
    <minDate>2008-08-28</minDate>
    <maxDate>2011-09-23</maxDate>
    <latitude>40.8676</latitude>
    <longitude>-111.9181</longitude>
    <elevation>1296</elevation>
    <locationLabels>
      <type>CNTRY</type>
      <id>FIPS:US</id>
      <displayName>United States</displayName>
    </locationLabels>
    <coverage>0.9118</coverage>
  </station>
  <station>
    <id>GHCND:USC00199893</id>
    <displayName>WOODS HOLE 2 NE, MA US</displayName>
    <minDate>1964-06-01</minDate>
    <maxDate>1975-07-31</maxDate>
    <latitude>41.55</latitude>
    <longitude>-70.65</longitude>
    <elevation>12.2</elevation>
    <locationLabels>
      <type>CNTRY</type>
      <id>FIPS:US</id>
      <displayName>United States</displayName>
    </locationLabels>
    <coverage>0.9966</coverage>
  </station>
  <station>
    <id>GHCND:USC00199891</id>
    <displayName>WOODS HOLE GOLF CLUB, MA US</displayName>
    <minDate>2011-01-01</minDate>
    <maxDate>2013-01-16</maxDate>
    <latitude>41.53167</latitude>
    <longitude>-70.66167</longitude>
    <elevation>25.9</elevation>
    <locationLabels>
      <type>CNTRY</type>
      <id>FIPS:US</id>
      <displayName>United States</displayName>
    </locationLabels>
    <coverage>0.9023</coverage>
  </station>
  <station>
    <id>GHCND:US1TXRF0003</id>
    <displayName>WOODSBORO 3.6 S, TX US</displayName>
    <minDate>2007-09-19</minDate>
    <maxDate>2013-01-15</maxDate>
    <latitude>28.1864</latitude>
    <longitude>-97.3146</longitude>
    <elevation>11</elevation>
    <locationLabels>
      <type>CNTRY</type>
      <id>FIPS:US</id>
      <displayName>United States</displayName>
    </locationLabels>
    <coverage>0.0915</coverage>
  </station>
  <station>
    <id>GHCND:USC00419892</id>
    <displayName>WOODSBORO, TX US</displayName>
    <minDate>1916-08-01</minDate>
    <maxDate>1964-07-31</maxDate>
    <latitude>28.23333</latitude>
    <longitude>-97.33333</longitude>
    <elevation>14.9</elevation>
    <locationLabels>
      <type>CNTRY</type>
      <id>FIPS:US</id>
      <displayName>United States</displayName>
    </locationLabels>
    <coverage>0.9717</coverage>
  </station>
  <station>
    <id>GHCND:USC00339299</id>
    <displayName>WOODSFIELD 2 N, OH US</displayName>
    <minDate>2001-03-01</minDate>
    <maxDate>2013-01-16</maxDate>
    <latitude>39.7787</latitude>
    <longitude>-81.1009</longitude>
    <elevation>365.8</elevation>
    <locationLabels>
      <type>CNTRY</type>
      <id>FIPS:US</id>
      <displayName>United States</displayName>
    </locationLabels>
    <coverage>0.8364</coverage>
  </station>
  <station>
    <id>GHCND:USC00339298</id>
    <displayName>WOODSFIELD, OH US</displayName>
    <minDate>1948-08-01</minDate>
    <maxDate>1951-09-30</maxDate>
    <latitude>39.78333</latitude>
    <longitude>-81.1</longitude>
    <elevation>371.9</elevation>
    <locationLabels>
      <type>CNTRY</type>
      <id>FIPS:US</id>
      <displayName>United States</displayName>
    </locationLabels>
    <coverage>0.9602</coverage>
  </station>
  <station>
    <id>GHCND:USC00049792</id>
    <displayName>WOODSIDE FIRE STATION 1, CA US</displayName>
    <minDate>1973-03-01</minDate>
    <maxDate>2012-10-31</maxDate>
    <latitude>37.4286</latitude>
    <longitude>-122.2561</longitude>
    <elevation>115.8</elevation>
    <locationLabels>
      <type>CNTRY</type>
      <id>FIPS:US</id>
      <displayName>United States</displayName>
    </locationLabels>
    <coverage>0.8778</coverage>
  </station>
  <station>
    <id>GHCND:USC00429629</id>
    <displayName>WOODSIDE, UT US</displayName>
    <minDate>1911-04-01</minDate>
    <maxDate>1958-12-18</maxDate>
    <latitude>39.26667</latitude>
    <longitude>-110.35</longitude>
    <elevation>1414.9</elevation>
    <locationLabels>
      <type>CNTRY</type>
      <id>FIPS:US</id>
      <displayName>United States</displayName>
    </locationLabels>
    <coverage>0.22</coverage>
  </station>
  <station>
    <id>GHCND:USC00509891</id>
    <displayName>WOODSMOKE, AK US</displayName>
    <minDate>1996-12-01</minDate>
    <maxDate>2013-01-15</maxDate>
    <latitude>64.7802</latitude>
    <longitude>-147.275</longitude>
    <elevation>146.3</elevation>
    <locationLabels>
      <type>CNTRY</type>
      <id>FIPS:US</id>
      <displayName>United States</displayName>
    </locationLabels>
    <coverage>0.8392</coverage>
  </station>
  <station>
    <id>GHCND:USC00419893</id>
    <displayName>WOODSON, TX US</displayName>
    <minDate>1948-06-01</minDate>
    <maxDate>2013-01-10</maxDate>
    <latitude>33.0177</latitude>
    <longitude>-99.0538</longitude>
    <elevation>385</elevation>
    <locationLabels>
      <type>CNTRY</type>
      <id>FIPS:US</id>
      <displayName>United States</displayName>
    </locationLabels>
    <coverage>0.3828</coverage>
  </station>
  <station>
    <id>GHCND:US1ILMCH029</id>
    <displayName>WOODSTOCK 0.7 SW, IL US</displayName>
    <minDate>2008-02-05</minDate>
    <maxDate>2013-01-13</maxDate>
    <latitude>42.3053</latitude>
    <longitude>-88.4473</longitude>
    <elevation>295</elevation>
    <locationLabels>
      <type>CNTRY</type>
      <id>FIPS:US</id>
      <displayName>United States</displayName>
    </locationLabels>
    <coverage>0.6416</coverage>
  </station>
  <station>
    <id>GHCND:US1ILMCH047</id>
    <displayName>WOODSTOCK 0.8 NW, IL US</displayName>
    <minDate>2010-09-03</minDate>
    <maxDate>2012-01-02</maxDate>
    <latitude>42.3194</latitude>
    <longitude>-88.447</longitude>
    <elevation>276.1</elevation>
    <locationLabels>
      <type>CNTRY</type>
      <id>FIPS:US</id>
      <displayName>United States</displayName>
    </locationLabels>
    <coverage>0.3326</coverage>
  </station>
  <station>
    <id>GHCND:US1ILMCH052</id>
    <displayName>WOODSTOCK 0.8 SSW, IL US</displayName>
    <minDate>2011-02-14</minDate>
    <maxDate>2012-10-25</maxDate>
    <latitude>42.3003</latitude>
    <longitude>-88.4433</longitude>
    <elevation>289</elevation>
    <locationLabels>
      <type>CNTRY</type>
      <id>FIPS:US</id>
      <displayName>United States</displayName>
    </locationLabels>
    <coverage>0.1613</coverage>
  </station>
  <station>
    <id>GHCND:US1NYUL0002</id>
    <displayName>WOODSTOCK 1.4 SSE, NY US</displayName>
    <minDate>2007-11-14</minDate>
    <maxDate>2013-01-03</maxDate>
    <latitude>42.0204</latitude>
    <longitude>-74.0977</longitude>
    <elevation>157</elevation>
    <locationLabels>
      <type>CNTRY</type>
      <id>FIPS:US</id>
      <displayName>United States</displayName>
    </locationLabels>
    <coverage>0.2652</coverage>
  </station>
  <station>
    <id>GHCND:USC00449263</id>
    <displayName>WOODSTOCK 2 NE, VA US</displayName>
    <minDate>1889-09-06</minDate>
    <maxDate>2013-01-16</maxDate>
    <latitude>38.8969</latitude>
    <longitude>-78.4679</longitude>
    <elevation>205.7</elevation>
    <locationLabels>
      <type>CNTRY</type>
      <id>FIPS:US</id>
      <displayName>United States</displayName>
    </locationLabels>
    <coverage>0.9347</coverage>
  </station>
  <station>
    <id>GHCND:US1ALBB0005</id>
    <displayName>WOODSTOCK 2.2 SW, AL US</displayName>
    <minDate>2009-10-15</minDate>
    <maxDate>2012-10-02</maxDate>
    <latitude>33.1772</latitude>
    <longitude>-87.1652</longitude>
    <elevation>165.8</elevation>
    <locationLabels>
      <type>CNTRY</type>
      <id>FIPS:US</id>
      <displayName>United States</displayName>
    </locationLabels>
    <coverage>0.1107</coverage>
  </station>
  <station>
    <id>GHCND:US1GACE0020</id>
    <displayName>WOODSTOCK 2.7 SW, GA US</displayName>
    <minDate>2010-04-22</minDate>
    <maxDate>2013-01-16</maxDate>
    <latitude>34.0787</latitude>
    <longitude>-84.5521</longitude>
    <elevation>304.2</elevation>
    <locationLabels>
      <type>CNTRY</type>
      <id>FIPS:US</id>
      <displayName>United States</displayName>
    </locationLabels>
    <coverage>0.7812</coverage>
  </station>
  <station>
    <id>GHCND:US1GACE0019</id>
    <displayName>WOODSTOCK 3.3 NNE, GA US</displayName>
    <minDate>2010-03-26</minDate>
    <maxDate>2012-10-16</maxDate>
    <latitude>34.1475</latitude>
    <longitude>-84.4992</longitude>
    <elevation>323.1</elevation>
    <locationLabels>
      <type>CNTRY</type>
      <id>FIPS:US</id>
      <displayName>United States</displayName>
    </locationLabels>
    <coverage>0.6207</coverage>
  </station>
  <station>
    <id>GHCND:US1ILMCH033</id>
    <displayName>WOODSTOCK 3.8 SW, IL US</displayName>
    <minDate>2008-06-10</minDate>
    <maxDate>2012-12-09</maxDate>
    <latitude>42.2755</latitude>
    <longitude>-88.495</longitude>
    <elevation>264</elevation>
    <locationLabels>
      <type>CNTRY</type>
      <id>FIPS:US</id>
      <displayName>United States</displayName>
    </locationLabels>
    <coverage>0.2901</coverage>
  </station>
  <station>
    <id>GHCND:USC00119480</id>
    <displayName>WOODSTOCK 5 NW, IL US</displayName>
    <minDate>2003-07-01</minDate>
    <maxDate>2013-01-16</maxDate>
    <latitude>42.3627</latitude>
    <longitude>-88.5313</longitude>
    <elevation>282.9</elevation>
    <locationLabels>
      <type>CNTRY</type>
      <id>FIPS:US</id>
      <displayName>United States</displayName>
    </locationLabels>
    <coverage>0.9885</coverage>
  </station>
  <station>
    <id>GHCND:US1GACE0005</id>
    <displayName>WOODSTOCK 5.3 E, GA US</displayName>
    <minDate>2008-05-27</minDate>
    <maxDate>2012-10-18</maxDate>
    <latitude>34.1132</latitude>
    <longitude>-84.422</longitude>
    <elevation>280.4</elevation>
    <locationLabels>
      <type>CNTRY</type>
      <id>FIPS:US</id>
      <displayName>United States</displayName>
    </locationLabels>
    <coverage>0.8095</coverage>
  </station>
  <station>
    <id>GHCND:US1CTWN0001</id>
    <displayName>WOODSTOCK VALLEY 1.4 SW, CT US</displayName>
    <minDate>2009-06-25</minDate>
    <maxDate>2012-07-30</maxDate>
    <latitude>41.9252</latitude>
    <longitude>-72.0924</longitude>
    <elevation>213.1</elevation>
    <locationLabels>
      <type>CNTRY</type>
      <id>FIPS:US</id>
      <displayName>United States</displayName>
    </locationLabels>
    <coverage>0.8843</coverage>
  </station>
  <station>
    <id>GHCND:USC00099524</id>
    <displayName>WOODSTOCK, GA US</displayName>
    <minDate>1937-06-01</minDate>
    <maxDate>2002-05-31</maxDate>
    <latitude>34.10972</latitude>
    <longitude>-84.515</longitude>
    <elevation>320.6</elevation>
    <locationLabels>
      <type>CNTRY</type>
      <id>FIPS:US</id>
      <displayName>United States</displayName>
    </locationLabels>
    <coverage>0.9849</coverage>
  </station>
  <station>
    <id>GHCND:USC00189750</id>
    <displayName>WOODSTOCK, MD US</displayName>
    <minDate>1893-01-01</minDate>
    <maxDate>1999-10-31</maxDate>
    <latitude>39.33333</latitude>
    <longitude>-76.86667</longitude>
    <elevation>140.2</elevation>
    <locationLabels>
      <type>CNTRY</type>
      <id>FIPS:US</id>
      <displayName>United States</displayName>
    </locationLabels>
    <coverage>0.9728</coverage>
  </station>
  <station>
    <id>GHCND:USC00279940</id>
    <displayName>WOODSTOCK, NH US</displayName>
    <minDate>1942-08-01</minDate>
    <maxDate>1980-12-31</maxDate>
    <latitude>43.98333</latitude>
    <longitude>-71.68333</longitude>
    <elevation>220.1</elevation>
    <locationLabels>
      <type>CNTRY</type>
      <id>FIPS:US</id>
      <displayName>United States</displayName>
    </locationLabels>
    <coverage>0.9964</coverage>
  </station>
  <station>
    <id>GHCND:USC00439984</id>
    <displayName>WOODSTOCK, VT US</displayName>
    <minDate>1892-10-01</minDate>
    <maxDate>2013-01-16</maxDate>
    <latitude>43.6303</latitude>
    <longitude>-72.5072</longitude>
    <elevation>182.9</elevation>
    <locationLabels>
      <type>CNTRY</type>
      <id>FIPS:US</id>
      <displayName>United States</displayName>
    </locationLabels>
    <coverage>0.8816</coverage>
  </station>
</stationCollection>
