<?xml version="1.0" encoding="UTF-8" standalone="yes"?>
<stationCollection totalCount="46020" pageCount="461" pageSize="100" page="243">
  <station>
    <id>GHCND:US1MIGN0007</id>
    <displayName>LINDEN 0.8 NNW, MI US</displayName>
    <minDate>2008-09-07</minDate>
    <maxDate>2013-01-16</maxDate>
    <latitude>42.8305</latitude>
    <longitude>-83.7852</longitude>
    <elevation>267.3</elevation>
    <locationLabels>
      <type>CNTRY</type>
      <id>FIPS:US</id>
      <displayName>United States</displayName>
    </locationLabels>
    <coverage>0.8154</coverage>
  </station>
  <station>
    <id>GHCND:USC00125072</id>
    <displayName>LINDEN 2 S, IN US</displayName>
    <minDate>2011-01-01</minDate>
    <maxDate>2012-11-23</maxDate>
    <latitude>40.1586</latitude>
    <longitude>-86.905</longitude>
    <elevation>249.9</elevation>
    <locationLabels>
      <type>CNTRY</type>
      <id>FIPS:US</id>
      <displayName>United States</displayName>
    </locationLabels>
    <coverage>0.7648</coverage>
  </station>
  <station>
    <id>GHCND:US1IADL0014</id>
    <displayName>LINDEN 4.0 N, IA US</displayName>
    <minDate>2007-09-22</minDate>
    <maxDate>2012-12-19</maxDate>
    <latitude>41.7032</latitude>
    <longitude>-94.2715</longitude>
    <elevation>317</elevation>
    <locationLabels>
      <type>CNTRY</type>
      <id>FIPS:US</id>
      <displayName>United States</displayName>
    </locationLabels>
    <coverage>0.5715</coverage>
  </station>
  <station>
    <id>GHCND:US1CASJ0001</id>
    <displayName>LINDEN 5.8 ENE, CA US</displayName>
    <minDate>2008-10-02</minDate>
    <maxDate>2013-01-16</maxDate>
    <latitude>38.0627</latitude>
    <longitude>-121.0079</longitude>
    <elevation>44.5</elevation>
    <locationLabels>
      <type>CNTRY</type>
      <id>FIPS:US</id>
      <displayName>United States</displayName>
    </locationLabels>
    <coverage>0.9904</coverage>
  </station>
  <station>
    <id>GHCND:US1TNPY0004</id>
    <displayName>LINDEN 7.9 NNW, TN US</displayName>
    <minDate>2008-01-17</minDate>
    <maxDate>2013-01-16</maxDate>
    <latitude>35.7214</latitude>
    <longitude>-87.8807</longitude>
    <elevation>165.5</elevation>
    <locationLabels>
      <type>CNTRY</type>
      <id>FIPS:US</id>
      <displayName>United States</displayName>
    </locationLabels>
    <coverage>0.9847</coverage>
  </station>
  <station>
    <id>GHCND:USC00334581</id>
    <displayName>LINDEN HEIGHTS, OH US</displayName>
    <minDate>1905-01-01</minDate>
    <maxDate>1936-06-30</maxDate>
    <latitude>39.93333</latitude>
    <longitude>-83.35</longitude>
    <elevation>253</elevation>
    <locationLabels>
      <type>CNTRY</type>
      <id>FIPS:US</id>
      <displayName>United States</displayName>
    </locationLabels>
    <coverage>0.5608</coverage>
  </station>
  <station>
    <id>GHCND:USR0000TLND</id>
    <displayName>LINDEN TEXAS, TX US</displayName>
    <minDate>2003-01-06</minDate>
    <maxDate>2012-08-31</maxDate>
    <latitude>33</latitude>
    <longitude>-94.8</longitude>
    <elevation>152.4</elevation>
    <locationLabels>
      <type>CNTRY</type>
      <id>FIPS:US</id>
      <displayName>United States</displayName>
    </locationLabels>
    <coverage>0.9334</coverage>
  </station>
  <station>
    <id>GHCND:USC00405278</id>
    <displayName>LINDEN WATER PLANT, TN US</displayName>
    <minDate>1962-09-01</minDate>
    <maxDate>2012-12-31</maxDate>
    <latitude>35.6047</latitude>
    <longitude>-87.8408</longitude>
    <elevation>153.9</elevation>
    <locationLabels>
      <type>CNTRY</type>
      <id>FIPS:US</id>
      <displayName>United States</displayName>
    </locationLabels>
    <coverage>0.9494</coverage>
  </station>
  <station>
    <id>GHCND:USC00204793</id>
    <displayName>LINDEN WWTP, MI US</displayName>
    <minDate>2002-01-01</minDate>
    <maxDate>2013-01-16</maxDate>
    <latitude>42.8133</latitude>
    <longitude>-83.8038</longitude>
    <elevation>263</elevation>
    <locationLabels>
      <type>CNTRY</type>
      <id>FIPS:US</id>
      <displayName>United States</displayName>
    </locationLabels>
    <coverage>0.8974</coverage>
  </station>
  <station>
    <id>GHCND:USC00304767</id>
    <displayName>LINDEN, NY US</displayName>
    <minDate>1912-12-01</minDate>
    <maxDate>1965-04-30</maxDate>
    <latitude>42.88333</latitude>
    <longitude>-78.16667</longitude>
    <elevation>342</elevation>
    <locationLabels>
      <type>CNTRY</type>
      <id>FIPS:US</id>
      <displayName>United States</displayName>
    </locationLabels>
    <coverage>0.6405</coverage>
  </station>
  <station>
    <id>GHCND:USC00405273</id>
    <displayName>LINDEN, TN US</displayName>
    <minDate>1941-06-22</minDate>
    <maxDate>1951-02-28</maxDate>
    <latitude>35.61667</latitude>
    <longitude>-87.83333</longitude>
    <elevation>203.9</elevation>
    <locationLabels>
      <type>CNTRY</type>
      <id>FIPS:US</id>
      <displayName>United States</displayName>
    </locationLabels>
    <coverage>0.7494</coverage>
  </station>
  <station>
    <id>GHCND:USC00415229</id>
    <displayName>LINDEN, TX US</displayName>
    <minDate>1940-06-14</minDate>
    <maxDate>2013-01-11</maxDate>
    <latitude>33.0161</latitude>
    <longitude>-94.3674</longitude>
    <elevation>126.5</elevation>
    <locationLabels>
      <type>CNTRY</type>
      <id>FIPS:US</id>
      <displayName>United States</displayName>
    </locationLabels>
    <coverage>0.9077</coverage>
  </station>
  <station>
    <id>GHCND:US1ILOG0011</id>
    <displayName>LINDENWOOD 0.5 N, IL US</displayName>
    <minDate>2010-06-07</minDate>
    <maxDate>2011-10-08</maxDate>
    <latitude>42.0601</latitude>
    <longitude>-89.0312</longitude>
    <elevation>232.6</elevation>
    <locationLabels>
      <type>CNTRY</type>
      <id>FIPS:US</id>
      <displayName>United States</displayName>
    </locationLabels>
    <coverage>0.2229</coverage>
  </station>
  <station>
    <id>GHCND:USC00115092</id>
    <displayName>LINDENWOOD, IL US</displayName>
    <minDate>1997-08-01</minDate>
    <maxDate>2004-10-31</maxDate>
    <latitude>42.05778</latitude>
    <longitude>-89.02972</longitude>
    <elevation>240.8</elevation>
    <locationLabels>
      <type>CNTRY</type>
      <id>FIPS:US</id>
      <displayName>United States</displayName>
    </locationLabels>
    <coverage>1</coverage>
  </station>
  <station>
    <id>GHCND:US1FLMD0003</id>
    <displayName>LINDGREN ACRES 0.5 WSW, FL US</displayName>
    <minDate>2007-09-28</minDate>
    <maxDate>2013-01-16</maxDate>
    <latitude>25.6682</latitude>
    <longitude>-80.4087</longitude>
    <elevation>7.9</elevation>
    <locationLabels>
      <type>CNTRY</type>
      <id>FIPS:US</id>
      <displayName>United States</displayName>
    </locationLabels>
    <coverage>0.8947</coverage>
  </station>
  <station>
    <id>GHCND:USC00304772</id>
    <displayName>LINDLEY 2 N, NY US</displayName>
    <minDate>1953-08-01</minDate>
    <maxDate>2012-03-18</maxDate>
    <latitude>42.0636</latitude>
    <longitude>-77.1466</longitude>
    <elevation>317</elevation>
    <locationLabels>
      <type>CNTRY</type>
      <id>FIPS:US</id>
      <displayName>United States</displayName>
    </locationLabels>
    <coverage>0.9905</coverage>
  </station>
  <station>
    <id>GHCND:US1COWA0008</id>
    <displayName>LINDON 4 S, CO US</displayName>
    <minDate>2000-05-01</minDate>
    <maxDate>2000-09-30</maxDate>
    <latitude>39.675</latitude>
    <longitude>-103.4153</longitude>
    <elevation>1531</elevation>
    <locationLabels>
      <type>CNTRY</type>
      <id>FIPS:US</id>
      <displayName>United States</displayName>
    </locationLabels>
    <coverage>1</coverage>
  </station>
  <station>
    <id>GHCND:US1COWA0026</id>
    <displayName>LINDON 5 S, CO US</displayName>
    <minDate>2003-03-28</minDate>
    <maxDate>2012-10-25</maxDate>
    <latitude>39.6614</latitude>
    <longitude>-103.4299</longitude>
    <elevation>1542.9</elevation>
    <locationLabels>
      <type>CNTRY</type>
      <id>FIPS:US</id>
      <displayName>United States</displayName>
    </locationLabels>
    <coverage>0.62</coverage>
  </station>
  <station>
    <id>GHCND:USC00055025</id>
    <displayName>LINDON 5 WNW, CO US</displayName>
    <minDate>1988-12-01</minDate>
    <maxDate>2013-01-16</maxDate>
    <latitude>39.7555</latitude>
    <longitude>-103.4986</longitude>
    <elevation>1478.6</elevation>
    <locationLabels>
      <type>CNTRY</type>
      <id>FIPS:US</id>
      <displayName>United States</displayName>
    </locationLabels>
    <coverage>0.9898</coverage>
  </station>
  <station>
    <id>GHCND:USC00294960</id>
    <displayName>LINDRITH 1 WSW, NM US</displayName>
    <minDate>1971-08-01</minDate>
    <maxDate>2012-09-30</maxDate>
    <latitude>36.3041</latitude>
    <longitude>-107.0541</longitude>
    <elevation>2200.7</elevation>
    <locationLabels>
      <type>CNTRY</type>
      <id>FIPS:US</id>
      <displayName>United States</displayName>
    </locationLabels>
    <coverage>0.9275</coverage>
  </station>
  <station>
    <id>GHCND:USC00294958</id>
    <displayName>LINDRITH, NM US</displayName>
    <minDate>1921-01-01</minDate>
    <maxDate>1931-11-30</maxDate>
    <latitude>36.3</latitude>
    <longitude>-107.033333</longitude>
    <elevation>2225</elevation>
    <locationLabels>
      <type>CNTRY</type>
      <id>FIPS:US</id>
      <displayName>United States</displayName>
    </locationLabels>
    <coverage>0.9258</coverage>
  </station>
  <station>
    <id>GHCND:US1CATL0002</id>
    <displayName>LINDSAY 0.5 N, CA US</displayName>
    <minDate>2008-10-01</minDate>
    <maxDate>2012-12-02</maxDate>
    <latitude>36.2133</latitude>
    <longitude>-119.0885</longitude>
    <elevation>115.2</elevation>
    <locationLabels>
      <type>CNTRY</type>
      <id>FIPS:US</id>
      <displayName>United States</displayName>
    </locationLabels>
    <coverage>0.9783</coverage>
  </station>
  <station>
    <id>GHCND:USS0004B02S</id>
    <displayName>LINDSAY 1, MT US</displayName>
    <minDate>1990-10-01</minDate>
    <maxDate>2011-04-16</maxDate>
    <latitude>47.2</latitude>
    <longitude>-105.1833</longitude>
    <elevation>865.6</elevation>
    <locationLabels>
      <type>CNTRY</type>
      <id>FIPS:US</id>
      <displayName>United States</displayName>
    </locationLabels>
    <coverage>0.7086</coverage>
  </station>
  <station>
    <id>GHCND:USC00345216</id>
    <displayName>LINDSAY 2 W, OK US</displayName>
    <minDate>1938-04-01</minDate>
    <maxDate>2010-03-31</maxDate>
    <latitude>34.82611</latitude>
    <longitude>-97.63861</longitude>
    <elevation>298.7</elevation>
    <locationLabels>
      <type>CNTRY</type>
      <id>FIPS:US</id>
      <displayName>United States</displayName>
    </locationLabels>
    <coverage>0.9126</coverage>
  </station>
  <station>
    <id>GHCND:USC00044957</id>
    <displayName>LINDSAY, CA US</displayName>
    <minDate>1913-12-01</minDate>
    <maxDate>2013-01-16</maxDate>
    <latitude>36.20333</latitude>
    <longitude>-119.05444</longitude>
    <elevation>132.6</elevation>
    <locationLabels>
      <type>CNTRY</type>
      <id>FIPS:US</id>
      <displayName>United States</displayName>
    </locationLabels>
    <coverage>0.9827</coverage>
  </station>
  <station>
    <id>GHCND:USC00245045</id>
    <displayName>LINDSAY, MT US</displayName>
    <minDate>1915-06-01</minDate>
    <maxDate>2012-10-31</maxDate>
    <latitude>47.2253</latitude>
    <longitude>-105.1523</longitude>
    <elevation>819.9</elevation>
    <locationLabels>
      <type>CNTRY</type>
      <id>FIPS:US</id>
      <displayName>United States</displayName>
    </locationLabels>
    <coverage>0.6603</coverage>
  </station>
  <station>
    <id>GHCND:USC00254823</id>
    <displayName>LINDSAY, NE US</displayName>
    <minDate>1996-04-01</minDate>
    <maxDate>2000-11-30</maxDate>
    <latitude>41.7</latitude>
    <longitude>-97.69389</longitude>
    <elevation>515.1</elevation>
    <locationLabels>
      <type>CNTRY</type>
      <id>FIPS:US</id>
      <displayName>United States</displayName>
    </locationLabels>
    <coverage>0.9812</coverage>
  </station>
  <station>
    <id>GHCND:US1KSMP0008</id>
    <displayName>LINDSBORG 0.3 E, KS US</displayName>
    <minDate>2008-06-26</minDate>
    <maxDate>2011-12-08</maxDate>
    <latitude>38.5752</latitude>
    <longitude>-97.6691</longitude>
    <elevation>405.4</elevation>
    <locationLabels>
      <type>CNTRY</type>
      <id>FIPS:US</id>
      <displayName>United States</displayName>
    </locationLabels>
    <coverage>0.9334</coverage>
  </station>
  <station>
    <id>GHCND:USC00144739</id>
    <displayName>LINDSBORG 3 NE, KS US</displayName>
    <minDate>1951-07-01</minDate>
    <maxDate>1959-04-30</maxDate>
    <latitude>38.6</latitude>
    <longitude>-97.63333</longitude>
    <elevation>399.9</elevation>
    <locationLabels>
      <type>CNTRY</type>
      <id>FIPS:US</id>
      <displayName>United States</displayName>
    </locationLabels>
    <coverage>0.9888</coverage>
  </station>
  <station>
    <id>GHCND:US1KSMP0009</id>
    <displayName>LINDSBORG 3.7 SSW, KS US</displayName>
    <minDate>2009-03-25</minDate>
    <maxDate>2013-01-11</maxDate>
    <latitude>38.525</latitude>
    <longitude>-97.7035</longitude>
    <elevation>411.5</elevation>
    <locationLabels>
      <type>CNTRY</type>
      <id>FIPS:US</id>
      <displayName>United States</displayName>
    </locationLabels>
    <coverage>0.4996</coverage>
  </station>
  <station>
    <id>GHCND:US1KSMP0004</id>
    <displayName>LINDSBORG 4.7 WSW, KS US</displayName>
    <minDate>2008-03-31</minDate>
    <maxDate>2010-05-13</maxDate>
    <latitude>38.5392</latitude>
    <longitude>-97.7503</longitude>
    <elevation>414.5</elevation>
    <locationLabels>
      <type>CNTRY</type>
      <id>FIPS:US</id>
      <displayName>United States</displayName>
    </locationLabels>
    <coverage>0.2984</coverage>
  </station>
  <station>
    <id>GHCND:US1KSMP0005</id>
    <displayName>LINDSBORG 5.6 W, KS US</displayName>
    <minDate>2008-04-01</minDate>
    <maxDate>2013-01-11</maxDate>
    <latitude>38.5813</latitude>
    <longitude>-97.7776</longitude>
    <elevation>440.4</elevation>
    <locationLabels>
      <type>CNTRY</type>
      <id>FIPS:US</id>
      <displayName>United States</displayName>
    </locationLabels>
    <coverage>0.9691</coverage>
  </station>
  <station>
    <id>GHCND:USC00144735</id>
    <displayName>LINDSBORG, KS US</displayName>
    <minDate>1905-01-01</minDate>
    <maxDate>2013-01-14</maxDate>
    <latitude>38.5866</latitude>
    <longitude>-97.6083</longitude>
    <elevation>402</elevation>
    <locationLabels>
      <type>CNTRY</type>
      <id>FIPS:US</id>
      <displayName>United States</displayName>
    </locationLabels>
    <coverage>0.8906</coverage>
  </station>
  <station>
    <id>GHCND:US1OHSD0002</id>
    <displayName>LINDSEY 0.1 E, OH US</displayName>
    <minDate>2009-02-07</minDate>
    <maxDate>2013-01-16</maxDate>
    <latitude>41.4204</latitude>
    <longitude>-83.218</longitude>
    <elevation>188.1</elevation>
    <locationLabels>
      <type>CNTRY</type>
      <id>FIPS:US</id>
      <displayName>United States</displayName>
    </locationLabels>
    <coverage>0.9861</coverage>
  </station>
  <station>
    <id>GHCND:USC00465284</id>
    <displayName>LINDSIDE, WV US</displayName>
    <minDate>1940-04-08</minDate>
    <maxDate>1957-07-31</maxDate>
    <latitude>37.4797</latitude>
    <longitude>-80.6555</longitude>
    <elevation>605</elevation>
    <locationLabels>
      <type>CNTRY</type>
      <id>FIPS:US</id>
      <displayName>United States</displayName>
    </locationLabels>
    <coverage>0.95</coverage>
  </station>
  <station>
    <id>GHCND:US1MNCG0009</id>
    <displayName>LINDSTROM 5.9 SSE, MN US</displayName>
    <minDate>2011-04-04</minDate>
    <maxDate>2011-09-17</maxDate>
    <latitude>45.3085</latitude>
    <longitude>-92.8004</longitude>
    <elevation>279.2</elevation>
    <locationLabels>
      <type>CNTRY</type>
      <id>FIPS:US</id>
      <displayName>United States</displayName>
    </locationLabels>
    <coverage>0.7066</coverage>
  </station>
  <station>
    <id>GHCND:USR0000ILIN</id>
    <displayName>LINES CREEK IDAHO, ID US</displayName>
    <minDate>2001-10-04</minDate>
    <maxDate>2012-08-31</maxDate>
    <latitude>47.1083</latitude>
    <longitude>-116.2278</longitude>
    <elevation>1560.6</elevation>
    <locationLabels>
      <type>CNTRY</type>
      <id>FIPS:US</id>
      <displayName>United States</displayName>
    </locationLabels>
    <coverage>0.7977</coverage>
  </station>
  <station>
    <id>GHCND:USC00365050</id>
    <displayName>LINESVILLE 1 S, PA US</displayName>
    <minDate>1920-02-19</minDate>
    <maxDate>2013-01-15</maxDate>
    <latitude>41.64583</latitude>
    <longitude>-80.425</longitude>
    <elevation>313.9</elevation>
    <locationLabels>
      <type>CNTRY</type>
      <id>FIPS:US</id>
      <displayName>United States</displayName>
    </locationLabels>
    <coverage>0.7149</coverage>
  </station>
  <station>
    <id>GHCND:USC00365046</id>
    <displayName>LINESVILLE, PA US</displayName>
    <minDate>1914-01-03</minDate>
    <maxDate>1940-11-30</maxDate>
    <latitude>41.65</latitude>
    <longitude>-80.433333</longitude>
    <elevation>315.5</elevation>
    <locationLabels>
      <type>CNTRY</type>
      <id>FIPS:US</id>
      <displayName>United States</displayName>
    </locationLabels>
    <coverage>0.8644</coverage>
  </station>
  <station>
    <id>GHCND:USC00505506</id>
    <displayName>LINGER LONGER, AK US</displayName>
    <minDate>1959-09-01</minDate>
    <maxDate>1982-04-30</maxDate>
    <latitude>59.43333</latitude>
    <longitude>-136.28333</longitude>
    <elevation>213.4</elevation>
    <locationLabels>
      <type>CNTRY</type>
      <id>FIPS:US</id>
      <displayName>United States</displayName>
    </locationLabels>
    <coverage>0.8327</coverage>
  </station>
  <station>
    <id>GHCND:USC00485612</id>
    <displayName>LINGLE 2 WSW, WY US</displayName>
    <minDate>1952-04-01</minDate>
    <maxDate>2013-01-16</maxDate>
    <latitude>42.1298</latitude>
    <longitude>-104.3899</longitude>
    <elevation>1267.4</elevation>
    <locationLabels>
      <type>CNTRY</type>
      <id>FIPS:US</id>
      <displayName>United States</displayName>
    </locationLabels>
    <coverage>0.5511</coverage>
  </station>
  <station>
    <id>GHCND:US1WYGS0013</id>
    <displayName>LINGLE 6.0 WNW, WY US</displayName>
    <minDate>2005-04-26</minDate>
    <maxDate>2011-12-01</maxDate>
    <latitude>42.1748</latitude>
    <longitude>-104.4537</longitude>
    <elevation>1278</elevation>
    <locationLabels>
      <type>CNTRY</type>
      <id>FIPS:US</id>
      <displayName>United States</displayName>
    </locationLabels>
    <coverage>0.4683</coverage>
  </station>
  <station>
    <id>GHCND:US1MOFSA151</id>
    <displayName>LINN 0.8 SE, MO US</displayName>
    <minDate>2006-05-01</minDate>
    <maxDate>2013-01-14</maxDate>
    <latitude>38.4729</latitude>
    <longitude>-91.8335</longitude>
    <elevation>276.1</elevation>
    <locationLabels>
      <type>CNTRY</type>
      <id>FIPS:US</id>
      <displayName>United States</displayName>
    </locationLabels>
    <coverage>0.9967</coverage>
  </station>
  <station>
    <id>GHCND:US1WVLW0001</id>
    <displayName>LINN 2.6 SE, WV US</displayName>
    <minDate>2009-04-23</minDate>
    <maxDate>2009-10-02</maxDate>
    <latitude>38.989</latitude>
    <longitude>-80.6772</longitude>
    <elevation>285.3</elevation>
    <locationLabels>
      <type>CNTRY</type>
      <id>FIPS:US</id>
      <displayName>United States</displayName>
    </locationLabels>
    <coverage>0.9939</coverage>
  </station>
  <station>
    <id>GHCND:US1MOFSA029</id>
    <displayName>LINN CREEK 9.4 SE, MO US</displayName>
    <minDate>2006-05-01</minDate>
    <maxDate>2013-01-14</maxDate>
    <latitude>37.9559</latitude>
    <longitude>-92.5711</longitude>
    <elevation>309.1</elevation>
    <locationLabels>
      <type>CNTRY</type>
      <id>FIPS:US</id>
      <displayName>United States</displayName>
    </locationLabels>
    <coverage>0.9955</coverage>
  </station>
  <station>
    <id>GHCND:USR0000TLIN</id>
    <displayName>LINN SAN MANUEL TEXAS, TX US</displayName>
    <minDate>2002-11-15</minDate>
    <maxDate>2012-08-31</maxDate>
    <latitude>26.535</latitude>
    <longitude>-98.0858</longitude>
    <elevation>4.6</elevation>
    <locationLabels>
      <type>CNTRY</type>
      <id>FIPS:US</id>
      <displayName>United States</displayName>
    </locationLabels>
    <coverage>0.9312</coverage>
  </station>
  <station>
    <id>GHCND:USC00234982</id>
    <displayName>LINNEUS 3 SE, MO US</displayName>
    <minDate>2005-08-01</minDate>
    <maxDate>2013-01-16</maxDate>
    <latitude>39.857</latitude>
    <longitude>-93.1497</longitude>
    <elevation>248.1</elevation>
    <locationLabels>
      <type>CNTRY</type>
      <id>FIPS:US</id>
      <displayName>United States</displayName>
    </locationLabels>
    <coverage>0.9982</coverage>
  </station>
  <station>
    <id>GHCND:USC00234978</id>
    <displayName>LINNEUS, MO US</displayName>
    <minDate>1908-01-01</minDate>
    <maxDate>2013-01-16</maxDate>
    <latitude>39.88333</latitude>
    <longitude>-93.18333</longitude>
    <elevation>255.1</elevation>
    <locationLabels>
      <type>CNTRY</type>
      <id>FIPS:US</id>
      <displayName>United States</displayName>
    </locationLabels>
    <coverage>0.3703</coverage>
  </station>
  <station>
    <id>GHCND:US1MNAA0015</id>
    <displayName>LINO LAKES 2.5 SW, MN US</displayName>
    <minDate>2011-04-01</minDate>
    <maxDate>2012-10-31</maxDate>
    <latitude>45.1426</latitude>
    <longitude>-93.1195</longitude>
    <elevation>273.7</elevation>
    <locationLabels>
      <type>CNTRY</type>
      <id>FIPS:US</id>
      <displayName>United States</displayName>
    </locationLabels>
    <coverage>0.6655</coverage>
  </station>
  <station>
    <id>GHCND:US1MDAA0035</id>
    <displayName>LINTHICUM 0.4 ENE, MD US</displayName>
    <minDate>2009-04-20</minDate>
    <maxDate>2013-01-16</maxDate>
    <latitude>39.2082</latitude>
    <longitude>-76.6586</longitude>
    <elevation>53</elevation>
    <locationLabels>
      <type>CNTRY</type>
      <id>FIPS:US</id>
      <displayName>United States</displayName>
    </locationLabels>
    <coverage>0.3509</coverage>
  </station>
  <station>
    <id>GHCND:USC00325211</id>
    <displayName>LINTON 5 NW, ND US</displayName>
    <minDate>2008-06-01</minDate>
    <maxDate>2012-12-31</maxDate>
    <latitude>46.3022</latitude>
    <longitude>-100.3258</longitude>
    <elevation>560.8</elevation>
    <locationLabels>
      <type>CNTRY</type>
      <id>FIPS:US</id>
      <displayName>United States</displayName>
    </locationLabels>
    <coverage>0.9863</coverage>
  </station>
  <station>
    <id>GHCND:USC00325210</id>
    <displayName>LINTON, ND US</displayName>
    <minDate>1917-09-01</minDate>
    <maxDate>2011-03-07</maxDate>
    <latitude>46.2666</latitude>
    <longitude>-100.2305</longitude>
    <elevation>515.1</elevation>
    <locationLabels>
      <type>CNTRY</type>
      <id>FIPS:US</id>
      <displayName>United States</displayName>
    </locationLabels>
    <coverage>0.8847</coverage>
  </station>
  <station>
    <id>GHCND:US1NCAV0004</id>
    <displayName>LINVILLE 2.4 ENE, NC US</displayName>
    <minDate>2007-11-05</minDate>
    <maxDate>2013-01-16</maxDate>
    <latitude>36.0864</latitude>
    <longitude>-81.8478</longitude>
    <elevation>1316.7</elevation>
    <locationLabels>
      <type>CNTRY</type>
      <id>FIPS:US</id>
      <displayName>United States</displayName>
    </locationLabels>
    <coverage>0.8668</coverage>
  </station>
  <station>
    <id>GHCND:US1NCAV0009</id>
    <displayName>LINVILLE 2.5 ENE, NC US</displayName>
    <minDate>2010-09-29</minDate>
    <maxDate>2013-01-16</maxDate>
    <latitude>36.0895</latitude>
    <longitude>-81.8356</longitude>
    <elevation>1425.9</elevation>
    <locationLabels>
      <type>CNTRY</type>
      <id>FIPS:US</id>
      <displayName>United States</displayName>
    </locationLabels>
    <coverage>0.9477</coverage>
  </station>
  <station>
    <id>GHCND:US1NCAV0007</id>
    <displayName>LINVILLE FALLS 0.5 SW, NC US</displayName>
    <minDate>2008-08-09</minDate>
    <maxDate>2013-01-16</maxDate>
    <latitude>35.9544</latitude>
    <longitude>-81.952</longitude>
    <elevation>1024.7</elevation>
    <locationLabels>
      <type>CNTRY</type>
      <id>FIPS:US</id>
      <displayName>United States</displayName>
    </locationLabels>
    <coverage>0.947</coverage>
  </station>
  <station>
    <id>GHCND:US1NJAT0009</id>
    <displayName>LINWOOD 0.7 SSW, NJ US</displayName>
    <minDate>2009-03-25</minDate>
    <maxDate>2013-01-16</maxDate>
    <latitude>39.3346</latitude>
    <longitude>-74.5759</longitude>
    <elevation>5.8</elevation>
    <locationLabels>
      <type>CNTRY</type>
      <id>FIPS:US</id>
      <displayName>United States</displayName>
    </locationLabels>
    <coverage>0.9376</coverage>
  </station>
  <station>
    <id>GHCND:USC00425105</id>
    <displayName>LINWOOD, WY US</displayName>
    <minDate>1941-06-01</minDate>
    <maxDate>1943-03-31</maxDate>
    <latitude>41</latitude>
    <longitude>-109.65</longitude>
    <elevation>1828.8</elevation>
    <locationLabels>
      <type>CNTRY</type>
      <id>FIPS:US</id>
      <displayName>United States</displayName>
    </locationLabels>
    <coverage>0.9985</coverage>
  </station>
  <station>
    <id>GHCND:USC00204797</id>
    <displayName>LINWOOOD 7 W, MI US</displayName>
    <minDate>2002-05-01</minDate>
    <maxDate>2005-11-11</maxDate>
    <latitude>43.7533</latitude>
    <longitude>-84.0936</longitude>
    <elevation>268.2</elevation>
    <locationLabels>
      <type>CNTRY</type>
      <id>FIPS:US</id>
      <displayName>United States</displayName>
    </locationLabels>
    <coverage>0.8366</coverage>
  </station>
  <station>
    <id>GHCND:USC00415243</id>
    <displayName>LIPAN, TX US</displayName>
    <minDate>1949-03-19</minDate>
    <maxDate>2013-01-14</maxDate>
    <latitude>32.56833</latitude>
    <longitude>-98.08194</longitude>
    <elevation>301.1</elevation>
    <locationLabels>
      <type>CNTRY</type>
      <id>FIPS:US</id>
      <displayName>United States</displayName>
    </locationLabels>
    <coverage>0.9387</coverage>
  </station>
  <station>
    <id>GHCND:USC00415250</id>
    <displayName>LIPSCOMB NEAR NUMBER 22, TX US</displayName>
    <minDate>1941-01-01</minDate>
    <maxDate>1942-12-31</maxDate>
    <latitude>36.133333</latitude>
    <longitude>-100.316667</longitude>
    <locationLabels>
      <type>CNTRY</type>
      <id>FIPS:US</id>
      <displayName>United States</displayName>
    </locationLabels>
    <coverage>0.9178</coverage>
  </station>
  <station>
    <id>GHCND:USC00415249</id>
    <displayName>LIPSCOMB NEAR SOIL CONSERVATION SERVICE NUMBER 20, TX US</displayName>
    <minDate>1941-01-01</minDate>
    <maxDate>1942-10-31</maxDate>
    <latitude>36.283333</latitude>
    <longitude>-100.35</longitude>
    <locationLabels>
      <type>CNTRY</type>
      <id>FIPS:US</id>
      <displayName>United States</displayName>
    </locationLabels>
    <coverage>0.9716</coverage>
  </station>
  <station>
    <id>GHCND:USC00415247</id>
    <displayName>LIPSCOMB, TX US</displayName>
    <minDate>1948-06-01</minDate>
    <maxDate>2013-01-16</maxDate>
    <latitude>36.23583</latitude>
    <longitude>-100.2675</longitude>
    <elevation>746.8</elevation>
    <locationLabels>
      <type>CNTRY</type>
      <id>FIPS:US</id>
      <displayName>United States</displayName>
    </locationLabels>
    <coverage>0.9798</coverage>
  </station>
  <station>
    <id>GHCND:USR0000ALIR</id>
    <displayName>LIRI ALABAMA, AL US</displayName>
    <minDate>1997-01-29</minDate>
    <maxDate>2010-09-23</maxDate>
    <latitude>34.4978</latitude>
    <longitude>-85.6292</longitude>
    <elevation>365.8</elevation>
    <locationLabels>
      <type>CNTRY</type>
      <id>FIPS:US</id>
      <displayName>United States</displayName>
    </locationLabels>
    <coverage>0.9124</coverage>
  </station>
  <station>
    <id>GHCND:USC00185302</id>
    <displayName>LISBON 1 W, MD US</displayName>
    <minDate>1949-09-09</minDate>
    <maxDate>1954-05-31</maxDate>
    <latitude>39.35</latitude>
    <longitude>-77.1</longitude>
    <elevation>223.1</elevation>
    <locationLabels>
      <type>CNTRY</type>
      <id>FIPS:US</id>
      <displayName>United States</displayName>
    </locationLabels>
    <coverage>0.9021</coverage>
  </station>
  <station>
    <id>GHCND:US1ILKD0009</id>
    <displayName>LISBON 4.4 NE, IL US</displayName>
    <minDate>2007-11-25</minDate>
    <maxDate>2012-11-07</maxDate>
    <latitude>41.5207</latitude>
    <longitude>-88.4167</longitude>
    <elevation>191.1</elevation>
    <locationLabels>
      <type>CNTRY</type>
      <id>FIPS:US</id>
      <displayName>United States</displayName>
    </locationLabels>
    <coverage>0.7287</coverage>
  </station>
  <station>
    <id>GHCND:USC00085076</id>
    <displayName>LISBON, FL US</displayName>
    <minDate>1958-12-01</minDate>
    <maxDate>2013-01-16</maxDate>
    <latitude>28.8728</latitude>
    <longitude>-81.7844</longitude>
    <elevation>20.7</elevation>
    <locationLabels>
      <type>CNTRY</type>
      <id>FIPS:US</id>
      <displayName>United States</displayName>
    </locationLabels>
    <coverage>0.9969</coverage>
  </station>
  <station>
    <id>GHCND:USC00095231</id>
    <displayName>LISBON, GA US</displayName>
    <minDate>1906-08-07</minDate>
    <maxDate>1950-11-23</maxDate>
    <latitude>33.95</latitude>
    <longitude>-82.58333</longitude>
    <locationLabels>
      <type>CNTRY</type>
      <id>FIPS:US</id>
      <displayName>United States</displayName>
    </locationLabels>
    <coverage>0.5174</coverage>
  </station>
  <station>
    <id>GHCND:USC00325220</id>
    <displayName>LISBON, ND US</displayName>
    <minDate>1903-04-01</minDate>
    <maxDate>2011-06-01</maxDate>
    <latitude>46.4386</latitude>
    <longitude>-97.6856</longitude>
    <elevation>337.4</elevation>
    <locationLabels>
      <type>CNTRY</type>
      <id>FIPS:US</id>
      <displayName>United States</displayName>
    </locationLabels>
    <coverage>0.9485</coverage>
  </station>
  <station>
    <id>GHCND:USC00254865</id>
    <displayName>LISCO, NE US</displayName>
    <minDate>1978-05-01</minDate>
    <maxDate>2013-01-16</maxDate>
    <latitude>41.4983</latitude>
    <longitude>-102.6222</longitude>
    <elevation>1071.4</elevation>
    <locationLabels>
      <type>CNTRY</type>
      <id>FIPS:US</id>
      <displayName>United States</displayName>
    </locationLabels>
    <coverage>0.9551</coverage>
  </station>
  <station>
    <id>GHCND:US1ILDP0086</id>
    <displayName>LISLE 0.5 W, IL US</displayName>
    <minDate>2009-10-12</minDate>
    <maxDate>2013-01-15</maxDate>
    <latitude>41.792</latitude>
    <longitude>-88.0967</longitude>
    <elevation>216.4</elevation>
    <locationLabels>
      <type>CNTRY</type>
      <id>FIPS:US</id>
      <displayName>United States</displayName>
    </locationLabels>
    <coverage>0.6082</coverage>
  </station>
  <station>
    <id>GHCND:US1ILDP0030</id>
    <displayName>LISLE 0.5 WSW, IL US</displayName>
    <minDate>2007-03-27</minDate>
    <maxDate>2012-12-21</maxDate>
    <latitude>41.79</latitude>
    <longitude>-88.0979</longitude>
    <elevation>224</elevation>
    <locationLabels>
      <type>CNTRY</type>
      <id>FIPS:US</id>
      <displayName>United States</displayName>
    </locationLabels>
    <coverage>0.5665</coverage>
  </station>
  <station>
    <id>GHCND:US1ILDP0024</id>
    <displayName>LISLE 0.6 W, IL US</displayName>
    <minDate>2007-05-05</minDate>
    <maxDate>2010-09-16</maxDate>
    <latitude>41.7918</latitude>
    <longitude>-88.0994</longitude>
    <elevation>223.1</elevation>
    <locationLabels>
      <type>CNTRY</type>
      <id>FIPS:US</id>
      <displayName>United States</displayName>
    </locationLabels>
    <coverage>0.8302</coverage>
  </station>
  <station>
    <id>GHCND:US1ILDP0062</id>
    <displayName>LISLE 0.7 N, IL US</displayName>
    <minDate>2008-03-17</minDate>
    <maxDate>2008-12-08</maxDate>
    <latitude>41.8022</latitude>
    <longitude>-88.0869</longitude>
    <elevation>221</elevation>
    <locationLabels>
      <type>CNTRY</type>
      <id>FIPS:US</id>
      <displayName>United States</displayName>
    </locationLabels>
    <coverage>0.9663</coverage>
  </station>
  <station>
    <id>GHCND:US1ILDP0022</id>
    <displayName>LISLE 1.3 NE, IL US</displayName>
    <minDate>2007-03-19</minDate>
    <maxDate>2009-04-03</maxDate>
    <latitude>41.8062</latitude>
    <longitude>-88.0702</longitude>
    <elevation>214.9</elevation>
    <locationLabels>
      <type>CNTRY</type>
      <id>FIPS:US</id>
      <displayName>United States</displayName>
    </locationLabels>
    <coverage>0.2744</coverage>
  </station>
  <station>
    <id>GHCND:US1ILDP0032</id>
    <displayName>LISLE 1.3 SE, IL US</displayName>
    <minDate>2007-04-01</minDate>
    <maxDate>2013-01-16</maxDate>
    <latitude>41.7814</latitude>
    <longitude>-88.0674</longitude>
    <elevation>224.9</elevation>
    <locationLabels>
      <type>CNTRY</type>
      <id>FIPS:US</id>
      <displayName>United States</displayName>
    </locationLabels>
    <coverage>0.9254</coverage>
  </station>
  <station>
    <id>GHCND:USC00115097</id>
    <displayName>LISLE MORTON ARBORETUM, IL US</displayName>
    <minDate>2007-04-01</minDate>
    <maxDate>2013-01-16</maxDate>
    <latitude>41.8127</latitude>
    <longitude>-88.0727</longitude>
    <elevation>207.3</elevation>
    <locationLabels>
      <type>CNTRY</type>
      <id>FIPS:US</id>
      <displayName>United States</displayName>
    </locationLabels>
    <coverage>0.9929</coverage>
  </station>
  <station>
    <id>GHCND:USC00304784</id>
    <displayName>LISLE, NY US</displayName>
    <minDate>1944-10-21</minDate>
    <maxDate>1945-05-31</maxDate>
    <latitude>42.383333</latitude>
    <longitude>-76.1</longitude>
    <elevation>432.8</elevation>
    <locationLabels>
      <type>CNTRY</type>
      <id>FIPS:US</id>
      <displayName>United States</displayName>
    </locationLabels>
    <coverage>0.9865</coverage>
  </station>
  <station>
    <id>GHCND:USC00304782</id>
    <displayName>LISLE, NY US</displayName>
    <minDate>1953-07-01</minDate>
    <maxDate>1977-10-31</maxDate>
    <latitude>42.35</latitude>
    <longitude>-76</longitude>
    <elevation>297.5</elevation>
    <locationLabels>
      <type>CNTRY</type>
      <id>FIPS:US</id>
      <displayName>United States</displayName>
    </locationLabels>
    <coverage>0.8139</coverage>
  </station>
  <station>
    <id>GHCND:US1ILMY0008</id>
    <displayName>LITCHFIELD 0.2 SE, IL US</displayName>
    <minDate>2008-05-20</minDate>
    <maxDate>2013-01-16</maxDate>
    <latitude>39.1737</latitude>
    <longitude>-89.6541</longitude>
    <elevation>210</elevation>
    <locationLabels>
      <type>CNTRY</type>
      <id>FIPS:US</id>
      <displayName>United States</displayName>
    </locationLabels>
    <coverage>0.8479</coverage>
  </station>
  <station>
    <id>GHCND:US1MIHL0001</id>
    <displayName>LITCHFIELD 0.3 ENE, MI US</displayName>
    <minDate>2008-06-17</minDate>
    <maxDate>2013-01-16</maxDate>
    <latitude>42.0453</latitude>
    <longitude>-84.7531</longitude>
    <elevation>317</elevation>
    <locationLabels>
      <type>CNTRY</type>
      <id>FIPS:US</id>
      <displayName>United States</displayName>
    </locationLabels>
    <coverage>0.9809</coverage>
  </station>
  <station>
    <id>GHCND:US1ILMY0009</id>
    <displayName>LITCHFIELD 0.8 SE, IL US</displayName>
    <minDate>2009-05-08</minDate>
    <maxDate>2011-11-21</maxDate>
    <latitude>39.1696</latitude>
    <longitude>-89.644</longitude>
    <elevation>207</elevation>
    <locationLabels>
      <type>CNTRY</type>
      <id>FIPS:US</id>
      <displayName>United States</displayName>
    </locationLabels>
    <coverage>0.4494</coverage>
  </station>
  <station>
    <id>GHCND:US10shem012</id>
    <displayName>LITCHFIELD 13.6 SE, NE US</displayName>
    <minDate>2007-01-01</minDate>
    <maxDate>2012-12-28</maxDate>
    <latitude>41.194</latitude>
    <longitude>-99.1407</longitude>
    <elevation>659.9</elevation>
    <locationLabels>
      <type>CNTRY</type>
      <id>FIPS:US</id>
      <displayName>United States</displayName>
    </locationLabels>
    <coverage>0.9164</coverage>
  </station>
  <station>
    <id>GHCND:US1NHHL0007</id>
    <displayName>LITCHFIELD 2.1 SE, NH US</displayName>
    <minDate>2009-07-04</minDate>
    <maxDate>2010-02-13</maxDate>
    <latitude>42.8161</latitude>
    <longitude>-71.454</longitude>
    <elevation>52.7</elevation>
    <locationLabels>
      <type>CNTRY</type>
      <id>FIPS:US</id>
      <displayName>United States</displayName>
    </locationLabels>
    <coverage>0.9689</coverage>
  </station>
  <station>
    <id>GHCND:US1CTLT0007</id>
    <displayName>LITCHFIELD 2.3 NNE, CT US</displayName>
    <minDate>2012-04-13</minDate>
    <maxDate>2013-01-16</maxDate>
    <latitude>41.7744</latitude>
    <longitude>-73.169</longitude>
    <elevation>330.1</elevation>
    <locationLabels>
      <type>CNTRY</type>
      <id>FIPS:US</id>
      <displayName>United States</displayName>
    </locationLabels>
    <coverage>0.6523</coverage>
  </station>
  <station>
    <id>GHCND:US10shem001</id>
    <displayName>LITCHFIELD 4.4 N, NE US</displayName>
    <minDate>2007-01-01</minDate>
    <maxDate>2012-11-25</maxDate>
    <latitude>41.222</latitude>
    <longitude>-99.1575</longitude>
    <elevation>663.9</elevation>
    <locationLabels>
      <type>CNTRY</type>
      <id>FIPS:US</id>
      <displayName>United States</displayName>
    </locationLabels>
    <coverage>0.8219</coverage>
  </station>
  <station>
    <id>GHCND:US10shem002</id>
    <displayName>LITCHFIELD 7.5 S, NE US</displayName>
    <minDate>2007-01-15</minDate>
    <maxDate>2012-12-15</maxDate>
    <latitude>41.049</latitude>
    <longitude>-99.1624</longitude>
    <elevation>670.9</elevation>
    <locationLabels>
      <type>CNTRY</type>
      <id>FIPS:US</id>
      <displayName>United States</displayName>
    </locationLabels>
    <coverage>0.6846</coverage>
  </station>
  <station>
    <id>GHCND:US1AZMR0132</id>
    <displayName>LITCHFIELD PARK 0.6 NNE, AZ US</displayName>
    <minDate>2009-10-01</minDate>
    <maxDate>2012-12-31</maxDate>
    <latitude>33.5099</latitude>
    <longitude>-112.3532</longitude>
    <elevation>322.2</elevation>
    <locationLabels>
      <type>CNTRY</type>
      <id>FIPS:US</id>
      <displayName>United States</displayName>
    </locationLabels>
    <coverage>0.9966</coverage>
  </station>
  <station>
    <id>GHCND:US1AZMR0035</id>
    <displayName>LITCHFIELD PARK 1.1 E, AZ US</displayName>
    <minDate>2009-09-01</minDate>
    <maxDate>2013-01-16</maxDate>
    <latitude>33.5041</latitude>
    <longitude>-112.3399</longitude>
    <elevation>316.7</elevation>
    <locationLabels>
      <type>CNTRY</type>
      <id>FIPS:US</id>
      <displayName>United States</displayName>
    </locationLabels>
    <coverage>0.9903</coverage>
  </station>
  <station>
    <id>GHCND:US1AZMR0011</id>
    <displayName>LITCHFIELD PARK 1.3 E, AZ US</displayName>
    <minDate>2009-08-16</minDate>
    <maxDate>2012-12-19</maxDate>
    <latitude>33.5047</latitude>
    <longitude>-112.3367</longitude>
    <elevation>317.3</elevation>
    <locationLabels>
      <type>CNTRY</type>
      <id>FIPS:US</id>
      <displayName>United States</displayName>
    </locationLabels>
    <coverage>0.4264</coverage>
  </station>
  <station>
    <id>GHCND:USC00024977</id>
    <displayName>LITCHFIELD PARK, AZ US</displayName>
    <minDate>1917-08-01</minDate>
    <maxDate>2013-01-15</maxDate>
    <latitude>33.4991</latitude>
    <longitude>-112.363</longitude>
    <elevation>317</elevation>
    <locationLabels>
      <type>CNTRY</type>
      <id>FIPS:US</id>
      <displayName>United States</displayName>
    </locationLabels>
    <coverage>0.9397</coverage>
  </station>
  <station>
    <id>GHCND:USC00214778</id>
    <displayName>LITCHFIELD, MN US</displayName>
    <minDate>1908-01-01</minDate>
    <maxDate>2013-01-15</maxDate>
    <latitude>45.1279</latitude>
    <longitude>-94.5348</longitude>
    <elevation>341.4</elevation>
    <locationLabels>
      <type>CNTRY</type>
      <id>FIPS:US</id>
      <displayName>United States</displayName>
    </locationLabels>
    <coverage>0.6958</coverage>
  </station>
  <station>
    <id>GHCND:USC00325230</id>
    <displayName>LITCHVILLE 2 NW, ND US</displayName>
    <minDate>1951-05-01</minDate>
    <maxDate>2012-11-30</maxDate>
    <latitude>46.6612</latitude>
    <longitude>-98.2268</longitude>
    <elevation>451.7</elevation>
    <locationLabels>
      <type>CNTRY</type>
      <id>FIPS:US</id>
      <displayName>United States</displayName>
    </locationLabels>
    <coverage>0.9893</coverage>
  </station>
  <station>
    <id>GHCND:US1GADS0008</id>
    <displayName>LITHIA SPRINGS 1.8 S, GA US</displayName>
    <minDate>2008-05-13</minDate>
    <maxDate>2012-11-09</maxDate>
    <latitude>33.7534</latitude>
    <longitude>-84.6395</longitude>
    <elevation>281.3</elevation>
    <locationLabels>
      <type>CNTRY</type>
      <id>FIPS:US</id>
      <displayName>United States</displayName>
    </locationLabels>
    <coverage>0.1705</coverage>
  </station>
  <station>
    <id>GHCND:US1GADK0012</id>
    <displayName>LITHONIA 3.2 SW, GA US</displayName>
    <minDate>2008-10-12</minDate>
    <maxDate>2013-01-11</maxDate>
    <latitude>33.6749</latitude>
    <longitude>-84.1374</longitude>
    <elevation>271.6</elevation>
    <locationLabels>
      <type>CNTRY</type>
      <id>FIPS:US</id>
      <displayName>United States</displayName>
    </locationLabels>
    <coverage>0.4681</coverage>
  </station>
  <station>
    <id>GHCND:USC00334616</id>
    <displayName>LITHOPOLIS 2 S, OH US</displayName>
    <minDate>1951-12-01</minDate>
    <maxDate>1988-09-30</maxDate>
    <latitude>39.78333</latitude>
    <longitude>-82.81667</longitude>
    <elevation>301.8</elevation>
    <locationLabels>
      <type>CNTRY</type>
      <id>FIPS:US</id>
      <displayName>United States</displayName>
    </locationLabels>
    <coverage>0.9871</coverage>
  </station>
  <station>
    <id>GHCND:US1PALB0006</id>
    <displayName>LITITZ 4.5 N, PA US</displayName>
    <minDate>2008-08-01</minDate>
    <maxDate>2008-11-16</maxDate>
    <latitude>40.2177</latitude>
    <longitude>-76.2917</longitude>
    <elevation>164</elevation>
    <locationLabels>
      <type>CNTRY</type>
      <id>FIPS:US</id>
      <displayName>United States</displayName>
    </locationLabels>
    <coverage>0.963</coverage>
  </station>
  <station>
    <id>GHCND:USC00165419</id>
    <displayName>LITROE, LA US</displayName>
    <minDate>1941-08-01</minDate>
    <maxDate>1943-10-31</maxDate>
    <latitude>32.98333</latitude>
    <longitude>-92.21667</longitude>
    <elevation>34.1</elevation>
    <locationLabels>
      <type>CNTRY</type>
      <id>FIPS:US</id>
      <displayName>United States</displayName>
    </locationLabels>
    <coverage>0.3017</coverage>
  </station>
  <station>
    <id>GHCND:USR0000ILIT</id>
    <displayName>LITTLE ANDERSON IDAHO, ID US</displayName>
    <minDate>1993-05-17</minDate>
    <maxDate>2012-08-31</maxDate>
    <latitude>44.0911</latitude>
    <longitude>-115.8806</longitude>
    <elevation>1389.9</elevation>
    <locationLabels>
      <type>CNTRY</type>
      <id>FIPS:US</id>
      <displayName>United States</displayName>
    </locationLabels>
    <coverage>0.8303</coverage>
  </station>
  <station>
    <id>GHCND:USS0011H25S</id>
    <displayName>LITTLE BEAR, UT US</displayName>
    <minDate>1978-10-01</minDate>
    <maxDate>2013-01-13</maxDate>
    <latitude>41.4</latitude>
    <longitude>-111.8167</longitude>
    <elevation>1996.4</elevation>
    <locationLabels>
      <type>CNTRY</type>
      <id>FIPS:US</id>
      <displayName>United States</displayName>
    </locationLabels>
    <coverage>0.8697</coverage>
  </station>
  <station>
    <id>GHCND:USR0000MLIH</id>
    <displayName>LITTLE BIGHORN MONTANA, MT US</displayName>
    <minDate>1997-07-29</minDate>
    <maxDate>2012-08-31</maxDate>
    <latitude>45.5697</latitude>
    <longitude>-107.4358</longitude>
    <elevation>1036.3</elevation>
    <locationLabels>
      <type>CNTRY</type>
      <id>FIPS:US</id>
      <displayName>United States</displayName>
    </locationLabels>
    <coverage>0.9329</coverage>
  </station>
</stationCollection>
