<?xml version="1.0" encoding="UTF-8" standalone="yes"?>
<stationCollection totalCount="46020" pageCount="461" pageSize="100" page="285">
  <station>
    <id>GHCND:USC00455608</id>
    <displayName>MOSES LAKE, WA US</displayName>
    <minDate>1979-09-01</minDate>
    <maxDate>1987-01-31</maxDate>
    <latitude>47.1</latitude>
    <longitude>-119.25</longitude>
    <elevation>359.7</elevation>
    <locationLabels>
      <type>CNTRY</type>
      <id>FIPS:US</id>
      <displayName>United States</displayName>
    </locationLabels>
    <coverage>0.9875</coverage>
  </station>
  <station>
    <id>GHCND:USS0019A13S</id>
    <displayName>MOSES MOUNTAIN, WA US</displayName>
    <minDate>1991-10-01</minDate>
    <maxDate>2013-01-13</maxDate>
    <latitude>48.3667</latitude>
    <longitude>-119.0667</longitude>
    <elevation>1615.4</elevation>
    <locationLabels>
      <type>CNTRY</type>
      <id>FIPS:US</id>
      <displayName>United States</displayName>
    </locationLabels>
    <coverage>0.9423</coverage>
  </station>
  <station>
    <id>GHCND:USW00026620</id>
    <displayName>MOSES POINT, AK US</displayName>
    <minDate>1943-03-01</minDate>
    <maxDate>1967-07-31</maxDate>
    <latitude>64.7</latitude>
    <longitude>-162.05</longitude>
    <elevation>6.1</elevation>
    <locationLabels>
      <type>CNTRY</type>
      <id>FIPS:US</id>
      <displayName>United States</displayName>
    </locationLabels>
    <coverage>0.9077</coverage>
  </station>
  <station>
    <id>GHCND:USC00365987</id>
    <displayName>MOSGROVE LOCK 8, PA US</displayName>
    <minDate>1912-10-01</minDate>
    <maxDate>1951-05-31</maxDate>
    <latitude>40.9</latitude>
    <longitude>-79.48333</longitude>
    <elevation>246.9</elevation>
    <locationLabels>
      <type>CNTRY</type>
      <id>FIPS:US</id>
      <displayName>United States</displayName>
    </locationLabels>
    <coverage>0.6795</coverage>
  </station>
  <station>
    <id>GHCND:US1TNGN0004</id>
    <displayName>MOSHEIM 7.5 WSW, TN US</displayName>
    <minDate>2007-04-20</minDate>
    <maxDate>2013-01-16</maxDate>
    <latitude>36.1387</latitude>
    <longitude>-83.0745</longitude>
    <elevation>363.9</elevation>
    <locationLabels>
      <type>CNTRY</type>
      <id>FIPS:US</id>
      <displayName>United States</displayName>
    </locationLabels>
    <coverage>0.9538</coverage>
  </station>
  <station>
    <id>GHCND:USC00425847</id>
    <displayName>MOSIDA, UT US</displayName>
    <minDate>1911-07-23</minDate>
    <maxDate>1924-08-18</maxDate>
    <latitude>40.183333</latitude>
    <longitude>-111.916667</longitude>
    <elevation>1402.1</elevation>
    <locationLabels>
      <type>CNTRY</type>
      <id>FIPS:US</id>
      <displayName>United States</displayName>
    </locationLabels>
    <coverage>0.4236</coverage>
  </station>
  <station>
    <id>GHCND:USC00295937</id>
    <displayName>MOSQUERO 1 NE, NM US</displayName>
    <minDate>1926-08-01</minDate>
    <maxDate>2012-09-30</maxDate>
    <latitude>35.8022</latitude>
    <longitude>-103.9438</longitude>
    <elevation>1665.7</elevation>
    <locationLabels>
      <type>CNTRY</type>
      <id>FIPS:US</id>
      <displayName>United States</displayName>
    </locationLabels>
    <coverage>0.9605</coverage>
  </station>
  <station>
    <id>GHCND:USC00295931</id>
    <displayName>MOSQUERO 1, NM US</displayName>
    <minDate>1915-04-16</minDate>
    <maxDate>1943-07-31</maxDate>
    <latitude>35.78333</latitude>
    <longitude>-103.96667</longitude>
    <elevation>1702</elevation>
    <locationLabels>
      <type>CNTRY</type>
      <id>FIPS:US</id>
      <displayName>United States</displayName>
    </locationLabels>
    <coverage>0.8887</coverage>
  </station>
  <station>
    <id>GHCND:US1NMSM0001</id>
    <displayName>MOSQUERO 15 SSE, NM US</displayName>
    <minDate>1998-06-17</minDate>
    <maxDate>2011-02-06</maxDate>
    <latitude>35.5653</latitude>
    <longitude>-103.8952</longitude>
    <elevation>1350</elevation>
    <locationLabels>
      <type>CNTRY</type>
      <id>FIPS:US</id>
      <displayName>United States</displayName>
    </locationLabels>
    <coverage>0.0645</coverage>
  </station>
  <station>
    <id>GHCND:USC00335505</id>
    <displayName>MOSQUITO CREEK LAKE, OH US</displayName>
    <minDate>1944-08-01</minDate>
    <maxDate>2013-01-16</maxDate>
    <latitude>41.29861</latitude>
    <longitude>-80.76472</longitude>
    <elevation>277.4</elevation>
    <locationLabels>
      <type>CNTRY</type>
      <id>FIPS:US</id>
      <displayName>United States</displayName>
    </locationLabels>
    <coverage>0.994</coverage>
  </station>
  <station>
    <id>GHCND:USC00506062</id>
    <displayName>MOSQUITO POINT, AK US</displayName>
    <minDate>1950-05-27</minDate>
    <maxDate>1951-08-31</maxDate>
    <latitude>59.28333</latitude>
    <longitude>-158.58333</longitude>
    <elevation>18</elevation>
    <locationLabels>
      <type>CNTRY</type>
      <id>FIPS:US</id>
      <displayName>United States</displayName>
    </locationLabels>
    <coverage>0.4048</coverage>
  </station>
  <station>
    <id>GHCND:USS0016A04S</id>
    <displayName>MOSQUITO RIDGE, ID US</displayName>
    <minDate>1981-10-01</minDate>
    <maxDate>2013-01-13</maxDate>
    <latitude>48.05</latitude>
    <longitude>-116.2333</longitude>
    <elevation>1585</elevation>
    <locationLabels>
      <type>CNTRY</type>
      <id>FIPS:US</id>
      <displayName>United States</displayName>
    </locationLabels>
    <coverage>0.8682</coverage>
  </station>
  <station>
    <id>GHCND:USR0000AMOS</id>
    <displayName>MOSS BASIN ARIZONA, AZ US</displayName>
    <minDate>1992-06-09</minDate>
    <maxDate>2012-08-30</maxDate>
    <latitude>35.0336</latitude>
    <longitude>-113.8925</longitude>
    <elevation>1804.4</elevation>
    <locationLabels>
      <type>CNTRY</type>
      <id>FIPS:US</id>
      <displayName>United States</displayName>
    </locationLabels>
    <coverage>0.9614</coverage>
  </station>
  <station>
    <id>GHCND:USC00166434</id>
    <displayName>MOSS BLUFF 2 NNW, LA US</displayName>
    <minDate>2008-01-01</minDate>
    <maxDate>2013-01-15</maxDate>
    <latitude>30.3393</latitude>
    <longitude>-93.2151</longitude>
    <elevation>7.6</elevation>
    <locationLabels>
      <type>CNTRY</type>
      <id>FIPS:US</id>
      <displayName>United States</displayName>
    </locationLabels>
    <coverage>0.9967</coverage>
  </station>
  <station>
    <id>GHCND:USC00166431</id>
    <displayName>MOSS BLUFF, LA US</displayName>
    <minDate>1989-01-01</minDate>
    <maxDate>2013-01-16</maxDate>
    <latitude>30.2944</latitude>
    <longitude>-93.2077</longitude>
    <elevation>5.8</elevation>
    <locationLabels>
      <type>CNTRY</type>
      <id>FIPS:US</id>
      <displayName>United States</displayName>
    </locationLabels>
    <coverage>0.9904</coverage>
  </station>
  <station>
    <id>GHCND:USS0013B24S</id>
    <displayName>MOSS PEAK, MT US</displayName>
    <minDate>1985-10-01</minDate>
    <maxDate>2013-01-13</maxDate>
    <latitude>47.6833</latitude>
    <longitude>-113.9667</longitude>
    <elevation>2066.5</elevation>
    <locationLabels>
      <type>CNTRY</type>
      <id>FIPS:US</id>
      <displayName>United States</displayName>
    </locationLabels>
    <coverage>0.8579</coverage>
  </station>
  <station>
    <id>GHCND:US1MSJC0017</id>
    <displayName>MOSS POINT 10.2 NE, MS US</displayName>
    <minDate>2009-04-02</minDate>
    <maxDate>2012-06-16</maxDate>
    <latitude>30.5268</latitude>
    <longitude>-88.4043</longitude>
    <elevation>20.7</elevation>
    <locationLabels>
      <type>CNTRY</type>
      <id>FIPS:US</id>
      <displayName>United States</displayName>
    </locationLabels>
    <coverage>0.6442</coverage>
  </station>
  <station>
    <id>GHCND:US1MSJC0010</id>
    <displayName>MOSS POINT 2.5 SSW, MS US</displayName>
    <minDate>2009-02-05</minDate>
    <maxDate>2010-09-26</maxDate>
    <latitude>30.3922</latitude>
    <longitude>-88.5438</longitude>
    <elevation>1.2</elevation>
    <locationLabels>
      <type>CNTRY</type>
      <id>FIPS:US</id>
      <displayName>United States</displayName>
    </locationLabels>
    <coverage>0.4891</coverage>
  </station>
  <station>
    <id>GHCND:USC00226054</id>
    <displayName>MOSS POINT, MS US</displayName>
    <minDate>1893-01-01</minDate>
    <maxDate>1899-05-31</maxDate>
    <latitude>30.4</latitude>
    <longitude>-88.5</longitude>
    <elevation>6.1</elevation>
    <locationLabels>
      <type>CNTRY</type>
      <id>FIPS:US</id>
      <displayName>United States</displayName>
    </locationLabels>
    <coverage>0.8834</coverage>
  </station>
  <station>
    <id>GHCND:USC00416085</id>
    <displayName>MOSS RANCH, TX US</displayName>
    <minDate>1948-03-01</minDate>
    <maxDate>1997-07-31</maxDate>
    <latitude>30.55</latitude>
    <longitude>-98.7</longitude>
    <elevation>359.7</elevation>
    <locationLabels>
      <type>CNTRY</type>
      <id>FIPS:US</id>
      <displayName>United States</displayName>
    </locationLabels>
    <coverage>0.3705</coverage>
  </station>
  <station>
    <id>GHCND:USS0017D06S</id>
    <displayName>MOSS SPRINGS, OR US</displayName>
    <minDate>1980-10-01</minDate>
    <maxDate>2013-01-13</maxDate>
    <latitude>45.2667</latitude>
    <longitude>-117.6833</longitude>
    <elevation>1783.1</elevation>
    <locationLabels>
      <type>CNTRY</type>
      <id>FIPS:US</id>
      <displayName>United States</displayName>
    </locationLabels>
    <coverage>0.9294</coverage>
  </station>
  <station>
    <id>GHCND:USC00455655</id>
    <displayName>MOSSYROCK, WA US</displayName>
    <minDate>1948-06-01</minDate>
    <maxDate>1949-06-14</maxDate>
    <latitude>46.53333</latitude>
    <longitude>-122.48333</longitude>
    <elevation>207</elevation>
    <locationLabels>
      <type>CNTRY</type>
      <id>FIPS:US</id>
      <displayName>United States</displayName>
    </locationLabels>
    <coverage>0.9921</coverage>
  </station>
  <station>
    <id>GHCND:USC00326158</id>
    <displayName>MOTT 1 N, ND US</displayName>
    <minDate>2008-06-01</minDate>
    <maxDate>2013-01-01</maxDate>
    <latitude>46.393</latitude>
    <longitude>-102.3186</longitude>
    <elevation>747.7</elevation>
    <locationLabels>
      <type>CNTRY</type>
      <id>FIPS:US</id>
      <displayName>United States</displayName>
    </locationLabels>
    <coverage>0.9338</coverage>
  </station>
  <station>
    <id>GHCND:USC00205637</id>
    <displayName>MOTT IS ISLE ROYALE, US</displayName>
    <minDate>1940-10-01</minDate>
    <maxDate>2012-08-31</maxDate>
    <latitude>48.1069</latitude>
    <longitude>-88.5468</longitude>
    <elevation>185.9</elevation>
    <locationLabels>
      <type>CNTRY</type>
      <id>FIPS:US</id>
      <displayName>United States</displayName>
    </locationLabels>
    <coverage>0.403</coverage>
  </station>
  <station>
    <id>GHCND:USC00326155</id>
    <displayName>MOTT, ND US</displayName>
    <minDate>1907-07-01</minDate>
    <maxDate>2008-03-31</maxDate>
    <latitude>46.3719</latitude>
    <longitude>-102.3163</longitude>
    <elevation>772.7</elevation>
    <locationLabels>
      <type>CNTRY</type>
      <id>FIPS:US</id>
      <displayName>United States</displayName>
    </locationLabels>
    <coverage>0.9877</coverage>
  </station>
  <station>
    <id>GHCND:USC00455656</id>
    <displayName>MOTTINGER, WA US</displayName>
    <minDate>1899-12-01</minDate>
    <maxDate>1946-06-30</maxDate>
    <latitude>45.93333</latitude>
    <longitude>-119.15</longitude>
    <elevation>95.1</elevation>
    <locationLabels>
      <type>CNTRY</type>
      <id>FIPS:US</id>
      <displayName>United States</displayName>
    </locationLabels>
    <coverage>0.9882</coverage>
  </station>
  <station>
    <id>GHCND:USC00205642</id>
    <displayName>MOTTVILLE, MI US</displayName>
    <minDate>1891-10-01</minDate>
    <maxDate>1900-12-31</maxDate>
    <latitude>41.8</latitude>
    <longitude>-85.7</longitude>
    <elevation>280.4</elevation>
    <locationLabels>
      <type>CNTRY</type>
      <id>FIPS:US</id>
      <displayName>United States</displayName>
    </locationLabels>
    <coverage>0.9991</coverage>
  </station>
  <station>
    <id>GHCND:USC00015635</id>
    <displayName>MOULTON 2, AL US</displayName>
    <minDate>1957-04-01</minDate>
    <maxDate>2013-01-16</maxDate>
    <latitude>34.48833</latitude>
    <longitude>-87.29889</longitude>
    <elevation>189.6</elevation>
    <locationLabels>
      <type>CNTRY</type>
      <id>FIPS:US</id>
      <displayName>United States</displayName>
    </locationLabels>
    <coverage>0.9791</coverage>
  </station>
  <station>
    <id>GHCND:USC00416095</id>
    <displayName>MOULTON NEAR SOIL CONSERVATION SERVICE NUMBER 2, TX US</displayName>
    <minDate>1941-08-01</minDate>
    <maxDate>1942-06-29</maxDate>
    <latitude>29.583333</latitude>
    <longitude>-97.166667</longitude>
    <elevation>149.4</elevation>
    <locationLabels>
      <type>CNTRY</type>
      <id>FIPS:US</id>
      <displayName>United States</displayName>
    </locationLabels>
    <coverage>0.991</coverage>
  </station>
  <station>
    <id>GHCND:USC00245886</id>
    <displayName>MOULTON RESERVOIR, MT US</displayName>
    <minDate>1980-09-01</minDate>
    <maxDate>1986-04-30</maxDate>
    <latitude>46.08333</latitude>
    <longitude>-112.5</longitude>
    <elevation>2041.9</elevation>
    <locationLabels>
      <type>CNTRY</type>
      <id>FIPS:US</id>
      <displayName>United States</displayName>
    </locationLabels>
    <coverage>0.9952</coverage>
  </station>
  <station>
    <id>GHCND:USC00015625</id>
    <displayName>MOULTON, AL US</displayName>
    <minDate>1927-07-01</minDate>
    <maxDate>1962-03-31</maxDate>
    <latitude>34.46667</latitude>
    <longitude>-87.3</longitude>
    <elevation>192</elevation>
    <locationLabels>
      <type>CNTRY</type>
      <id>FIPS:US</id>
      <displayName>United States</displayName>
    </locationLabels>
    <coverage>0.6855</coverage>
  </station>
  <station>
    <id>GHCND:USC00275532</id>
    <displayName>MOULTONBORO 5 WSW, NH US</displayName>
    <minDate>1973-12-01</minDate>
    <maxDate>2013-01-16</maxDate>
    <latitude>43.73333</latitude>
    <longitude>-71.48333</longitude>
    <elevation>182.9</elevation>
    <locationLabels>
      <type>CNTRY</type>
      <id>FIPS:US</id>
      <displayName>United States</displayName>
    </locationLabels>
    <coverage>0.5108</coverage>
  </station>
  <station>
    <id>GHCND:USC00271339</id>
    <displayName>MOULTONBORO 5 WSW, NH US</displayName>
    <minDate>1952-04-01</minDate>
    <maxDate>1973-11-30</maxDate>
    <latitude>43.73333</latitude>
    <longitude>-71.48333</longitude>
    <elevation>182.9</elevation>
    <locationLabels>
      <type>CNTRY</type>
      <id>FIPS:US</id>
      <displayName>United States</displayName>
    </locationLabels>
    <coverage>0.9155</coverage>
  </station>
  <station>
    <id>GHCND:US1NHCR0013</id>
    <displayName>MOULTONBOROUGH 2.0 SE, NH US</displayName>
    <minDate>2009-07-22</minDate>
    <maxDate>2010-11-14</maxDate>
    <latitude>43.7318</latitude>
    <longitude>-71.3732</longitude>
    <elevation>159.4</elevation>
    <locationLabels>
      <type>CNTRY</type>
      <id>FIPS:US</id>
      <displayName>United States</displayName>
    </locationLabels>
    <coverage>0.9459</coverage>
  </station>
  <station>
    <id>GHCND:US1GACQ0001</id>
    <displayName>MOULTRIE 10.0 ESE, GA US</displayName>
    <minDate>2008-04-11</minDate>
    <maxDate>2012-09-03</maxDate>
    <latitude>31.1017</latitude>
    <longitude>-83.6189</longitude>
    <elevation>68</elevation>
    <locationLabels>
      <type>CNTRY</type>
      <id>FIPS:US</id>
      <displayName>United States</displayName>
    </locationLabels>
    <coverage>0.8594</coverage>
  </station>
  <station>
    <id>GHCND:USC00096087</id>
    <displayName>MOULTRIE 2 ESE, GA US</displayName>
    <minDate>1926-04-01</minDate>
    <maxDate>2013-01-16</maxDate>
    <latitude>31.1769</latitude>
    <longitude>-83.7491</longitude>
    <elevation>103.6</elevation>
    <locationLabels>
      <type>CNTRY</type>
      <id>FIPS:US</id>
      <displayName>United States</displayName>
    </locationLabels>
    <coverage>0.9901</coverage>
  </station>
  <station>
    <id>GHCND:US1GACQ0007</id>
    <displayName>MOULTRIE 4.6 SE, GA US</displayName>
    <minDate>2009-05-22</minDate>
    <maxDate>2010-04-09</maxDate>
    <latitude>31.1281</latitude>
    <longitude>-83.7076</longitude>
    <elevation>89</elevation>
    <locationLabels>
      <type>CNTRY</type>
      <id>FIPS:US</id>
      <displayName>United States</displayName>
    </locationLabels>
    <coverage>0.9195</coverage>
  </station>
  <station>
    <id>GHCND:US1GACQ0002</id>
    <displayName>MOULTRIE 6.2 SW, GA US</displayName>
    <minDate>2008-06-26</minDate>
    <maxDate>2013-01-15</maxDate>
    <latitude>31.116</latitude>
    <longitude>-83.8577</longitude>
    <elevation>82.3</elevation>
    <locationLabels>
      <type>CNTRY</type>
      <id>FIPS:US</id>
      <displayName>United States</displayName>
    </locationLabels>
    <coverage>0.7856</coverage>
  </station>
  <station>
    <id>GHCND:US1GACQ0006</id>
    <displayName>MOULTRIE 7.2 E, GA US</displayName>
    <minDate>2008-11-13</minDate>
    <maxDate>2012-01-20</maxDate>
    <latitude>31.1743</latitude>
    <longitude>-83.6495</longitude>
    <elevation>79.9</elevation>
    <locationLabels>
      <type>CNTRY</type>
      <id>FIPS:US</id>
      <displayName>United States</displayName>
    </locationLabels>
    <coverage>0.9072</coverage>
  </station>
  <station>
    <id>GHCND:USW00013835</id>
    <displayName>MOULTRIE SPENCE FIELD AFB, GA US</displayName>
    <minDate>1951-09-04</minDate>
    <maxDate>1959-11-30</maxDate>
    <latitude>31.13333</latitude>
    <longitude>-83.7</longitude>
    <elevation>89</elevation>
    <locationLabels>
      <type>CNTRY</type>
      <id>FIPS:US</id>
      <displayName>United States</displayName>
    </locationLabels>
    <coverage>0.498</coverage>
  </station>
  <station>
    <id>GHCND:US1MOFSA087</id>
    <displayName>MOUND CITY 0.2 WNW, MO US</displayName>
    <minDate>2006-05-01</minDate>
    <maxDate>2013-01-14</maxDate>
    <latitude>40.137</latitude>
    <longitude>-95.2373</longitude>
    <elevation>280.1</elevation>
    <locationLabels>
      <type>CNTRY</type>
      <id>FIPS:US</id>
      <displayName>United States</displayName>
    </locationLabels>
    <coverage>0.9947</coverage>
  </station>
  <station>
    <id>GHCND:US1SDCP0001</id>
    <displayName>MOUND CITY 0.4 ENE, SD US</displayName>
    <minDate>2007-06-01</minDate>
    <maxDate>2013-01-09</maxDate>
    <latitude>45.73</latitude>
    <longitude>-100.06</longitude>
    <elevation>513.9</elevation>
    <locationLabels>
      <type>CNTRY</type>
      <id>FIPS:US</id>
      <displayName>United States</displayName>
    </locationLabels>
    <coverage>0.8537</coverage>
  </station>
  <station>
    <id>GHCND:US1KSLN0002</id>
    <displayName>MOUND CITY 0.7 ENE, KS US</displayName>
    <minDate>2005-09-22</minDate>
    <maxDate>2010-12-31</maxDate>
    <latitude>38.1433</latitude>
    <longitude>-94.8103</longitude>
    <elevation>268.8</elevation>
    <locationLabels>
      <type>CNTRY</type>
      <id>FIPS:US</id>
      <displayName>United States</displayName>
    </locationLabels>
    <coverage>0.15</coverage>
  </station>
  <station>
    <id>GHCND:USC00145530</id>
    <displayName>MOUND CITY 1 SSW, KS US</displayName>
    <minDate>2008-04-01</minDate>
    <maxDate>2012-12-31</maxDate>
    <latitude>38.1351</latitude>
    <longitude>-94.816</longitude>
    <elevation>278</elevation>
    <locationLabels>
      <type>CNTRY</type>
      <id>FIPS:US</id>
      <displayName>United States</displayName>
    </locationLabels>
    <coverage>0.7235</coverage>
  </station>
  <station>
    <id>GHCND:US1MOHT0002</id>
    <displayName>MOUND CITY 8.1 N, MO US</displayName>
    <minDate>2011-03-09</minDate>
    <maxDate>2013-01-16</maxDate>
    <latitude>40.2536</latitude>
    <longitude>-95.2387</longitude>
    <elevation>290.2</elevation>
    <locationLabels>
      <type>CNTRY</type>
      <id>FIPS:US</id>
      <displayName>United States</displayName>
    </locationLabels>
    <coverage>0.9529</coverage>
  </station>
  <station>
    <id>GHCND:USC00115880</id>
    <displayName>MOUND CITY, IL US</displayName>
    <minDate>2004-03-01</minDate>
    <maxDate>2005-01-31</maxDate>
    <latitude>37.0897</latitude>
    <longitude>-89.163</longitude>
    <elevation>100</elevation>
    <locationLabels>
      <type>CNTRY</type>
      <id>FIPS:US</id>
      <displayName>United States</displayName>
    </locationLabels>
    <coverage>1</coverage>
  </station>
  <station>
    <id>GHCND:USC00145528</id>
    <displayName>MOUND CITY, KS US</displayName>
    <minDate>1949-10-22</minDate>
    <maxDate>2008-06-19</maxDate>
    <latitude>38.1432</latitude>
    <longitude>-94.8233</longitude>
    <elevation>256</elevation>
    <locationLabels>
      <type>CNTRY</type>
      <id>FIPS:US</id>
      <displayName>United States</displayName>
    </locationLabels>
    <coverage>0.9921</coverage>
  </station>
  <station>
    <id>GHCND:USC00395800</id>
    <displayName>MOUND CITY, SD US</displayName>
    <minDate>1900-10-01</minDate>
    <maxDate>1907-12-31</maxDate>
    <latitude>45.733333</latitude>
    <longitude>-100.066667</longitude>
    <locationLabels>
      <type>CNTRY</type>
      <id>FIPS:US</id>
      <displayName>United States</displayName>
    </locationLabels>
    <coverage>0.3924</coverage>
  </station>
  <station>
    <id>GHCND:USC00145536</id>
    <displayName>MOUND VALLEY 3 WSW, KS US</displayName>
    <minDate>1951-11-01</minDate>
    <maxDate>2013-01-15</maxDate>
    <latitude>37.1873</latitude>
    <longitude>-95.4508</longitude>
    <elevation>243.8</elevation>
    <locationLabels>
      <type>CNTRY</type>
      <id>FIPS:US</id>
      <displayName>United States</displayName>
    </locationLabels>
    <coverage>0.9953</coverage>
  </station>
  <station>
    <id>GHCND:USC00166455</id>
    <displayName>MOUND, LA US</displayName>
    <minDate>1914-05-01</minDate>
    <maxDate>1915-09-30</maxDate>
    <latitude>32.33333</latitude>
    <longitude>-91.01667</longitude>
    <elevation>27.1</elevation>
    <locationLabels>
      <type>CNTRY</type>
      <id>FIPS:US</id>
      <displayName>United States</displayName>
    </locationLabels>
    <coverage>0.9363</coverage>
  </station>
  <station>
    <id>GHCND:USC00215665</id>
    <displayName>MOUND, MN US</displayName>
    <minDate>1990-11-01</minDate>
    <maxDate>2003-04-30</maxDate>
    <latitude>44.95</latitude>
    <longitude>-93.65</longitude>
    <elevation>285</elevation>
    <locationLabels>
      <type>CNTRY</type>
      <id>FIPS:US</id>
      <displayName>United States</displayName>
    </locationLabels>
    <coverage>0.7993</coverage>
  </station>
  <station>
    <id>GHCND:US1KSMP0016</id>
    <displayName>MOUNDRIDGE 0.4 SW, KS US</displayName>
    <minDate>2010-07-04</minDate>
    <maxDate>2013-01-11</maxDate>
    <latitude>38.1979</latitude>
    <longitude>-97.5205</longitude>
    <elevation>452</elevation>
    <locationLabels>
      <type>CNTRY</type>
      <id>FIPS:US</id>
      <displayName>United States</displayName>
    </locationLabels>
    <coverage>0.1788</coverage>
  </station>
  <station>
    <id>GHCND:US1KSHV0012</id>
    <displayName>MOUNDRIDGE 3.2 SSW, KS US</displayName>
    <minDate>2012-01-15</minDate>
    <maxDate>2012-12-10</maxDate>
    <latitude>38.16</latitude>
    <longitude>-97.54</longitude>
    <elevation>444.1</elevation>
    <locationLabels>
      <type>CNTRY</type>
      <id>FIPS:US</id>
      <displayName>United States</displayName>
    </locationLabels>
    <coverage>0.9577</coverage>
  </station>
  <station>
    <id>GHCND:US1KSMP0015</id>
    <displayName>MOUNDRIDGE 5.3 WSW, KS US</displayName>
    <minDate>2010-06-15</minDate>
    <maxDate>2013-01-11</maxDate>
    <latitude>38.1843</latitude>
    <longitude>-97.6106</longitude>
    <elevation>442.6</elevation>
    <locationLabels>
      <type>CNTRY</type>
      <id>FIPS:US</id>
      <displayName>United States</displayName>
    </locationLabels>
    <coverage>0.1614</coverage>
  </station>
  <station>
    <id>GHCND:USC00466250</id>
    <displayName>MOUNDSVILLE 1, OH US</displayName>
    <minDate>1901-10-18</minDate>
    <maxDate>1926-11-16</maxDate>
    <latitude>39.933333</latitude>
    <longitude>-80.766667</longitude>
    <locationLabels>
      <type>CNTRY</type>
      <id>FIPS:US</id>
      <displayName>United States</displayName>
    </locationLabels>
    <coverage>0.92</coverage>
  </station>
  <station>
    <id>GHCND:USC00466248</id>
    <displayName>MOUNDSVILLE, WV US</displayName>
    <minDate>1963-07-01</minDate>
    <maxDate>2012-11-30</maxDate>
    <latitude>39.9055</latitude>
    <longitude>-80.7549</longitude>
    <elevation>189</elevation>
    <locationLabels>
      <type>CNTRY</type>
      <id>FIPS:US</id>
      <displayName>United States</displayName>
    </locationLabels>
    <coverage>0.9158</coverage>
  </station>
  <station>
    <id>GHCND:US1ALHL0002</id>
    <displayName>MOUNDVILLE 1.9 NNW, AL US</displayName>
    <minDate>2007-12-03</minDate>
    <maxDate>2011-01-04</maxDate>
    <latitude>33.02</latitude>
    <longitude>-87.645</longitude>
    <elevation>36</elevation>
    <locationLabels>
      <type>CNTRY</type>
      <id>FIPS:US</id>
      <displayName>United States</displayName>
    </locationLabels>
    <coverage>0.6227</coverage>
  </station>
  <station>
    <id>GHCND:USC00015658</id>
    <displayName>MOUNDVILLE, AL US</displayName>
    <minDate>1981-12-01</minDate>
    <maxDate>2012-11-30</maxDate>
    <latitude>32.99639</latitude>
    <longitude>-87.63194</longitude>
    <elevation>36.6</elevation>
    <locationLabels>
      <type>CNTRY</type>
      <id>FIPS:US</id>
      <displayName>United States</displayName>
    </locationLabels>
    <coverage>0.9086</coverage>
  </station>
  <station>
    <id>GHCND:USC00455659</id>
    <displayName>MOUNT ADAMS RANGER STATION, WA US</displayName>
    <minDate>1909-11-01</minDate>
    <maxDate>2013-01-15</maxDate>
    <latitude>45.9997</latitude>
    <longitude>-121.5403</longitude>
    <elevation>594.4</elevation>
    <locationLabels>
      <type>CNTRY</type>
      <id>FIPS:US</id>
      <displayName>United States</displayName>
    </locationLabels>
    <coverage>0.7795</coverage>
  </station>
  <station>
    <id>GHCND:USC00175530</id>
    <displayName>MOUNT AGAMENTICUS, ME US</displayName>
    <minDate>1929-04-01</minDate>
    <maxDate>1934-09-30</maxDate>
    <latitude>43.216667</latitude>
    <longitude>-70.7</longitude>
    <elevation>210.9</elevation>
    <locationLabels>
      <type>CNTRY</type>
      <id>FIPS:US</id>
      <displayName>United States</displayName>
    </locationLabels>
    <coverage>0.4525</coverage>
  </station>
  <station>
    <id>GHCND:US1MDCR0003</id>
    <displayName>MOUNT AIRY 0.2 SE, MD US</displayName>
    <minDate>2006-02-11</minDate>
    <maxDate>2012-12-25</maxDate>
    <latitude>39.3715</latitude>
    <longitude>-77.1567</longitude>
    <elevation>253</elevation>
    <locationLabels>
      <type>CNTRY</type>
      <id>FIPS:US</id>
      <displayName>United States</displayName>
    </locationLabels>
    <coverage>0.3382</coverage>
  </station>
  <station>
    <id>GHCND:USC00315890</id>
    <displayName>MOUNT AIRY 2 W, NC US</displayName>
    <minDate>1893-01-01</minDate>
    <maxDate>2013-01-16</maxDate>
    <latitude>36.4992</latitude>
    <longitude>-80.6508</longitude>
    <elevation>317.3</elevation>
    <locationLabels>
      <type>CNTRY</type>
      <id>FIPS:US</id>
      <displayName>United States</displayName>
    </locationLabels>
    <coverage>0.9745</coverage>
  </station>
  <station>
    <id>GHCND:US1NCSR0004</id>
    <displayName>MOUNT AIRY 4.3 W, NC US</displayName>
    <minDate>2008-07-05</minDate>
    <maxDate>2013-01-16</maxDate>
    <latitude>36.4941</latitude>
    <longitude>-80.6896</longitude>
    <elevation>389.5</elevation>
    <locationLabels>
      <type>CNTRY</type>
      <id>FIPS:US</id>
      <displayName>United States</displayName>
    </locationLabels>
    <coverage>0.965</coverage>
  </station>
  <station>
    <id>GHCND:USC00355770</id>
    <displayName>MOUNT ANGEL, OR US</displayName>
    <minDate>1893-01-01</minDate>
    <maxDate>1926-08-31</maxDate>
    <latitude>45.06667</latitude>
    <longitude>-122.75</longitude>
    <elevation>149</elevation>
    <locationLabels>
      <type>CNTRY</type>
      <id>FIPS:US</id>
      <displayName>United States</displayName>
    </locationLabels>
    <coverage>0.9854</coverage>
  </station>
  <station>
    <id>GHCND:US1ILCN0005</id>
    <displayName>MOUNT AUBURN 0.1 SW, IL US</displayName>
    <minDate>2008-05-03</minDate>
    <maxDate>2010-09-09</maxDate>
    <latitude>39.7648</latitude>
    <longitude>-89.2625</longitude>
    <elevation>214</elevation>
    <locationLabels>
      <type>CNTRY</type>
      <id>FIPS:US</id>
      <displayName>United States</displayName>
    </locationLabels>
    <coverage>0.3756</coverage>
  </station>
  <station>
    <id>GHCND:US1INNW0001</id>
    <displayName>MOUNT AYR 1.6 NNE, IN US</displayName>
    <minDate>2006-04-12</minDate>
    <maxDate>2013-01-16</maxDate>
    <latitude>40.9733</latitude>
    <longitude>-87.2905</longitude>
    <elevation>206</elevation>
    <locationLabels>
      <type>CNTRY</type>
      <id>FIPS:US</id>
      <displayName>United States</displayName>
    </locationLabels>
    <coverage>0.9417</coverage>
  </station>
  <station>
    <id>GHCND:USC00135769</id>
    <displayName>MOUNT AYR, IA US</displayName>
    <minDate>1893-01-01</minDate>
    <maxDate>2013-01-16</maxDate>
    <latitude>40.7052</latitude>
    <longitude>-94.2427</longitude>
    <elevation>359.7</elevation>
    <locationLabels>
      <type>CNTRY</type>
      <id>FIPS:US</id>
      <displayName>United States</displayName>
    </locationLabels>
    <coverage>0.9446</coverage>
  </station>
  <station>
    <id>GHCND:USC00455663</id>
    <displayName>MOUNT BAKER LODGE, WA US</displayName>
    <minDate>1926-11-01</minDate>
    <maxDate>1952-12-31</maxDate>
    <latitude>48.86667</latitude>
    <longitude>-121.66667</longitude>
    <elevation>1266.1</elevation>
    <locationLabels>
      <type>CNTRY</type>
      <id>FIPS:US</id>
      <displayName>United States</displayName>
    </locationLabels>
    <coverage>0.627</coverage>
  </station>
  <station>
    <id>GHCND:USC00041373</id>
    <displayName>MOUNT BALDY FC 85 G, CA US</displayName>
    <minDate>1916-01-01</minDate>
    <maxDate>1958-06-30</maxDate>
    <latitude>34.23333</latitude>
    <longitude>-117.65</longitude>
    <elevation>1304.8</elevation>
    <locationLabels>
      <type>CNTRY</type>
      <id>FIPS:US</id>
      <displayName>United States</displayName>
    </locationLabels>
    <coverage>0.8952</coverage>
  </station>
  <station>
    <id>GHCND:USC00045900</id>
    <displayName>MOUNT BALDY FC 85 G, CA US</displayName>
    <minDate>1958-07-01</minDate>
    <maxDate>1976-09-30</maxDate>
    <latitude>34.23333</latitude>
    <longitude>-117.65</longitude>
    <elevation>1304.8</elevation>
    <locationLabels>
      <type>CNTRY</type>
      <id>FIPS:US</id>
      <displayName>United States</displayName>
    </locationLabels>
    <coverage>0.9948</coverage>
  </station>
  <station>
    <id>GHCND:USC00045901</id>
    <displayName>MOUNT BALDY NOTCH, CA US</displayName>
    <minDate>1961-07-27</minDate>
    <maxDate>1972-01-31</maxDate>
    <latitude>34.28333</latitude>
    <longitude>-117.61667</longitude>
    <elevation>2361</elevation>
    <locationLabels>
      <type>CNTRY</type>
      <id>FIPS:US</id>
      <displayName>United States</displayName>
    </locationLabels>
    <coverage>0.7756</coverage>
  </station>
  <station>
    <id>GHCND:USC00425906</id>
    <displayName>MOUNT BALDY RANGER STATION, UT US</displayName>
    <minDate>1923-07-01</minDate>
    <maxDate>1938-09-30</maxDate>
    <latitude>39.13333</latitude>
    <longitude>-111.5</longitude>
    <elevation>2898</elevation>
    <locationLabels>
      <type>CNTRY</type>
      <id>FIPS:US</id>
      <displayName>United States</displayName>
    </locationLabels>
    <coverage>0.2644</coverage>
  </station>
  <station>
    <id>GHCND:USC00045903</id>
    <displayName>MOUNT BECKENRIDGE, CA US</displayName>
    <minDate>1954-05-05</minDate>
    <maxDate>1957-10-31</maxDate>
    <latitude>35.45</latitude>
    <longitude>-118.58333</longitude>
    <elevation>2283.9</elevation>
    <locationLabels>
      <type>CNTRY</type>
      <id>FIPS:US</id>
      <displayName>United States</displayName>
    </locationLabels>
    <coverage>0.8009</coverage>
  </station>
  <station>
    <id>GHCND:USC00175550</id>
    <displayName>MOUNT BIGELOW, ME US</displayName>
    <minDate>1929-06-01</minDate>
    <maxDate>1938-09-30</maxDate>
    <latitude>45.133333</latitude>
    <longitude>-70.283333</longitude>
    <elevation>1264.9</elevation>
    <locationLabels>
      <type>CNTRY</type>
      <id>FIPS:US</id>
      <displayName>United States</displayName>
    </locationLabels>
    <coverage>0.3136</coverage>
  </station>
  <station>
    <id>GHCND:USC00455664</id>
    <displayName>MOUNT BONAPART, WA US</displayName>
    <minDate>1914-08-01</minDate>
    <maxDate>1916-12-12</maxDate>
    <latitude>48.283333</latitude>
    <longitude>-119.15</longitude>
    <elevation>1219.2</elevation>
    <locationLabels>
      <type>CNTRY</type>
      <id>FIPS:US</id>
      <displayName>United States</displayName>
    </locationLabels>
    <coverage>0.1283</coverage>
  </station>
  <station>
    <id>GHCND:US1PANM0002</id>
    <displayName>MOUNT CARMEL 1.1 WNW, PA US</displayName>
    <minDate>2011-09-27</minDate>
    <maxDate>2012-12-30</maxDate>
    <latitude>40.799</latitude>
    <longitude>-76.4322</longitude>
    <elevation>335.6</elevation>
    <locationLabels>
      <type>CNTRY</type>
      <id>FIPS:US</id>
      <displayName>United States</displayName>
    </locationLabels>
    <coverage>0.4273</coverage>
  </station>
  <station>
    <id>GHCND:USC00115893</id>
    <displayName>MOUNT CARMEL 4 NW, IL US</displayName>
    <minDate>1902-01-01</minDate>
    <maxDate>1977-03-31</maxDate>
    <latitude>38.45</latitude>
    <longitude>-87.78333</longitude>
    <elevation>143</elevation>
    <locationLabels>
      <type>CNTRY</type>
      <id>FIPS:US</id>
      <displayName>United States</displayName>
    </locationLabels>
    <coverage>0.9579</coverage>
  </station>
  <station>
    <id>GHCND:USC00065077</id>
    <displayName>MOUNT CARMEL, CT US</displayName>
    <minDate>1936-02-01</minDate>
    <maxDate>2013-01-16</maxDate>
    <latitude>41.4075</latitude>
    <longitude>-72.90333</longitude>
    <elevation>54.9</elevation>
    <locationLabels>
      <type>CNTRY</type>
      <id>FIPS:US</id>
      <displayName>United States</displayName>
    </locationLabels>
    <coverage>0.8219</coverage>
  </station>
  <station>
    <id>GHCND:USC00115888</id>
    <displayName>MOUNT CARMEL, IL US</displayName>
    <minDate>1891-07-01</minDate>
    <maxDate>2012-12-04</maxDate>
    <latitude>38.4105</latitude>
    <longitude>-87.7577</longitude>
    <elevation>131.1</elevation>
    <locationLabels>
      <type>CNTRY</type>
      <id>FIPS:US</id>
      <displayName>United States</displayName>
    </locationLabels>
    <coverage>0.7725</coverage>
  </station>
  <station>
    <id>GHCND:US1ILCR0009</id>
    <displayName>MOUNT CARROLL 5.0 SSE, IL US</displayName>
    <minDate>2008-06-21</minDate>
    <maxDate>2009-07-30</maxDate>
    <latitude>42.0346</latitude>
    <longitude>-89.9248</longitude>
    <elevation>237.1</elevation>
    <locationLabels>
      <type>CNTRY</type>
      <id>FIPS:US</id>
      <displayName>United States</displayName>
    </locationLabels>
    <coverage>0.2889</coverage>
  </station>
  <station>
    <id>GHCND:USC00115901</id>
    <displayName>MOUNT CARROLL, IL US</displayName>
    <minDate>1895-04-20</minDate>
    <maxDate>2013-01-16</maxDate>
    <latitude>42.098</latitude>
    <longitude>-89.9841</longitude>
    <elevation>195.1</elevation>
    <locationLabels>
      <type>CNTRY</type>
      <id>FIPS:US</id>
      <displayName>United States</displayName>
    </locationLabels>
    <coverage>0.9914</coverage>
  </station>
  <station>
    <id>GHCND:USC00265400</id>
    <displayName>MOUNT CHARLESTON F.S., NV US</displayName>
    <minDate>1949-01-01</minDate>
    <maxDate>2013-01-16</maxDate>
    <latitude>36.2599</latitude>
    <longitude>-115.645</longitude>
    <elevation>2273.8</elevation>
    <locationLabels>
      <type>CNTRY</type>
      <id>FIPS:US</id>
      <displayName>United States</displayName>
    </locationLabels>
    <coverage>0.267</coverage>
  </station>
  <station>
    <id>GHCND:USC00466276</id>
    <displayName>MOUNT CLARE, WV US</displayName>
    <minDate>1937-03-01</minDate>
    <maxDate>1954-11-30</maxDate>
    <latitude>39.21667</latitude>
    <longitude>-80.33333</longitude>
    <elevation>317</elevation>
    <locationLabels>
      <type>CNTRY</type>
      <id>FIPS:US</id>
      <displayName>United States</displayName>
    </locationLabels>
    <coverage>0.9514</coverage>
  </station>
  <station>
    <id>GHCND:USW00014804</id>
    <displayName>MOUNT CLEMENS SELFRIDGE FIELD, MI US</displayName>
    <minDate>1896-08-01</minDate>
    <maxDate>2012-11-30</maxDate>
    <latitude>42.6083</latitude>
    <longitude>-82.8183</longitude>
    <elevation>176.8</elevation>
    <locationLabels>
      <type>CNTRY</type>
      <id>FIPS:US</id>
      <displayName>United States</displayName>
    </locationLabels>
    <coverage>0.9348</coverage>
  </station>
  <station>
    <id>GHCND:USC00395854</id>
    <displayName>MOUNT COOLIDGE, SD US</displayName>
    <minDate>1952-10-01</minDate>
    <maxDate>1975-02-28</maxDate>
    <latitude>43.75</latitude>
    <longitude>-103.48333</longitude>
    <elevation>1951</elevation>
    <locationLabels>
      <type>CNTRY</type>
      <id>FIPS:US</id>
      <displayName>United States</displayName>
    </locationLabels>
    <coverage>0.9601</coverage>
  </station>
  <station>
    <id>GHCND:USS0023B06S</id>
    <displayName>MOUNT CRAG, WA US</displayName>
    <minDate>1989-10-01</minDate>
    <maxDate>2013-01-13</maxDate>
    <latitude>47.75</latitude>
    <longitude>-123</longitude>
    <elevation>1234.4</elevation>
    <locationLabels>
      <type>CNTRY</type>
      <id>FIPS:US</id>
      <displayName>United States</displayName>
    </locationLabels>
    <coverage>0.954</coverage>
  </station>
  <station>
    <id>GHCND:US1COGN0030</id>
    <displayName>MOUNT CRESTED BUTTE 0.3 ENE, CO US</displayName>
    <minDate>2008-09-06</minDate>
    <maxDate>2010-03-17</maxDate>
    <latitude>38.9103</latitude>
    <longitude>-106.9623</longitude>
    <elevation>2941</elevation>
    <locationLabels>
      <type>CNTRY</type>
      <id>FIPS:US</id>
      <displayName>United States</displayName>
    </locationLabels>
    <coverage>0.7509</coverage>
  </station>
  <station>
    <id>GHCND:USC00045909</id>
    <displayName>MOUNT DANAHER, CA US</displayName>
    <minDate>1943-10-01</minDate>
    <maxDate>1973-05-31</maxDate>
    <latitude>38.75</latitude>
    <longitude>-120.66667</longitude>
    <elevation>1040</elevation>
    <locationLabels>
      <type>CNTRY</type>
      <id>FIPS:US</id>
      <displayName>United States</displayName>
    </locationLabels>
    <coverage>0.9308</coverage>
  </station>
  <station>
    <id>GHCND:USC00366022</id>
    <displayName>MOUNT DAVIS, PA US</displayName>
    <minDate>1996-09-01</minDate>
    <maxDate>2011-04-12</maxDate>
    <latitude>39.7996</latitude>
    <longitude>-79.1884</longitude>
    <elevation>832.1</elevation>
    <locationLabels>
      <type>CNTRY</type>
      <id>FIPS:US</id>
      <displayName>United States</displayName>
    </locationLabels>
    <coverage>0.9376</coverage>
  </station>
  <station>
    <id>GHCND:USR0000CMTD</id>
    <displayName>MOUNT DIABLO CALIFORNIA, CA US</displayName>
    <minDate>2000-07-14</minDate>
    <maxDate>2012-08-30</maxDate>
    <latitude>37.8817</latitude>
    <longitude>-121.9142</longitude>
    <elevation>1173.2</elevation>
    <locationLabels>
      <type>CNTRY</type>
      <id>FIPS:US</id>
      <displayName>United States</displayName>
    </locationLabels>
    <coverage>0.9179</coverage>
  </station>
  <station>
    <id>GHCND:USC00045915</id>
    <displayName>MOUNT DIABLO JUNCTION, CA US</displayName>
    <minDate>1952-04-01</minDate>
    <maxDate>2013-01-15</maxDate>
    <latitude>37.8792</latitude>
    <longitude>-121.9303</longitude>
    <elevation>661.4</elevation>
    <locationLabels>
      <type>CNTRY</type>
      <id>FIPS:US</id>
      <displayName>United States</displayName>
    </locationLabels>
    <coverage>0.9868</coverage>
  </station>
  <station>
    <id>GHCND:USC00295950</id>
    <displayName>MOUNT DORA, NM US</displayName>
    <minDate>1910-09-01</minDate>
    <maxDate>1912-09-30</maxDate>
    <latitude>36.466667</latitude>
    <longitude>-103.45</longitude>
    <elevation>1676.4</elevation>
    <locationLabels>
      <type>CNTRY</type>
      <id>FIPS:US</id>
      <displayName>United States</displayName>
    </locationLabels>
    <coverage>1</coverage>
  </station>
  <station>
    <id>GHCND:USR0000CELI</id>
    <displayName>MOUNT ELIZABETH CALIFORNIA, CA US</displayName>
    <minDate>1999-07-01</minDate>
    <maxDate>2012-08-30</maxDate>
    <latitude>38.0631</latitude>
    <longitude>-120.2469</longitude>
    <elevation>1503.6</elevation>
    <locationLabels>
      <type>CNTRY</type>
      <id>FIPS:US</id>
      <displayName>United States</displayName>
    </locationLabels>
    <coverage>0.9462</coverage>
  </station>
  <station>
    <id>GHCND:USC00055797</id>
    <displayName>MOUNT EVANS RESEARCH STATION, CO US</displayName>
    <minDate>1983-11-01</minDate>
    <maxDate>1999-11-29</maxDate>
    <latitude>39.65611</latitude>
    <longitude>-105.59972</longitude>
    <elevation>3240</elevation>
    <locationLabels>
      <type>CNTRY</type>
      <id>FIPS:US</id>
      <displayName>United States</displayName>
    </locationLabels>
    <coverage>0.9545</coverage>
  </station>
  <station>
    <id>GHCND:USC00025729</id>
    <displayName>MOUNT FAGAN RANCH, AZ US</displayName>
    <minDate>1956-05-01</minDate>
    <maxDate>1967-07-31</maxDate>
    <latitude>31.93333</latitude>
    <longitude>-110.76667</longitude>
    <elevation>1147</elevation>
    <locationLabels>
      <type>CNTRY</type>
      <id>FIPS:US</id>
      <displayName>United States</displayName>
    </locationLabels>
    <coverage>0.6128</coverage>
  </station>
  <station>
    <id>GHCND:USC00020640</id>
    <displayName>MOUNT FAGAN RANCH, AZ US</displayName>
    <minDate>1948-07-01</minDate>
    <maxDate>1956-04-30</maxDate>
    <latitude>31.93333</latitude>
    <longitude>-110.76667</longitude>
    <elevation>1147</elevation>
    <locationLabels>
      <type>CNTRY</type>
      <id>FIPS:US</id>
      <displayName>United States</displayName>
    </locationLabels>
    <coverage>0.9724</coverage>
  </station>
  <station>
    <id>GHCND:USC00355788</id>
    <displayName>MOUNT FANNY, OR US</displayName>
    <minDate>1965-10-01</minDate>
    <maxDate>1975-02-28</maxDate>
    <latitude>45.31667</latitude>
    <longitude>-117.73333</longitude>
    <elevation>2140.9</elevation>
    <locationLabels>
      <type>CNTRY</type>
      <id>FIPS:US</id>
      <displayName>United States</displayName>
    </locationLabels>
    <coverage>0.9697</coverage>
  </station>
  <station>
    <id>GHCND:USS0021B21S</id>
    <displayName>MOUNT GARDNER, WA US</displayName>
    <minDate>1993-10-01</minDate>
    <maxDate>2013-01-13</maxDate>
    <latitude>47.35</latitude>
    <longitude>-121.5667</longitude>
    <elevation>914.4</elevation>
    <locationLabels>
      <type>CNTRY</type>
      <id>FIPS:US</id>
      <displayName>United States</displayName>
    </locationLabels>
    <coverage>0.96</coverage>
  </station>
  <station>
    <id>GHCND:USC00315898</id>
    <displayName>MOUNT GILEAD 4 W, NC US</displayName>
    <minDate>1930-01-01</minDate>
    <maxDate>2013-01-16</maxDate>
    <latitude>35.2078</latitude>
    <longitude>-80.0636</longitude>
    <elevation>67.1</elevation>
    <locationLabels>
      <type>CNTRY</type>
      <id>FIPS:US</id>
      <displayName>United States</displayName>
    </locationLabels>
    <coverage>0.4924</coverage>
  </station>
  <station>
    <id>GHCND:USC00335535</id>
    <displayName>MOUNT GILEAD LAKES P, OH US</displayName>
    <minDate>1952-05-25</minDate>
    <maxDate>1995-12-31</maxDate>
    <latitude>40.55</latitude>
    <longitude>-82.81667</longitude>
    <elevation>332.2</elevation>
    <locationLabels>
      <type>CNTRY</type>
      <id>FIPS:US</id>
      <displayName>United States</displayName>
    </locationLabels>
    <coverage>0.9399</coverage>
  </station>
</stationCollection>
