<?xml version="1.0" encoding="UTF-8" standalone="yes"?>
<stationCollection totalCount="46020" pageCount="461" pageSize="100" page="314">
  <station>
    <id>GHCND:US1IACL0002</id>
    <displayName>OSCEOLA 2.5 WSW, IA US</displayName>
    <minDate>2007-09-25</minDate>
    <maxDate>2013-01-16</maxDate>
    <latitude>41.0167</latitude>
    <longitude>-93.8175</longitude>
    <elevation>346.9</elevation>
    <locationLabels>
      <type>CNTRY</type>
      <id>FIPS:US</id>
      <displayName>United States</displayName>
    </locationLabels>
    <coverage>0.9067</coverage>
  </station>
  <station>
    <id>GHCND:USC00236407</id>
    <displayName>OSCEOLA 3 NE, MO US</displayName>
    <minDate>1893-04-01</minDate>
    <maxDate>1980-04-30</maxDate>
    <latitude>38.08333</latitude>
    <longitude>-93.65</longitude>
    <elevation>256</elevation>
    <locationLabels>
      <type>CNTRY</type>
      <id>FIPS:US</id>
      <displayName>United States</displayName>
    </locationLabels>
    <coverage>0.5327</coverage>
  </station>
  <station>
    <id>GHCND:US10polk011</id>
    <displayName>OSCEOLA 4.2 W, NE US</displayName>
    <minDate>2007-01-01</minDate>
    <maxDate>2009-10-21</maxDate>
    <latitude>41.1923</latitude>
    <longitude>-97.6275</longitude>
    <elevation>520</elevation>
    <locationLabels>
      <type>CNTRY</type>
      <id>FIPS:US</id>
      <displayName>United States</displayName>
    </locationLabels>
    <coverage>0.4693</coverage>
  </station>
  <station>
    <id>GHCND:US10polk012</id>
    <displayName>OSCEOLA 4.5 NE, NE US</displayName>
    <minDate>2007-03-01</minDate>
    <maxDate>2012-12-29</maxDate>
    <latitude>41.2359</latitude>
    <longitude>-97.5051</longitude>
    <elevation>509.9</elevation>
    <locationLabels>
      <type>CNTRY</type>
      <id>FIPS:US</id>
      <displayName>United States</displayName>
    </locationLabels>
    <coverage>0.6917</coverage>
  </station>
  <station>
    <id>GHCND:US10polk013</id>
    <displayName>OSCEOLA 6.9 N, NE US</displayName>
    <minDate>2007-05-01</minDate>
    <maxDate>2012-12-26</maxDate>
    <latitude>41.2372</latitude>
    <longitude>-97.5614</longitude>
    <elevation>467</elevation>
    <locationLabels>
      <type>CNTRY</type>
      <id>FIPS:US</id>
      <displayName>United States</displayName>
    </locationLabels>
    <coverage>0.5835</coverage>
  </station>
  <station>
    <id>GHCND:USC00256376</id>
    <displayName>OSCEOLA 9 W, NE US</displayName>
    <minDate>1948-08-01</minDate>
    <maxDate>1977-08-31</maxDate>
    <latitude>41.18333</latitude>
    <longitude>-97.71667</longitude>
    <elevation>509</elevation>
    <locationLabels>
      <type>CNTRY</type>
      <id>FIPS:US</id>
      <displayName>United States</displayName>
    </locationLabels>
    <coverage>0.996</coverage>
  </station>
  <station>
    <id>GHCND:USC00035480</id>
    <displayName>OSCEOLA, AR US</displayName>
    <minDate>1892-01-01</minDate>
    <maxDate>1975-04-30</maxDate>
    <latitude>35.71667</latitude>
    <longitude>-89.98333</longitude>
    <elevation>75.9</elevation>
    <locationLabels>
      <type>CNTRY</type>
      <id>FIPS:US</id>
      <displayName>United States</displayName>
    </locationLabels>
    <coverage>0.7571</coverage>
  </station>
  <station>
    <id>GHCND:USC00136316</id>
    <displayName>OSCEOLA, IA US</displayName>
    <minDate>1894-06-01</minDate>
    <maxDate>2013-01-16</maxDate>
    <latitude>41.0194</latitude>
    <longitude>-93.7502</longitude>
    <elevation>313.3</elevation>
    <locationLabels>
      <type>CNTRY</type>
      <id>FIPS:US</id>
      <displayName>United States</displayName>
    </locationLabels>
    <coverage>0.7033</coverage>
  </station>
  <station>
    <id>GHCND:USC00476320</id>
    <displayName>OSCEOLA, MN US</displayName>
    <minDate>1893-01-01</minDate>
    <maxDate>1921-01-31</maxDate>
    <latitude>45.36667</latitude>
    <longitude>-92.75</longitude>
    <elevation>245.7</elevation>
    <locationLabels>
      <type>CNTRY</type>
      <id>FIPS:US</id>
      <displayName>United States</displayName>
    </locationLabels>
    <coverage>0.7947</coverage>
  </station>
  <station>
    <id>GHCND:USC00236402</id>
    <displayName>OSCEOLA, MO US</displayName>
    <minDate>1955-11-01</minDate>
    <maxDate>2012-11-30</maxDate>
    <latitude>38.0492</latitude>
    <longitude>-93.7036</longitude>
    <elevation>217</elevation>
    <locationLabels>
      <type>CNTRY</type>
      <id>FIPS:US</id>
      <displayName>United States</displayName>
    </locationLabels>
    <coverage>0.9697</coverage>
  </station>
  <station>
    <id>GHCND:USC00256375</id>
    <displayName>OSCEOLA, NE US</displayName>
    <minDate>1895-07-01</minDate>
    <maxDate>2013-01-15</maxDate>
    <latitude>41.1838</latitude>
    <longitude>-97.5499</longitude>
    <elevation>499.9</elevation>
    <locationLabels>
      <type>CNTRY</type>
      <id>FIPS:US</id>
      <displayName>United States</displayName>
    </locationLabels>
    <coverage>0.9269</coverage>
  </station>
  <station>
    <id>GHCND:USC00265824</id>
    <displayName>OSCEOLA, NV US</displayName>
    <minDate>1893-11-01</minDate>
    <maxDate>1898-09-30</maxDate>
    <latitude>39.1</latitude>
    <longitude>-114.4</longitude>
    <elevation>1981.2</elevation>
    <locationLabels>
      <type>CNTRY</type>
      <id>FIPS:US</id>
      <displayName>United States</displayName>
    </locationLabels>
    <coverage>0.902</coverage>
  </station>
  <station>
    <id>GHCND:USC00206253</id>
    <displayName>OSCODA FOOTE DAM, MI US</displayName>
    <minDate>1926-08-01</minDate>
    <maxDate>1938-12-31</maxDate>
    <latitude>44.433333</latitude>
    <longitude>-83.45</longitude>
    <elevation>192.6</elevation>
    <locationLabels>
      <type>CNTRY</type>
      <id>FIPS:US</id>
      <displayName>United States</displayName>
    </locationLabels>
    <coverage>0.9976</coverage>
  </station>
  <station>
    <id>GHCND:USW00014808</id>
    <displayName>OSCODA WURTSMITH AIRPORT, MI US</displayName>
    <minDate>1951-01-01</minDate>
    <maxDate>1970-12-31</maxDate>
    <latitude>44.45</latitude>
    <longitude>-83.4</longitude>
    <elevation>192.9</elevation>
    <locationLabels>
      <type>CNTRY</type>
      <id>FIPS:US</id>
      <displayName>United States</displayName>
    </locationLabels>
    <coverage>0.9999</coverage>
  </station>
  <station>
    <id>GHCND:USC00296442</id>
    <displayName>OSCURO NUMBER 1, NM US</displayName>
    <minDate>1908-09-01</minDate>
    <maxDate>1920-12-31</maxDate>
    <latitude>33.48333</latitude>
    <longitude>-106.05</longitude>
    <elevation>1542.3</elevation>
    <locationLabels>
      <type>CNTRY</type>
      <id>FIPS:US</id>
      <displayName>United States</displayName>
    </locationLabels>
    <coverage>0.9998</coverage>
  </station>
  <station>
    <id>GHCND:USC00296443</id>
    <displayName>OSCURO NUMBER 2, NM US</displayName>
    <minDate>1909-07-01</minDate>
    <maxDate>1927-10-14</maxDate>
    <latitude>33.483333</latitude>
    <longitude>-106.05</longitude>
    <elevation>1528.9</elevation>
    <locationLabels>
      <type>CNTRY</type>
      <id>FIPS:US</id>
      <displayName>United States</displayName>
    </locationLabels>
    <coverage>0.989</coverage>
  </station>
  <station>
    <id>GHCND:US1INRP0004</id>
    <displayName>OSGOOD 4.1 NE, IN US</displayName>
    <minDate>2009-02-11</minDate>
    <maxDate>2013-01-16</maxDate>
    <latitude>39.1692</latitude>
    <longitude>-85.2361</longitude>
    <elevation>290.2</elevation>
    <locationLabels>
      <type>CNTRY</type>
      <id>FIPS:US</id>
      <displayName>United States</displayName>
    </locationLabels>
    <coverage>0.9972</coverage>
  </station>
  <station>
    <id>GHCND:USC00126625</id>
    <displayName>OSGOOD, IN US</displayName>
    <minDate>1961-12-05</minDate>
    <maxDate>1968-05-31</maxDate>
    <latitude>39.13333</latitude>
    <longitude>-85.28333</longitude>
    <elevation>281</elevation>
    <locationLabels>
      <type>CNTRY</type>
      <id>FIPS:US</id>
      <displayName>United States</displayName>
    </locationLabels>
    <coverage>0.9979</coverage>
  </station>
  <station>
    <id>GHCND:US10gard011</id>
    <displayName>OSHKOSH 0.1 SSE, NE US</displayName>
    <minDate>2008-04-17</minDate>
    <maxDate>2012-10-25</maxDate>
    <latitude>41.4039</latitude>
    <longitude>-102.3447</longitude>
    <elevation>1035.1</elevation>
    <locationLabels>
      <type>CNTRY</type>
      <id>FIPS:US</id>
      <displayName>United States</displayName>
    </locationLabels>
    <coverage>0.5929</coverage>
  </station>
  <station>
    <id>GHCND:US1WIWN0001</id>
    <displayName>OSHKOSH 1.2 SW, WI US</displayName>
    <minDate>2007-03-03</minDate>
    <maxDate>2010-09-16</maxDate>
    <latitude>44.0073</latitude>
    <longitude>-88.5725</longitude>
    <elevation>235</elevation>
    <locationLabels>
      <type>CNTRY</type>
      <id>FIPS:US</id>
      <displayName>United States</displayName>
    </locationLabels>
    <coverage>0.5433</coverage>
  </station>
  <station>
    <id>GHCND:US1WIWN0004</id>
    <displayName>OSHKOSH 1.3 NNE, WI US</displayName>
    <minDate>2007-03-20</minDate>
    <maxDate>2013-01-12</maxDate>
    <latitude>44.035</latitude>
    <longitude>-88.5435</longitude>
    <elevation>235.9</elevation>
    <locationLabels>
      <type>CNTRY</type>
      <id>FIPS:US</id>
      <displayName>United States</displayName>
    </locationLabels>
    <coverage>0.9958</coverage>
  </station>
  <station>
    <id>GHCND:USC00256386</id>
    <displayName>OSHKOSH 10 NE, NE US</displayName>
    <minDate>2011-01-20</minDate>
    <maxDate>2012-11-11</maxDate>
    <latitude>41.4952</latitude>
    <longitude>-102.1844</longitude>
    <elevation>1074.4</elevation>
    <locationLabels>
      <type>CNTRY</type>
      <id>FIPS:US</id>
      <displayName>United States</displayName>
    </locationLabels>
    <coverage>0.1495</coverage>
  </station>
  <station>
    <id>GHCND:US1WIWN0005</id>
    <displayName>OSHKOSH 5.2 N, WI US</displayName>
    <minDate>2007-04-20</minDate>
    <maxDate>2013-01-16</maxDate>
    <latitude>44.0935</latitude>
    <longitude>-88.5531</longitude>
    <elevation>235.9</elevation>
    <locationLabels>
      <type>CNTRY</type>
      <id>FIPS:US</id>
      <displayName>United States</displayName>
    </locationLabels>
    <coverage>0.7651</coverage>
  </station>
  <station>
    <id>GHCND:US10gard002</id>
    <displayName>OSHKOSH 5.2 W, NE US</displayName>
    <minDate>2007-03-26</minDate>
    <maxDate>2008-06-06</maxDate>
    <latitude>41.4093</latitude>
    <longitude>-102.4439</longitude>
    <elevation>1042.1</elevation>
    <locationLabels>
      <type>CNTRY</type>
      <id>FIPS:US</id>
      <displayName>United States</displayName>
    </locationLabels>
    <coverage>0.3872</coverage>
  </station>
  <station>
    <id>GHCND:US1WIWN0002</id>
    <displayName>OSHKOSH 5.6 S, WI US</displayName>
    <minDate>2007-03-02</minDate>
    <maxDate>2013-01-16</maxDate>
    <latitude>43.9375</latitude>
    <longitude>-88.5425</longitude>
    <elevation>242</elevation>
    <locationLabels>
      <type>CNTRY</type>
      <id>FIPS:US</id>
      <displayName>United States</displayName>
    </locationLabels>
    <coverage>0.8464</coverage>
  </station>
  <station>
    <id>GHCND:USC00256390</id>
    <displayName>OSHKOSH 8 SW, NE US</displayName>
    <minDate>1952-01-01</minDate>
    <maxDate>2012-11-30</maxDate>
    <latitude>41.3038</latitude>
    <longitude>-102.4375</longitude>
    <elevation>1167.4</elevation>
    <locationLabels>
      <type>CNTRY</type>
      <id>FIPS:US</id>
      <displayName>United States</displayName>
    </locationLabels>
    <coverage>0.9924</coverage>
  </station>
  <station>
    <id>GHCND:USW00094855</id>
    <displayName>OSHKOSH WITTMAN REGIONAL AIRPORT, WI US</displayName>
    <minDate>1996-07-01</minDate>
    <maxDate>2013-01-14</maxDate>
    <latitude>43.98444</latitude>
    <longitude>-88.55694</longitude>
    <elevation>238.4</elevation>
    <locationLabels>
      <type>CNTRY</type>
      <id>FIPS:US</id>
      <displayName>United States</displayName>
    </locationLabels>
    <coverage>0.9929</coverage>
  </station>
  <station>
    <id>GHCND:USC00256385</id>
    <displayName>OSHKOSH, NE US</displayName>
    <minDate>1913-06-01</minDate>
    <maxDate>2012-11-30</maxDate>
    <latitude>41.4014</latitude>
    <longitude>-102.3465</longitude>
    <elevation>1033.3</elevation>
    <locationLabels>
      <type>CNTRY</type>
      <id>FIPS:US</id>
      <displayName>United States</displayName>
    </locationLabels>
    <coverage>0.9967</coverage>
  </station>
  <station>
    <id>GHCND:USC00476330</id>
    <displayName>OSHKOSH, WI US</displayName>
    <minDate>1893-01-01</minDate>
    <maxDate>2013-01-16</maxDate>
    <latitude>44.02056</latitude>
    <longitude>-88.55806</longitude>
    <elevation>228.6</elevation>
    <locationLabels>
      <type>CNTRY</type>
      <id>FIPS:US</id>
      <displayName>United States</displayName>
    </locationLabels>
    <coverage>0.9716</coverage>
  </station>
  <station>
    <id>GHCND:USC00486960</id>
    <displayName>OSHOTO 15 NW, WY US</displayName>
    <minDate>1969-01-01</minDate>
    <maxDate>1981-10-28</maxDate>
    <latitude>44.78333</latitude>
    <longitude>-105.08333</longitude>
    <elevation>1219.5</elevation>
    <locationLabels>
      <type>CNTRY</type>
      <id>FIPS:US</id>
      <displayName>United States</displayName>
    </locationLabels>
    <coverage>0.9739</coverage>
  </station>
  <station>
    <id>GHCND:USC00486952</id>
    <displayName>OSHOTO, WY US</displayName>
    <minDate>1926-02-15</minDate>
    <maxDate>1958-06-30</maxDate>
    <latitude>44.58333</latitude>
    <longitude>-104.93333</longitude>
    <elevation>1257</elevation>
    <locationLabels>
      <type>CNTRY</type>
      <id>FIPS:US</id>
      <displayName>United States</displayName>
    </locationLabels>
    <coverage>0.2123</coverage>
  </station>
  <station>
    <id>GHCND:US1IAMH0004</id>
    <displayName>OSKALOOSA 1.4 SSW, IA US</displayName>
    <minDate>2008-07-30</minDate>
    <maxDate>2011-08-20</maxDate>
    <latitude>41.274</latitude>
    <longitude>-92.6504</longitude>
    <elevation>240.2</elevation>
    <locationLabels>
      <type>CNTRY</type>
      <id>FIPS:US</id>
      <displayName>United States</displayName>
    </locationLabels>
    <coverage>0.3742</coverage>
  </station>
  <station>
    <id>GHCND:USC00146100</id>
    <displayName>OSKALOOSA 4 NE, KS US</displayName>
    <minDate>1958-12-01</minDate>
    <maxDate>2011-01-31</maxDate>
    <latitude>39.24194</latitude>
    <longitude>-95.2725</longitude>
    <elevation>338</elevation>
    <locationLabels>
      <type>CNTRY</type>
      <id>FIPS:US</id>
      <displayName>United States</displayName>
    </locationLabels>
    <coverage>0.9919</coverage>
  </station>
  <station>
    <id>GHCND:USC00136327</id>
    <displayName>OSKALOOSA, IA US</displayName>
    <minDate>1893-01-01</minDate>
    <maxDate>2013-01-16</maxDate>
    <latitude>41.3213</latitude>
    <longitude>-92.6466</longitude>
    <elevation>253</elevation>
    <locationLabels>
      <type>CNTRY</type>
      <id>FIPS:US</id>
      <displayName>United States</displayName>
    </locationLabels>
    <coverage>0.9819</coverage>
  </station>
  <station>
    <id>GHCND:USC00146098</id>
    <displayName>OSKALOOSA, KS US</displayName>
    <minDate>1912-12-01</minDate>
    <maxDate>1917-11-30</maxDate>
    <latitude>39.215277</latitude>
    <longitude>-95.31275</longitude>
    <elevation>341.1</elevation>
    <locationLabels>
      <type>CNTRY</type>
      <id>FIPS:US</id>
      <displayName>United States</displayName>
    </locationLabels>
    <coverage>0.8604</coverage>
  </station>
  <station>
    <id>GHCND:US1NDWH0002</id>
    <displayName>OSLO 2.7 WNW, ND US</displayName>
    <minDate>2010-02-27</minDate>
    <maxDate>2013-01-16</maxDate>
    <latitude>48.2025</latitude>
    <longitude>-97.1897</longitude>
    <elevation>247.2</elevation>
    <locationLabels>
      <type>CNTRY</type>
      <id>FIPS:US</id>
      <displayName>United States</displayName>
    </locationLabels>
    <coverage>0.8028</coverage>
  </station>
  <station>
    <id>GHCND:US10pier002</id>
    <displayName>OSMOND 6.3 WSW, NE US</displayName>
    <minDate>2007-01-01</minDate>
    <maxDate>2007-05-26</maxDate>
    <latitude>42.3216</latitude>
    <longitude>-97.7077</longitude>
    <elevation>513</elevation>
    <locationLabels>
      <type>CNTRY</type>
      <id>FIPS:US</id>
      <displayName>United States</displayName>
    </locationLabels>
    <coverage>0.9932</coverage>
  </station>
  <station>
    <id>GHCND:US10pier011</id>
    <displayName>OSMOND 7.8 E, NE US</displayName>
    <minDate>2007-05-22</minDate>
    <maxDate>2010-08-10</maxDate>
    <latitude>42.337</latitude>
    <longitude>-97.451</longitude>
    <elevation>535.8</elevation>
    <locationLabels>
      <type>CNTRY</type>
      <id>FIPS:US</id>
      <displayName>United States</displayName>
    </locationLabels>
    <coverage>0.2736</coverage>
  </station>
  <station>
    <id>GHCND:USC00256396</id>
    <displayName>OSMOND NUMBER 1, NE US</displayName>
    <minDate>2008-09-01</minDate>
    <maxDate>2013-01-08</maxDate>
    <latitude>42.3691</latitude>
    <longitude>-97.5983</longitude>
    <elevation>515.1</elevation>
    <locationLabels>
      <type>CNTRY</type>
      <id>FIPS:US</id>
      <displayName>United States</displayName>
    </locationLabels>
    <coverage>0.9566</coverage>
  </station>
  <station>
    <id>GHCND:USC00256395</id>
    <displayName>OSMOND, NE US</displayName>
    <minDate>1929-07-01</minDate>
    <maxDate>2010-07-22</maxDate>
    <latitude>42.3569</latitude>
    <longitude>-97.5969</longitude>
    <elevation>502.9</elevation>
    <locationLabels>
      <type>CNTRY</type>
      <id>FIPS:US</id>
      <displayName>United States</displayName>
    </locationLabels>
    <coverage>0.9503</coverage>
  </station>
  <station>
    <id>GHCND:US1INWL0001</id>
    <displayName>OSSIAN 2.3 ENE, IN US</displayName>
    <minDate>2006-10-10</minDate>
    <maxDate>2007-08-25</maxDate>
    <latitude>40.8881</latitude>
    <longitude>-85.1258</longitude>
    <elevation>249</elevation>
    <locationLabels>
      <type>CNTRY</type>
      <id>FIPS:US</id>
      <displayName>United States</displayName>
    </locationLabels>
    <coverage>1</coverage>
  </station>
  <station>
    <id>GHCND:US1MIAP0002</id>
    <displayName>OSSINEKE 1.0 NNE, MI US</displayName>
    <minDate>2012-04-18</minDate>
    <maxDate>2013-01-16</maxDate>
    <latitude>44.9215</latitude>
    <longitude>-83.427</longitude>
    <elevation>180.1</elevation>
    <locationLabels>
      <type>CNTRY</type>
      <id>FIPS:US</id>
      <displayName>United States</displayName>
    </locationLabels>
    <coverage>0.9015</coverage>
  </station>
  <station>
    <id>GHCND:USC00306301</id>
    <displayName>OSSINING SING SING, NY US</displayName>
    <minDate>1940-10-01</minDate>
    <maxDate>1959-08-31</maxDate>
    <latitude>41.15</latitude>
    <longitude>-73.86667</longitude>
    <elevation>9.1</elevation>
    <locationLabels>
      <type>CNTRY</type>
      <id>FIPS:US</id>
      <displayName>United States</displayName>
    </locationLabels>
    <coverage>0.9767</coverage>
  </station>
  <station>
    <id>GHCND:US1NHCR0008</id>
    <displayName>OSSIPEE 2.3 NNW, NH US</displayName>
    <minDate>2009-07-12</minDate>
    <maxDate>2012-10-01</maxDate>
    <latitude>43.7197</latitude>
    <longitude>-71.1258</longitude>
    <elevation>185.9</elevation>
    <locationLabels>
      <type>CNTRY</type>
      <id>FIPS:US</id>
      <displayName>United States</displayName>
    </locationLabels>
    <coverage>0.3625</coverage>
  </station>
  <station>
    <id>GHCND:USC00366636</id>
    <displayName>OSTERBURG, PA US</displayName>
    <minDate>1949-07-01</minDate>
    <maxDate>1951-05-31</maxDate>
    <latitude>40.16667</latitude>
    <longitude>-78.51667</longitude>
    <elevation>351.1</elevation>
    <locationLabels>
      <type>CNTRY</type>
      <id>FIPS:US</id>
      <displayName>United States</displayName>
    </locationLabels>
    <coverage>1</coverage>
  </station>
  <station>
    <id>GHCND:US1MNFM0006</id>
    <displayName>OSTRANDER 0.2 ESE, MN US</displayName>
    <minDate>2011-04-05</minDate>
    <maxDate>2012-12-31</maxDate>
    <latitude>43.613</latitude>
    <longitude>-92.4251</longitude>
    <elevation>408.4</elevation>
    <locationLabels>
      <type>CNTRY</type>
      <id>FIPS:US</id>
      <displayName>United States</displayName>
    </locationLabels>
    <coverage>0.9639</coverage>
  </station>
  <station>
    <id>GHCND:US1MNFM0003</id>
    <displayName>OSTRANDER 1.7 N, MN US</displayName>
    <minDate>2011-03-23</minDate>
    <maxDate>2011-12-12</maxDate>
    <latitude>43.6392</latitude>
    <longitude>-92.4299</longitude>
    <elevation>407.2</elevation>
    <locationLabels>
      <type>CNTRY</type>
      <id>FIPS:US</id>
      <displayName>United States</displayName>
    </locationLabels>
    <coverage>0.7811</coverage>
  </station>
  <station>
    <id>GHCND:USC00366649</id>
    <displayName>OSWAYO 1 ENE, PA US</displayName>
    <minDate>1991-09-01</minDate>
    <maxDate>2013-01-16</maxDate>
    <latitude>41.9167</latitude>
    <longitude>-78</longitude>
    <elevation>521.2</elevation>
    <locationLabels>
      <type>CNTRY</type>
      <id>FIPS:US</id>
      <displayName>United States</displayName>
    </locationLabels>
    <coverage>0.9931</coverage>
  </station>
  <station>
    <id>GHCND:USC00306306</id>
    <displayName>OSWEGATCHIE, NY US</displayName>
    <minDate>1903-03-01</minDate>
    <maxDate>1907-08-31</maxDate>
    <latitude>44.183333</latitude>
    <longitude>-75.066667</longitude>
    <elevation>396.2</elevation>
    <locationLabels>
      <type>CNTRY</type>
      <id>FIPS:US</id>
      <displayName>United States</displayName>
    </locationLabels>
    <coverage>0.6</coverage>
  </station>
  <station>
    <id>GHCND:US1NYOS0006</id>
    <displayName>OSWEGO 0.9 WNW, NY US</displayName>
    <minDate>2008-07-20</minDate>
    <maxDate>2012-12-30</maxDate>
    <latitude>43.465</latitude>
    <longitude>-76.5194</longitude>
    <elevation>75.9</elevation>
    <locationLabels>
      <type>CNTRY</type>
      <id>FIPS:US</id>
      <displayName>United States</displayName>
    </locationLabels>
    <coverage>0.6295</coverage>
  </station>
  <station>
    <id>GHCND:USC00146115</id>
    <displayName>OSWEGO 1 N, KS US</displayName>
    <minDate>1893-01-01</minDate>
    <maxDate>2012-11-30</maxDate>
    <latitude>37.1751</latitude>
    <longitude>-95.104</longitude>
    <elevation>254.5</elevation>
    <locationLabels>
      <type>CNTRY</type>
      <id>FIPS:US</id>
      <displayName>United States</displayName>
    </locationLabels>
    <coverage>0.7689</coverage>
  </station>
  <station>
    <id>GHCND:US1ILKD0018</id>
    <displayName>OSWEGO 1.3 SW, IL US</displayName>
    <minDate>2008-04-25</minDate>
    <maxDate>2010-10-25</maxDate>
    <latitude>41.6828</latitude>
    <longitude>-88.3482</longitude>
    <elevation>203.9</elevation>
    <locationLabels>
      <type>CNTRY</type>
      <id>FIPS:US</id>
      <displayName>United States</displayName>
    </locationLabels>
    <coverage>0.2243</coverage>
  </station>
  <station>
    <id>GHCND:US1ILKD0014</id>
    <displayName>OSWEGO 1.5 SW, IL US</displayName>
    <minDate>2008-02-01</minDate>
    <maxDate>2012-07-19</maxDate>
    <latitude>41.6816</latitude>
    <longitude>-88.3514</longitude>
    <elevation>195.1</elevation>
    <locationLabels>
      <type>CNTRY</type>
      <id>FIPS:US</id>
      <displayName>United States</displayName>
    </locationLabels>
    <coverage>0.1251</coverage>
  </station>
  <station>
    <id>GHCND:US1NYOS0024</id>
    <displayName>OSWEGO 2.5 S, NY US</displayName>
    <minDate>2012-04-21</minDate>
    <maxDate>2012-10-12</maxDate>
    <latitude>43.4228</latitude>
    <longitude>-76.5086</longitude>
    <elevation>116.4</elevation>
    <locationLabels>
      <type>CNTRY</type>
      <id>FIPS:US</id>
      <displayName>United States</displayName>
    </locationLabels>
    <coverage>0.92</coverage>
  </station>
  <station>
    <id>GHCND:US1ILKD0006</id>
    <displayName>OSWEGO 2.6 SSW, IL US</displayName>
    <minDate>2007-03-18</minDate>
    <maxDate>2007-09-30</maxDate>
    <latitude>41.6644</latitude>
    <longitude>-88.3556</longitude>
    <elevation>193.9</elevation>
    <locationLabels>
      <type>CNTRY</type>
      <id>FIPS:US</id>
      <displayName>United States</displayName>
    </locationLabels>
    <coverage>0.8477</coverage>
  </station>
  <station>
    <id>GHCND:US1NYOS0003</id>
    <displayName>OSWEGO 5.0 ESE, NY US</displayName>
    <minDate>2007-10-01</minDate>
    <maxDate>2013-01-16</maxDate>
    <latitude>43.4437</latitude>
    <longitude>-76.4052</longitude>
    <elevation>139</elevation>
    <locationLabels>
      <type>CNTRY</type>
      <id>FIPS:US</id>
      <displayName>United States</displayName>
    </locationLabels>
    <coverage>0.9866</coverage>
  </station>
  <station>
    <id>GHCND:US1ILKD0008</id>
    <displayName>OSWEGO 5.0 SSE, IL US</displayName>
    <minDate>2007-08-11</minDate>
    <maxDate>2009-05-09</maxDate>
    <latitude>41.6302</latitude>
    <longitude>-88.2967</longitude>
    <elevation>199</elevation>
    <locationLabels>
      <type>CNTRY</type>
      <id>FIPS:US</id>
      <displayName>United States</displayName>
    </locationLabels>
    <coverage>0.2633</coverage>
  </station>
  <station>
    <id>GHCND:US1ILKD0024</id>
    <displayName>OSWEGO 5.0 SSE, IL US</displayName>
    <minDate>2008-04-16</minDate>
    <maxDate>2013-01-16</maxDate>
    <latitude>41.6293</latitude>
    <longitude>-88.2991</longitude>
    <elevation>206</elevation>
    <locationLabels>
      <type>CNTRY</type>
      <id>FIPS:US</id>
      <displayName>United States</displayName>
    </locationLabels>
    <coverage>0.9217</coverage>
  </station>
  <station>
    <id>GHCND:USC00306314</id>
    <displayName>OSWEGO EAST, NY US</displayName>
    <minDate>1926-01-01</minDate>
    <maxDate>2012-11-30</maxDate>
    <latitude>43.4622</latitude>
    <longitude>-76.4934</longitude>
    <elevation>106.7</elevation>
    <locationLabels>
      <type>CNTRY</type>
      <id>FIPS:US</id>
      <displayName>United States</displayName>
    </locationLabels>
    <coverage>0.9966</coverage>
  </station>
  <station>
    <id>GHCND:USC00116509</id>
    <displayName>OSWEGO, IL US</displayName>
    <minDate>1893-01-01</minDate>
    <maxDate>1899-08-31</maxDate>
    <latitude>41.65</latitude>
    <longitude>-88.35</longitude>
    <elevation>182.9</elevation>
    <locationLabels>
      <type>CNTRY</type>
      <id>FIPS:US</id>
      <displayName>United States</displayName>
    </locationLabels>
    <coverage>0.9688</coverage>
  </station>
  <station>
    <id>GHCND:USC00306322</id>
    <displayName>OTEGO, NY US</displayName>
    <minDate>1948-05-01</minDate>
    <maxDate>1950-02-09</maxDate>
    <latitude>42.46667</latitude>
    <longitude>-75.2</longitude>
    <elevation>460.9</elevation>
    <locationLabels>
      <type>CNTRY</type>
      <id>FIPS:US</id>
      <displayName>United States</displayName>
    </locationLabels>
    <coverage>0.9538</coverage>
  </station>
  <station>
    <id>GHCND:USC00296458</id>
    <displayName>OTERO, NM US</displayName>
    <minDate>1909-11-29</minDate>
    <maxDate>1957-12-31</maxDate>
    <latitude>36.26667</latitude>
    <longitude>-107.38333</longitude>
    <elevation>2012.9</elevation>
    <locationLabels>
      <type>CNTRY</type>
      <id>FIPS:US</id>
      <displayName>United States</displayName>
    </locationLabels>
    <coverage>0.3954</coverage>
  </station>
  <station>
    <id>GHCND:US1WAAD0003</id>
    <displayName>OTHELLO 0.9 SE, WA US</displayName>
    <minDate>2009-05-02</minDate>
    <maxDate>2012-12-30</maxDate>
    <latitude>46.8111</latitude>
    <longitude>-119.1549</longitude>
    <elevation>332.5</elevation>
    <locationLabels>
      <type>CNTRY</type>
      <id>FIPS:US</id>
      <displayName>United States</displayName>
    </locationLabels>
    <coverage>0.3226</coverage>
  </station>
  <station>
    <id>GHCND:US1WAAD0005</id>
    <displayName>OTHELLO 1.0 NNE, WA US</displayName>
    <minDate>2009-05-01</minDate>
    <maxDate>2011-07-19</maxDate>
    <latitude>46.8321</latitude>
    <longitude>-119.1562</longitude>
    <elevation>341.4</elevation>
    <locationLabels>
      <type>CNTRY</type>
      <id>FIPS:US</id>
      <displayName>United States</displayName>
    </locationLabels>
    <coverage>0.9765</coverage>
  </station>
  <station>
    <id>GHCND:US1WAAD0002</id>
    <displayName>OTHELLO 2.7 SSW, WA US</displayName>
    <minDate>2009-04-29</minDate>
    <maxDate>2010-06-26</maxDate>
    <latitude>46.7849</latitude>
    <longitude>-119.1915</longitude>
    <elevation>303.3</elevation>
    <locationLabels>
      <type>CNTRY</type>
      <id>FIPS:US</id>
      <displayName>United States</displayName>
    </locationLabels>
    <coverage>0.5094</coverage>
  </station>
  <station>
    <id>GHCND:US1WAAD0004</id>
    <displayName>OTHELLO 2.8 SSW, WA US</displayName>
    <minDate>2009-05-02</minDate>
    <maxDate>2010-06-09</maxDate>
    <latitude>46.7838</latitude>
    <longitude>-119.1912</longitude>
    <elevation>302.1</elevation>
    <locationLabels>
      <type>CNTRY</type>
      <id>FIPS:US</id>
      <displayName>United States</displayName>
    </locationLabels>
    <coverage>0.3985</coverage>
  </station>
  <station>
    <id>GHCND:US1WAAD0006</id>
    <displayName>OTHELLO 4.8 SSW, WA US</displayName>
    <minDate>2009-05-03</minDate>
    <maxDate>2013-01-09</maxDate>
    <latitude>46.7611</latitude>
    <longitude>-119.2181</longitude>
    <elevation>259.7</elevation>
    <locationLabels>
      <type>CNTRY</type>
      <id>FIPS:US</id>
      <displayName>United States</displayName>
    </locationLabels>
    <coverage>0.9095</coverage>
  </station>
  <station>
    <id>GHCND:USC00456215</id>
    <displayName>OTHELLO 6 ESE, WA US</displayName>
    <minDate>1941-03-01</minDate>
    <maxDate>2002-10-31</maxDate>
    <latitude>46.78861</latitude>
    <longitude>-119.04611</longitude>
    <elevation>362.7</elevation>
    <locationLabels>
      <type>CNTRY</type>
      <id>FIPS:US</id>
      <displayName>United States</displayName>
    </locationLabels>
    <coverage>0.9058</coverage>
  </station>
  <station>
    <id>GHCND:USC00056192</id>
    <displayName>OTIS 11 NE, CO US</displayName>
    <minDate>1941-08-01</minDate>
    <maxDate>1989-01-31</maxDate>
    <latitude>40.26667</latitude>
    <longitude>-102.83333</longitude>
    <elevation>1274.1</elevation>
    <locationLabels>
      <type>CNTRY</type>
      <id>FIPS:US</id>
      <displayName>United States</displayName>
    </locationLabels>
    <coverage>0.9273</coverage>
  </station>
  <station>
    <id>GHCND:US1COWA0012</id>
    <displayName>OTIS 15 NNW, CO US</displayName>
    <minDate>2000-03-20</minDate>
    <maxDate>2005-11-18</maxDate>
    <latitude>40.361</latitude>
    <longitude>-103.0836</longitude>
    <elevation>1341.1</elevation>
    <locationLabels>
      <type>CNTRY</type>
      <id>FIPS:US</id>
      <displayName>United States</displayName>
    </locationLabels>
    <coverage>0.6459</coverage>
  </station>
  <station>
    <id>GHCND:US1COWA0051</id>
    <displayName>OTIS 17.9 N, CO US</displayName>
    <minDate>2005-04-01</minDate>
    <maxDate>2008-02-17</maxDate>
    <latitude>40.4084</latitude>
    <longitude>-103.0176</longitude>
    <elevation>1341.1</elevation>
    <locationLabels>
      <type>CNTRY</type>
      <id>FIPS:US</id>
      <displayName>United States</displayName>
    </locationLabels>
    <coverage>0.4834</coverage>
  </station>
  <station>
    <id>GHCND:USC00356366</id>
    <displayName>OTIS 2 NE, OR US</displayName>
    <minDate>1948-07-01</minDate>
    <maxDate>2012-11-30</maxDate>
    <latitude>45.0333</latitude>
    <longitude>-123.9238</longitude>
    <elevation>45.7</elevation>
    <locationLabels>
      <type>CNTRY</type>
      <id>FIPS:US</id>
      <displayName>United States</displayName>
    </locationLabels>
    <coverage>0.9935</coverage>
  </station>
  <station>
    <id>GHCND:US1COWA0019</id>
    <displayName>OTIS 5.0 NW, CO US</displayName>
    <minDate>2003-02-21</minDate>
    <maxDate>2006-09-23</maxDate>
    <latitude>40.2065</latitude>
    <longitude>-103.0191</longitude>
    <elevation>1348.1</elevation>
    <locationLabels>
      <type>CNTRY</type>
      <id>FIPS:US</id>
      <displayName>United States</displayName>
    </locationLabels>
    <coverage>0.3074</coverage>
  </station>
  <station>
    <id>GHCND:US1COWA0063</id>
    <displayName>OTIS 6.4 WNW, CO US</displayName>
    <minDate>2009-08-07</minDate>
    <maxDate>2012-08-02</maxDate>
    <latitude>40.1759</latitude>
    <longitude>-103.0785</longitude>
    <elevation>1358.2</elevation>
    <locationLabels>
      <type>CNTRY</type>
      <id>FIPS:US</id>
      <displayName>United States</displayName>
    </locationLabels>
    <coverage>0.1273</coverage>
  </station>
  <station>
    <id>GHCND:USC00296465</id>
    <displayName>OTIS, NM US</displayName>
    <minDate>1905-11-01</minDate>
    <maxDate>2012-10-29</maxDate>
    <latitude>36.3338</latitude>
    <longitude>-107.8408</longitude>
    <elevation>2097</elevation>
    <locationLabels>
      <type>CNTRY</type>
      <id>FIPS:US</id>
      <displayName>United States</displayName>
    </locationLabels>
    <coverage>0.5367</coverage>
  </station>
  <station>
    <id>GHCND:US1NYOR0003</id>
    <displayName>OTISVILLE 0.6 WNW, NY US</displayName>
    <minDate>2007-12-29</minDate>
    <maxDate>2010-02-26</maxDate>
    <latitude>41.473</latitude>
    <longitude>-74.5513</longitude>
    <elevation>320.3</elevation>
    <locationLabels>
      <type>CNTRY</type>
      <id>FIPS:US</id>
      <displayName>United States</displayName>
    </locationLabels>
    <coverage>0.4703</coverage>
  </station>
  <station>
    <id>GHCND:USC00136363</id>
    <displayName>OTO, IA US</displayName>
    <minDate>1954-01-01</minDate>
    <maxDate>1954-12-01</maxDate>
    <latitude>42.28333</latitude>
    <longitude>-95.9</longitude>
    <elevation>331.9</elevation>
    <locationLabels>
      <type>CNTRY</type>
      <id>FIPS:US</id>
      <displayName>United States</displayName>
    </locationLabels>
    <coverage>0.3732</coverage>
  </station>
  <station>
    <id>GHCND:USC00206281</id>
    <displayName>OTSEGO, MI US</displayName>
    <minDate>1891-09-01</minDate>
    <maxDate>1932-02-29</maxDate>
    <latitude>42.46667</latitude>
    <longitude>-85.8</longitude>
    <elevation>219.8</elevation>
    <locationLabels>
      <type>CNTRY</type>
      <id>FIPS:US</id>
      <displayName>United States</displayName>
    </locationLabels>
    <coverage>0.3986</coverage>
  </station>
  <station>
    <id>GHCND:US1ILLS0039</id>
    <displayName>OTTAWA 0.5 NNW, IL US</displayName>
    <minDate>2010-03-01</minDate>
    <maxDate>2013-01-14</maxDate>
    <latitude>41.3565</latitude>
    <longitude>-88.8449</longitude>
    <elevation>151.5</elevation>
    <locationLabels>
      <type>CNTRY</type>
      <id>FIPS:US</id>
      <displayName>United States</displayName>
    </locationLabels>
    <coverage>0.6461</coverage>
  </station>
  <station>
    <id>GHCND:US1ILLS0044</id>
    <displayName>OTTAWA 0.7 ESE, IL US</displayName>
    <minDate>2011-05-26</minDate>
    <maxDate>2012-05-18</maxDate>
    <latitude>41.3473</latitude>
    <longitude>-88.8269</longitude>
    <elevation>147.2</elevation>
    <locationLabels>
      <type>CNTRY</type>
      <id>FIPS:US</id>
      <displayName>United States</displayName>
    </locationLabels>
    <coverage>0.9331</coverage>
  </station>
  <station>
    <id>GHCND:US1ILLS0001</id>
    <displayName>OTTAWA 1.3 NW, IL US</displayName>
    <minDate>2006-12-08</minDate>
    <maxDate>2013-01-16</maxDate>
    <latitude>41.3633</latitude>
    <longitude>-88.8566</longitude>
    <elevation>185</elevation>
    <locationLabels>
      <type>CNTRY</type>
      <id>FIPS:US</id>
      <displayName>United States</displayName>
    </locationLabels>
    <coverage>0.9973</coverage>
  </station>
  <station>
    <id>GHCND:US1ILLS0017</id>
    <displayName>OTTAWA 1.6 N, IL US</displayName>
    <minDate>2007-05-15</minDate>
    <maxDate>2013-01-16</maxDate>
    <latitude>41.3728</latitude>
    <longitude>-88.8415</longitude>
    <elevation>192</elevation>
    <locationLabels>
      <type>CNTRY</type>
      <id>FIPS:US</id>
      <displayName>United States</displayName>
    </locationLabels>
    <coverage>0.9918</coverage>
  </station>
  <station>
    <id>GHCND:US1ILLS0023</id>
    <displayName>OTTAWA 1.9 SSW, IL US</displayName>
    <minDate>2008-10-23</minDate>
    <maxDate>2009-08-22</maxDate>
    <latitude>41.3237</latitude>
    <longitude>-88.8511</longitude>
    <elevation>188.1</elevation>
    <locationLabels>
      <type>CNTRY</type>
      <id>FIPS:US</id>
      <displayName>United States</displayName>
    </locationLabels>
    <coverage>0.6645</coverage>
  </station>
  <station>
    <id>GHCND:US1ILLS0024</id>
    <displayName>OTTAWA 2.1 SSW, IL US</displayName>
    <minDate>2008-04-20</minDate>
    <maxDate>2012-12-03</maxDate>
    <latitude>41.3235</latitude>
    <longitude>-88.8593</longitude>
    <elevation>188.1</elevation>
    <locationLabels>
      <type>CNTRY</type>
      <id>FIPS:US</id>
      <displayName>United States</displayName>
    </locationLabels>
    <coverage>0.3748</coverage>
  </station>
  <station>
    <id>GHCND:USC00116526</id>
    <displayName>OTTAWA 5 SW, IL US</displayName>
    <minDate>1892-05-01</minDate>
    <maxDate>2013-01-16</maxDate>
    <latitude>41.3283</latitude>
    <longitude>-88.9106</longitude>
    <elevation>160</elevation>
    <locationLabels>
      <type>CNTRY</type>
      <id>FIPS:US</id>
      <displayName>United States</displayName>
    </locationLabels>
    <coverage>0.9769</coverage>
  </station>
  <station>
    <id>GHCND:USC00336346</id>
    <displayName>OTTAWA NWR, OH US</displayName>
    <minDate>1972-06-01</minDate>
    <maxDate>1989-04-30</maxDate>
    <latitude>41.6</latitude>
    <longitude>-83.2</longitude>
    <elevation>176.8</elevation>
    <locationLabels>
      <type>CNTRY</type>
      <id>FIPS:US</id>
      <displayName>United States</displayName>
    </locationLabels>
    <coverage>0.9317</coverage>
  </station>
  <station>
    <id>GHCND:USC00146128</id>
    <displayName>OTTAWA, KS US</displayName>
    <minDate>1895-05-28</minDate>
    <maxDate>2013-01-16</maxDate>
    <latitude>38.6132</latitude>
    <longitude>-95.2808</longitude>
    <elevation>280.1</elevation>
    <locationLabels>
      <type>CNTRY</type>
      <id>FIPS:US</id>
      <displayName>United States</displayName>
    </locationLabels>
    <coverage>0.9943</coverage>
  </station>
  <station>
    <id>GHCND:USC00336342</id>
    <displayName>OTTAWA, OH US</displayName>
    <minDate>1948-08-01</minDate>
    <maxDate>2013-01-07</maxDate>
    <latitude>41.0324</latitude>
    <longitude>-84.0543</longitude>
    <elevation>222.5</elevation>
    <locationLabels>
      <type>CNTRY</type>
      <id>FIPS:US</id>
      <displayName>United States</displayName>
    </locationLabels>
    <coverage>0.699</coverage>
  </station>
  <station>
    <id>GHCND:USC00336337</id>
    <displayName>OTTAWA, OH US</displayName>
    <minDate>1948-05-01</minDate>
    <maxDate>1949-11-30</maxDate>
    <latitude>41.01667</latitude>
    <longitude>-84.05</longitude>
    <elevation>220.1</elevation>
    <locationLabels>
      <type>CNTRY</type>
      <id>FIPS:US</id>
      <displayName>United States</displayName>
    </locationLabels>
    <coverage>0.9741</coverage>
  </station>
  <station>
    <id>GHCND:USC00246287</id>
    <displayName>OTTER 9 SSW, MT US</displayName>
    <minDate>1961-10-01</minDate>
    <maxDate>1990-01-31</maxDate>
    <latitude>45.1</latitude>
    <longitude>-106.25</longitude>
    <elevation>1237.5</elevation>
    <locationLabels>
      <type>CNTRY</type>
      <id>FIPS:US</id>
      <displayName>United States</displayName>
    </locationLabels>
    <coverage>0.9946</coverage>
  </station>
  <station>
    <id>GHCND:USC00276550</id>
    <displayName>OTTER BROOK LAKE, NH US</displayName>
    <minDate>1958-09-16</minDate>
    <maxDate>2013-01-16</maxDate>
    <latitude>42.9453</latitude>
    <longitude>-72.237</longitude>
    <elevation>207.3</elevation>
    <locationLabels>
      <type>CNTRY</type>
      <id>FIPS:US</id>
      <displayName>United States</displayName>
    </locationLabels>
    <coverage>0.7251</coverage>
  </station>
  <station>
    <id>GHCND:USC00426558</id>
    <displayName>OTTER CREEK DAM, UT US</displayName>
    <minDate>1975-11-01</minDate>
    <maxDate>1981-06-30</maxDate>
    <latitude>38.16667</latitude>
    <longitude>-112.03333</longitude>
    <elevation>1946.1</elevation>
    <locationLabels>
      <type>CNTRY</type>
      <id>FIPS:US</id>
      <displayName>United States</displayName>
    </locationLabels>
    <coverage>0.7467</coverage>
  </station>
  <station>
    <id>GHCND:USC00426560</id>
    <displayName>OTTER CREEK RESERVOIR, UT US</displayName>
    <minDate>1925-04-21</minDate>
    <maxDate>1929-12-17</maxDate>
    <latitude>38.166667</latitude>
    <longitude>-112</longitude>
    <elevation>1905</elevation>
    <locationLabels>
      <type>CNTRY</type>
      <id>FIPS:US</id>
      <displayName>United States</displayName>
    </locationLabels>
    <coverage>0.339</coverage>
  </station>
  <station>
    <id>GHCND:USR0000OTTE</id>
    <displayName>OTTER CREEK UTAH, UT US</displayName>
    <minDate>2002-11-19</minDate>
    <maxDate>2012-08-31</maxDate>
    <latitude>41.7533</latitude>
    <longitude>-111.2806</longitude>
    <elevation>2182.4</elevation>
    <locationLabels>
      <type>CNTRY</type>
      <id>FIPS:US</id>
      <displayName>United States</displayName>
    </locationLabels>
    <coverage>0.9337</coverage>
  </station>
  <station>
    <id>GHCND:US1INTP0009</id>
    <displayName>OTTERBEIN 2.3 SE, IN US</displayName>
    <minDate>2006-04-04</minDate>
    <maxDate>2013-01-16</maxDate>
    <latitude>40.4672</latitude>
    <longitude>-87.0611</longitude>
    <elevation>210.9</elevation>
    <locationLabels>
      <type>CNTRY</type>
      <id>FIPS:US</id>
      <displayName>United States</displayName>
    </locationLabels>
    <coverage>0.9843</coverage>
  </station>
  <station>
    <id>GHCND:USC00216276</id>
    <displayName>OTTERTAIL, MN US</displayName>
    <minDate>1940-05-09</minDate>
    <maxDate>2013-01-15</maxDate>
    <latitude>46.4313</latitude>
    <longitude>-95.5463</longitude>
    <elevation>298.7</elevation>
    <locationLabels>
      <type>CNTRY</type>
      <id>FIPS:US</id>
      <displayName>United States</displayName>
    </locationLabels>
    <coverage>0.9223</coverage>
  </station>
  <station>
    <id>GHCND:USW00023056</id>
    <displayName>OTTO FAA AIRPORT, NM US</displayName>
    <minDate>1909-03-01</minDate>
    <maxDate>1954-10-31</maxDate>
    <latitude>35.08333</latitude>
    <longitude>-106.01667</longitude>
    <elevation>1900.1</elevation>
    <locationLabels>
      <type>CNTRY</type>
      <id>FIPS:US</id>
      <displayName>United States</displayName>
    </locationLabels>
    <coverage>0.8784</coverage>
  </station>
  <station>
    <id>GHCND:USC00316483</id>
    <displayName>OTTO, NC US</displayName>
    <minDate>1949-01-01</minDate>
    <maxDate>1962-03-31</maxDate>
    <latitude>35.08333</latitude>
    <longitude>-83.33333</longitude>
    <elevation>702</elevation>
    <locationLabels>
      <type>CNTRY</type>
      <id>FIPS:US</id>
      <displayName>United States</displayName>
    </locationLabels>
    <coverage>0.9981</coverage>
  </station>
  <station>
    <id>GHCND:USC00366651</id>
    <displayName>OTTSVILLE, PA US</displayName>
    <minDate>1899-11-01</minDate>
    <maxDate>1910-04-30</maxDate>
    <latitude>40.470333</latitude>
    <longitude>-75.156667</longitude>
    <elevation>118.9</elevation>
    <locationLabels>
      <type>CNTRY</type>
      <id>FIPS:US</id>
      <displayName>United States</displayName>
    </locationLabels>
    <coverage>0.8414</coverage>
  </station>
  <station>
    <id>GHCND:USC00136386</id>
    <displayName>OTTUMWA 1 WSW, IA US</displayName>
    <minDate>1894-01-01</minDate>
    <maxDate>1949-11-04</maxDate>
    <latitude>41.01667</latitude>
    <longitude>-92.43333</longitude>
    <elevation>195.1</elevation>
    <locationLabels>
      <type>CNTRY</type>
      <id>FIPS:US</id>
      <displayName>United States</displayName>
    </locationLabels>
    <coverage>0.9314</coverage>
  </station>
</stationCollection>
