<?xml version="1.0" encoding="UTF-8" standalone="yes"?>
<stationCollection totalCount="46020" pageCount="461" pageSize="100" page="386">
  <station>
    <id>GHCND:USC00318037</id>
    <displayName>SNEADS FERRY 2 ENE, NC US</displayName>
    <minDate>1948-09-01</minDate>
    <maxDate>1951-09-27</maxDate>
    <latitude>34.55</latitude>
    <longitude>-77.4</longitude>
    <elevation>3</elevation>
    <locationLabels>
      <type>CNTRY</type>
      <id>FIPS:US</id>
      <displayName>United States</displayName>
    </locationLabels>
    <coverage>0.9938</coverage>
  </station>
  <station>
    <id>GHCND:US1NCON0045</id>
    <displayName>SNEADS FERRY 2.1 SSE, NC US</displayName>
    <minDate>2012-03-01</minDate>
    <maxDate>2012-12-29</maxDate>
    <latitude>34.524</latitude>
    <longitude>-77.3708</longitude>
    <elevation>0.3</elevation>
    <locationLabels>
      <type>CNTRY</type>
      <id>FIPS:US</id>
      <displayName>United States</displayName>
    </locationLabels>
    <coverage>0.9178</coverage>
  </station>
  <station>
    <id>GHCND:US1TNHC0001</id>
    <displayName>SNEEDVILLE 7.9 ENE, TN US</displayName>
    <minDate>2007-11-04</minDate>
    <maxDate>2008-11-04</maxDate>
    <latitude>36.5882</latitude>
    <longitude>-83.0842</longitude>
    <elevation>416.1</elevation>
    <locationLabels>
      <type>CNTRY</type>
      <id>FIPS:US</id>
      <displayName>United States</displayName>
    </locationLabels>
    <coverage>0.9809</coverage>
  </station>
  <station>
    <id>GHCND:USC00408440</id>
    <displayName>SNEEDVILLE TVA 337, TN US</displayName>
    <minDate>1935-02-01</minDate>
    <maxDate>1940-12-31</maxDate>
    <latitude>36.533333</latitude>
    <longitude>-83.333333</longitude>
    <elevation>481.6</elevation>
    <locationLabels>
      <type>CNTRY</type>
      <id>FIPS:US</id>
      <displayName>United States</displayName>
    </locationLabels>
    <coverage>0.9995</coverage>
  </station>
  <station>
    <id>GHCND:US1GAGW0003</id>
    <displayName>SNELLVILLE 1.1 W, GA US</displayName>
    <minDate>2007-01-01</minDate>
    <maxDate>2013-01-16</maxDate>
    <latitude>33.8614</latitude>
    <longitude>-84.028</longitude>
    <elevation>313.6</elevation>
    <locationLabels>
      <type>CNTRY</type>
      <id>FIPS:US</id>
      <displayName>United States</displayName>
    </locationLabels>
    <coverage>0.7894</coverage>
  </station>
  <station>
    <id>GHCND:US1GAGW0030</id>
    <displayName>SNELLVILLE 1.7 SSE, GA US</displayName>
    <minDate>2011-08-16</minDate>
    <maxDate>2013-01-16</maxDate>
    <latitude>33.8355</latitude>
    <longitude>-83.9971</longitude>
    <elevation>289</elevation>
    <locationLabels>
      <type>CNTRY</type>
      <id>FIPS:US</id>
      <displayName>United States</displayName>
    </locationLabels>
    <coverage>0.9192</coverage>
  </station>
  <station>
    <id>GHCND:US1GAGW0019</id>
    <displayName>SNELLVILLE 1.8 SW, GA US</displayName>
    <minDate>2008-10-29</minDate>
    <maxDate>2010-02-12</maxDate>
    <latitude>33.8427</latitude>
    <longitude>-84.0329</longitude>
    <elevation>310</elevation>
    <locationLabels>
      <type>CNTRY</type>
      <id>FIPS:US</id>
      <displayName>United States</displayName>
    </locationLabels>
    <coverage>0.839</coverage>
  </station>
  <station>
    <id>GHCND:US1GAGW0012</id>
    <displayName>SNELLVILLE 2.6 WNW, GA US</displayName>
    <minDate>2008-06-30</minDate>
    <maxDate>2010-04-15</maxDate>
    <latitude>33.8787</latitude>
    <longitude>-84.0476</longitude>
    <elevation>295</elevation>
    <locationLabels>
      <type>CNTRY</type>
      <id>FIPS:US</id>
      <displayName>United States</displayName>
    </locationLabels>
    <coverage>0.8641</coverage>
  </station>
  <station>
    <id>GHCND:US1GAGW0031</id>
    <displayName>SNELLVILLE 4.7 SSW, GA US</displayName>
    <minDate>2011-12-10</minDate>
    <maxDate>2013-01-16</maxDate>
    <latitude>33.7974</latitude>
    <longitude>-84.047</longitude>
    <elevation>271.3</elevation>
    <locationLabels>
      <type>CNTRY</type>
      <id>FIPS:US</id>
      <displayName>United States</displayName>
    </locationLabels>
    <coverage>0.9282</coverage>
  </station>
  <station>
    <id>GHCND:USC00508584</id>
    <displayName>SNETTISHAM POWER PLANT, AK US</displayName>
    <minDate>1964-09-08</minDate>
    <maxDate>2013-01-16</maxDate>
    <latitude>58.1421</latitude>
    <longitude>-133.7385</longitude>
    <elevation>8.8</elevation>
    <locationLabels>
      <type>CNTRY</type>
      <id>FIPS:US</id>
      <displayName>United States</displayName>
    </locationLabels>
    <coverage>0.1733</coverage>
  </station>
  <station>
    <id>GHCND:USS0010G13S</id>
    <displayName>SNIDER BASIN, WY US</displayName>
    <minDate>1980-10-01</minDate>
    <maxDate>2013-01-13</maxDate>
    <latitude>42.4667</latitude>
    <longitude>-110.5333</longitude>
    <elevation>2456.7</elevation>
    <locationLabels>
      <type>CNTRY</type>
      <id>FIPS:US</id>
      <displayName>United States</displayName>
    </locationLabels>
    <coverage>0.8792</coverage>
  </station>
  <station>
    <id>GHCND:USC00457756</id>
    <displayName>SNOHOMISH 1, WA US</displayName>
    <minDate>1894-02-01</minDate>
    <maxDate>1921-05-31</maxDate>
    <latitude>47.916667</latitude>
    <longitude>-122.083333</longitude>
    <elevation>16.8</elevation>
    <locationLabels>
      <type>CNTRY</type>
      <id>FIPS:US</id>
      <displayName>United States</displayName>
    </locationLabels>
    <coverage>0.9242</coverage>
  </station>
  <station>
    <id>GHCND:US1WASN0039</id>
    <displayName>SNOHOMISH 3.5 NNE, WA US</displayName>
    <minDate>2008-10-31</minDate>
    <maxDate>2011-04-28</maxDate>
    <latitude>47.9641</latitude>
    <longitude>-122.0572</longitude>
    <elevation>78</elevation>
    <locationLabels>
      <type>CNTRY</type>
      <id>FIPS:US</id>
      <displayName>United States</displayName>
    </locationLabels>
    <coverage>0.7725</coverage>
  </station>
  <station>
    <id>GHCND:USC00348290</id>
    <displayName>SNOMAC, OK US</displayName>
    <minDate>1948-03-02</minDate>
    <maxDate>1963-09-08</maxDate>
    <latitude>35.1</latitude>
    <longitude>-96.61667</longitude>
    <elevation>179.8</elevation>
    <locationLabels>
      <type>CNTRY</type>
      <id>FIPS:US</id>
      <displayName>United States</displayName>
    </locationLabels>
    <coverage>0.214</coverage>
  </station>
  <station>
    <id>GHCND:US1WAKG0107</id>
    <displayName>SNOQUALMIE 2.9 WNW, WA US</displayName>
    <minDate>2008-12-28</minDate>
    <maxDate>2012-09-09</maxDate>
    <latitude>47.5375</latitude>
    <longitude>-121.8756</longitude>
    <elevation>270.1</elevation>
    <locationLabels>
      <type>CNTRY</type>
      <id>FIPS:US</id>
      <displayName>United States</displayName>
    </locationLabels>
    <coverage>0.5717</coverage>
  </station>
  <station>
    <id>GHCND:USC00457773</id>
    <displayName>SNOQUALMIE FALLS, WA US</displayName>
    <minDate>1898-10-01</minDate>
    <maxDate>2010-07-31</maxDate>
    <latitude>47.5413</latitude>
    <longitude>-121.8361</longitude>
    <elevation>134.1</elevation>
    <locationLabels>
      <type>CNTRY</type>
      <id>FIPS:US</id>
      <displayName>United States</displayName>
    </locationLabels>
    <coverage>0.9889</coverage>
  </station>
  <station>
    <id>GHCND:USC00457786</id>
    <displayName>SNOQUALMIE PASS 4 W, WA US</displayName>
    <minDate>1948-06-01</minDate>
    <maxDate>1949-11-30</maxDate>
    <latitude>47.4</latitude>
    <longitude>-121.45</longitude>
    <elevation>670.9</elevation>
    <locationLabels>
      <type>CNTRY</type>
      <id>FIPS:US</id>
      <displayName>United States</displayName>
    </locationLabels>
    <coverage>1</coverage>
  </station>
  <station>
    <id>GHCND:USC00457781</id>
    <displayName>SNOQUALMIE PASS, WA US</displayName>
    <minDate>1910-01-01</minDate>
    <maxDate>1972-02-27</maxDate>
    <latitude>47.4247</latitude>
    <longitude>-121.4138</longitude>
    <elevation>920.5</elevation>
    <locationLabels>
      <type>CNTRY</type>
      <id>FIPS:US</id>
      <displayName>United States</displayName>
    </locationLabels>
    <coverage>0.8074</coverage>
  </station>
  <station>
    <id>GHCND:USC00427924</id>
    <displayName>SNOW BASIN, UT US</displayName>
    <minDate>1981-07-01</minDate>
    <maxDate>1984-03-31</maxDate>
    <latitude>41.21667</latitude>
    <longitude>-111.85</longitude>
    <elevation>1958</elevation>
    <locationLabels>
      <type>CNTRY</type>
      <id>FIPS:US</id>
      <displayName>United States</displayName>
    </locationLabels>
    <coverage>0.9294</coverage>
  </station>
  <station>
    <id>GHCND:USC00048317</id>
    <displayName>SNOW CREEK UPPER, CA US</displayName>
    <minDate>1939-01-01</minDate>
    <maxDate>2007-06-30</maxDate>
    <latitude>33.8725</latitude>
    <longitude>-116.67972</longitude>
    <elevation>591.3</elevation>
    <locationLabels>
      <type>CNTRY</type>
      <id>FIPS:US</id>
      <displayName>United States</displayName>
    </locationLabels>
    <coverage>0.9269</coverage>
  </station>
  <station>
    <id>GHCND:USC00048315</id>
    <displayName>SNOW CREEK, CA US</displayName>
    <minDate>1919-03-01</minDate>
    <maxDate>1957-01-16</maxDate>
    <latitude>33.88333</latitude>
    <longitude>-116.68333</longitude>
    <elevation>390.1</elevation>
    <locationLabels>
      <type>CNTRY</type>
      <id>FIPS:US</id>
      <displayName>United States</displayName>
    </locationLabels>
    <coverage>0.5014</coverage>
  </station>
  <station>
    <id>GHCND:USC00318053</id>
    <displayName>SNOW CREEK, NC US</displayName>
    <minDate>1949-01-01</minDate>
    <maxDate>1962-03-31</maxDate>
    <latitude>35.96667</latitude>
    <longitude>-82.15</longitude>
    <elevation>805</elevation>
    <locationLabels>
      <type>CNTRY</type>
      <id>FIPS:US</id>
      <displayName>United States</displayName>
    </locationLabels>
    <coverage>0.9857</coverage>
  </station>
  <station>
    <id>GHCND:USC00318060</id>
    <displayName>SNOW HILL 2 SW, NC US</displayName>
    <minDate>1905-03-01</minDate>
    <maxDate>2009-02-28</maxDate>
    <latitude>35.452</latitude>
    <longitude>-77.6843</longitude>
    <elevation>29</elevation>
    <locationLabels>
      <type>CNTRY</type>
      <id>FIPS:US</id>
      <displayName>United States</displayName>
    </locationLabels>
    <coverage>0.2</coverage>
  </station>
  <station>
    <id>GHCND:USC00188380</id>
    <displayName>SNOW HILL 4 N, MD US</displayName>
    <minDate>1916-03-01</minDate>
    <maxDate>2012-11-30</maxDate>
    <latitude>38.2365</latitude>
    <longitude>-75.3788</longitude>
    <elevation>9.1</elevation>
    <locationLabels>
      <type>CNTRY</type>
      <id>FIPS:US</id>
      <displayName>United States</displayName>
    </locationLabels>
    <coverage>0.9578</coverage>
  </station>
  <station>
    <id>GHCND:USC00318066</id>
    <displayName>SNOW HILL WASTE WATER TREAMENT PLANT, NC US</displayName>
    <minDate>2009-04-01</minDate>
    <maxDate>2013-01-16</maxDate>
    <latitude>35.4551</latitude>
    <longitude>-77.6668</longitude>
    <elevation>12.5</elevation>
    <locationLabels>
      <type>CNTRY</type>
      <id>FIPS:US</id>
      <displayName>United States</displayName>
    </locationLabels>
    <coverage>0.8356</coverage>
  </station>
  <station>
    <id>GHCND:USC00017620</id>
    <displayName>SNOW HILL, AL US</displayName>
    <minDate>1900-01-29</minDate>
    <maxDate>1967-09-30</maxDate>
    <latitude>32</latitude>
    <longitude>-87.01667</longitude>
    <elevation>70.1</elevation>
    <locationLabels>
      <type>CNTRY</type>
      <id>FIPS:US</id>
      <displayName>United States</displayName>
    </locationLabels>
    <coverage>0.4272</coverage>
  </station>
  <station>
    <id>GHCND:USC00368216</id>
    <displayName>SNOW HILL, PA US</displayName>
    <minDate>1924-09-01</minDate>
    <maxDate>1935-08-31</maxDate>
    <latitude>41.166667</latitude>
    <longitude>-75.183333</longitude>
    <elevation>640.1</elevation>
    <locationLabels>
      <type>CNTRY</type>
      <id>FIPS:US</id>
      <displayName>United States</displayName>
    </locationLabels>
    <coverage>0.9544</coverage>
  </station>
  <station>
    <id>GHCND:USS0019F01S</id>
    <displayName>SNOW MOUNTAIN, OR US</displayName>
    <minDate>1978-10-01</minDate>
    <maxDate>2013-01-13</maxDate>
    <latitude>43.95</latitude>
    <longitude>-119.55</longitude>
    <elevation>1895.9</elevation>
    <locationLabels>
      <type>CNTRY</type>
      <id>FIPS:US</id>
      <displayName>United States</displayName>
    </locationLabels>
    <coverage>0.9262</coverage>
  </station>
  <station>
    <id>GHCND:USC00267640</id>
    <displayName>SNOWBALL RANCH, NV US</displayName>
    <minDate>1966-09-03</minDate>
    <maxDate>2002-06-30</maxDate>
    <latitude>39.04028</latitude>
    <longitude>-116.19889</longitude>
    <elevation>2182.4</elevation>
    <locationLabels>
      <type>CNTRY</type>
      <id>FIPS:US</id>
      <displayName>United States</displayName>
    </locationLabels>
    <coverage>0.9921</coverage>
  </station>
  <station>
    <id>GHCND:USC00247714</id>
    <displayName>SNOWBELT, MT US</displayName>
    <minDate>1914-11-01</minDate>
    <maxDate>1934-05-31</maxDate>
    <latitude>47.033333</latitude>
    <longitude>-107.383333</longitude>
    <elevation>1005.8</elevation>
    <locationLabels>
      <type>CNTRY</type>
      <id>FIPS:US</id>
      <displayName>United States</displayName>
    </locationLabels>
    <coverage>0.985</coverage>
  </station>
  <station>
    <id>GHCND:USS0011J42S</id>
    <displayName>SNOWBIRD, UT US</displayName>
    <minDate>1989-10-01</minDate>
    <maxDate>2013-01-13</maxDate>
    <latitude>40.55</latitude>
    <longitude>-111.65</longitude>
    <elevation>2938.3</elevation>
    <locationLabels>
      <type>CNTRY</type>
      <id>FIPS:US</id>
      <displayName>United States</displayName>
    </locationLabels>
    <coverage>0.9469</coverage>
  </station>
  <station>
    <id>GHCND:USC00427927</id>
    <displayName>SNOWBIRD, UT US</displayName>
    <minDate>1977-06-01</minDate>
    <maxDate>1979-04-30</maxDate>
    <latitude>40.58333</latitude>
    <longitude>-111.66667</longitude>
    <elevation>2471</elevation>
    <locationLabels>
      <type>CNTRY</type>
      <id>FIPS:US</id>
      <displayName>United States</displayName>
    </locationLabels>
    <coverage>0.7396</coverage>
  </station>
  <station>
    <id>GHCND:USC00457794</id>
    <displayName>SNOWDEN, WA US</displayName>
    <minDate>2010-06-01</minDate>
    <maxDate>2013-01-16</maxDate>
    <latitude>45.8175</latitude>
    <longitude>-121.35306</longitude>
    <elevation>736.1</elevation>
    <locationLabels>
      <type>CNTRY</type>
      <id>FIPS:US</id>
      <displayName>United States</displayName>
    </locationLabels>
    <coverage>0.8835</coverage>
  </station>
  <station>
    <id>GHCND:USC00028018</id>
    <displayName>SNOWFLAKE 15 W, AZ US</displayName>
    <minDate>1965-05-01</minDate>
    <maxDate>1998-02-28</maxDate>
    <latitude>34.5</latitude>
    <longitude>-110.33333</longitude>
    <elevation>1853.2</elevation>
    <locationLabels>
      <type>CNTRY</type>
      <id>FIPS:US</id>
      <displayName>United States</displayName>
    </locationLabels>
    <coverage>0.9947</coverage>
  </station>
  <station>
    <id>GHCND:USC00028012</id>
    <displayName>SNOWFLAKE, AZ US</displayName>
    <minDate>1897-06-01</minDate>
    <maxDate>2012-12-31</maxDate>
    <latitude>34.508</latitude>
    <longitude>-110.0838</longitude>
    <elevation>1719.7</elevation>
    <locationLabels>
      <type>CNTRY</type>
      <id>FIPS:US</id>
      <displayName>United States</displayName>
    </locationLabels>
    <coverage>0.9289</coverage>
  </station>
  <station>
    <id>GHCND:US1COPT0004</id>
    <displayName>SNOWMASS 7.0 W, CO US</displayName>
    <minDate>2005-04-02</minDate>
    <maxDate>2012-12-26</maxDate>
    <latitude>39.3274</latitude>
    <longitude>-107.1107</longitude>
    <elevation>2304.9</elevation>
    <locationLabels>
      <type>CNTRY</type>
      <id>FIPS:US</id>
      <displayName>United States</displayName>
    </locationLabels>
    <coverage>0.6677</coverage>
  </station>
  <station>
    <id>GHCND:USC00508594</id>
    <displayName>SNOWSHOE LAKE, AK US</displayName>
    <minDate>1963-10-01</minDate>
    <maxDate>2011-10-31</maxDate>
    <latitude>62.0302</latitude>
    <longitude>-146.693</longitude>
    <elevation>704.7</elevation>
    <locationLabels>
      <type>CNTRY</type>
      <id>FIPS:US</id>
      <displayName>United States</displayName>
    </locationLabels>
    <coverage>0.8547</coverage>
  </station>
  <station>
    <id>GHCND:USC00247718</id>
    <displayName>SNOWSHOE, MT US</displayName>
    <minDate>1907-01-01</minDate>
    <maxDate>1911-05-31</maxDate>
    <latitude>48.183333</latitude>
    <longitude>-115.683333</longitude>
    <elevation>1371.6</elevation>
    <locationLabels>
      <type>CNTRY</type>
      <id>FIPS:US</id>
      <displayName>United States</displayName>
    </locationLabels>
    <coverage>1</coverage>
  </station>
  <station>
    <id>GHCND:USC00468308</id>
    <displayName>SNOWSHOE, WV US</displayName>
    <minDate>1975-02-01</minDate>
    <maxDate>2013-01-16</maxDate>
    <latitude>38.399</latitude>
    <longitude>-79.9949</longitude>
    <elevation>1478.3</elevation>
    <locationLabels>
      <type>CNTRY</type>
      <id>FIPS:US</id>
      <displayName>United States</displayName>
    </locationLabels>
    <coverage>0.9585</coverage>
  </station>
  <station>
    <id>GHCND:USS0011P08S</id>
    <displayName>SNOWSLIDE CANYON, AZ US</displayName>
    <minDate>1997-10-01</minDate>
    <maxDate>2013-01-13</maxDate>
    <latitude>35.3333</latitude>
    <longitude>-111.65</longitude>
    <elevation>2965.7</elevation>
    <locationLabels>
      <type>CNTRY</type>
      <id>FIPS:US</id>
      <displayName>United States</displayName>
    </locationLabels>
    <coverage>0.6583</coverage>
  </station>
  <station>
    <id>GHCND:USC00427931</id>
    <displayName>SNOWVILLE, UT US</displayName>
    <minDate>1893-01-01</minDate>
    <maxDate>1991-10-31</maxDate>
    <latitude>41.96667</latitude>
    <longitude>-112.71667</longitude>
    <elevation>1389.9</elevation>
    <locationLabels>
      <type>CNTRY</type>
      <id>FIPS:US</id>
      <displayName>United States</displayName>
    </locationLabels>
    <coverage>0.7537</coverage>
  </station>
  <station>
    <id>GHCND:US1TXSY0002</id>
    <displayName>SNYDER 0.2 WNW, TX US</displayName>
    <minDate>2010-03-01</minDate>
    <maxDate>2012-05-10</maxDate>
    <latitude>32.7151</latitude>
    <longitude>-100.9185</longitude>
    <elevation>706.2</elevation>
    <locationLabels>
      <type>CNTRY</type>
      <id>FIPS:US</id>
      <displayName>United States</displayName>
    </locationLabels>
    <coverage>0.399</coverage>
  </station>
  <station>
    <id>GHCND:US1COMR0089</id>
    <displayName>SNYDER 1.2 NW, CO US</displayName>
    <minDate>2010-05-04</minDate>
    <maxDate>2011-06-05</maxDate>
    <latitude>40.333</latitude>
    <longitude>-103.5953</longitude>
    <elevation>1279.2</elevation>
    <locationLabels>
      <type>CNTRY</type>
      <id>FIPS:US</id>
      <displayName>United States</displayName>
    </locationLabels>
    <coverage>0.9372</coverage>
  </station>
  <station>
    <id>GHCND:US1TXKT0001</id>
    <displayName>SNYDER 22.1 NNW, TX US</displayName>
    <minDate>2011-01-01</minDate>
    <maxDate>2013-01-10</maxDate>
    <latitude>33.0258</latitude>
    <longitude>-101.0002</longitude>
    <elevation>717.5</elevation>
    <locationLabels>
      <type>CNTRY</type>
      <id>FIPS:US</id>
      <displayName>United States</displayName>
    </locationLabels>
    <coverage>0.3644</coverage>
  </station>
  <station>
    <id>GHCND:USC00348299</id>
    <displayName>SNYDER, OK US</displayName>
    <minDate>1906-09-01</minDate>
    <maxDate>2011-12-31</maxDate>
    <latitude>34.68667</latitude>
    <longitude>-98.94833</longitude>
    <elevation>417.6</elevation>
    <locationLabels>
      <type>CNTRY</type>
      <id>FIPS:US</id>
      <displayName>United States</displayName>
    </locationLabels>
    <coverage>0.6971</coverage>
  </station>
  <station>
    <id>GHCND:USC00418433</id>
    <displayName>SNYDER, TX US</displayName>
    <minDate>1911-05-01</minDate>
    <maxDate>2013-01-16</maxDate>
    <latitude>32.7101</latitude>
    <longitude>-100.9112</longitude>
    <elevation>706.8</elevation>
    <locationLabels>
      <type>CNTRY</type>
      <id>FIPS:US</id>
      <displayName>United States</displayName>
    </locationLabels>
    <coverage>0.955</coverage>
  </station>
  <station>
    <id>GHCND:USC00426639</id>
    <displayName>SNYDERVILLE, UT US</displayName>
    <minDate>1991-10-01</minDate>
    <maxDate>1992-03-31</maxDate>
    <latitude>40.7038</latitude>
    <longitude>-111.5369</longitude>
    <elevation>1969</elevation>
    <locationLabels>
      <type>CNTRY</type>
      <id>FIPS:US</id>
      <displayName>United States</displayName>
    </locationLabels>
    <coverage>1</coverage>
  </station>
  <station>
    <id>GHCND:USC00427942</id>
    <displayName>SNYDERVILLE, UT US</displayName>
    <minDate>1993-01-01</minDate>
    <maxDate>2012-11-30</maxDate>
    <latitude>40.7038</latitude>
    <longitude>-111.5369</longitude>
    <elevation>1969</elevation>
    <locationLabels>
      <type>CNTRY</type>
      <id>FIPS:US</id>
      <displayName>United States</displayName>
    </locationLabels>
    <coverage>0.8071</coverage>
  </station>
  <station>
    <id>GHCND:USC00348305</id>
    <displayName>SOBOL TOWER, OK US</displayName>
    <minDate>1952-02-02</minDate>
    <maxDate>1991-01-31</maxDate>
    <latitude>34.13333</latitude>
    <longitude>-95.23333</longitude>
    <elevation>228.6</elevation>
    <locationLabels>
      <type>CNTRY</type>
      <id>FIPS:US</id>
      <displayName>United States</displayName>
    </locationLabels>
    <coverage>0.9251</coverage>
  </station>
  <station>
    <id>GHCND:US1GAWL0004</id>
    <displayName>SOCIAL CIRCLE 0.9 E, GA US</displayName>
    <minDate>2001-11-21</minDate>
    <maxDate>2009-07-23</maxDate>
    <latitude>33.6658</latitude>
    <longitude>-83.7124</longitude>
    <elevation>265.2</elevation>
    <locationLabels>
      <type>CNTRY</type>
      <id>FIPS:US</id>
      <displayName>United States</displayName>
    </locationLabels>
    <coverage>0.0753</coverage>
  </station>
  <station>
    <id>GHCND:USC00388114</id>
    <displayName>SOCIETY HILL 6 S, SC US</displayName>
    <minDate>1893-01-01</minDate>
    <maxDate>1959-06-30</maxDate>
    <latitude>34.41667</latitude>
    <longitude>-79.85</longitude>
    <elevation>43</elevation>
    <locationLabels>
      <type>CNTRY</type>
      <id>FIPS:US</id>
      <displayName>United States</displayName>
    </locationLabels>
    <coverage>0.9645</coverage>
  </station>
  <station>
    <id>GHCND:US1NMSC0029</id>
    <displayName>SOCORRO 0.4 NE, NM US</displayName>
    <minDate>2010-03-15</minDate>
    <maxDate>2011-09-27</maxDate>
    <latitude>34.0594</latitude>
    <longitude>-106.899</longitude>
    <elevation>1410.3</elevation>
    <locationLabels>
      <type>CNTRY</type>
      <id>FIPS:US</id>
      <displayName>United States</displayName>
    </locationLabels>
    <coverage>0.9573</coverage>
  </station>
  <station>
    <id>GHCND:US1NMSC0012</id>
    <displayName>SOCORRO 0.5 NNE, NM US</displayName>
    <minDate>2007-03-01</minDate>
    <maxDate>2007-09-12</maxDate>
    <latitude>34.0618</latitude>
    <longitude>-106.9004</longitude>
    <elevation>1405.1</elevation>
    <locationLabels>
      <type>CNTRY</type>
      <id>FIPS:US</id>
      <displayName>United States</displayName>
    </locationLabels>
    <coverage>1</coverage>
  </station>
  <station>
    <id>GHCND:US1NMSC0023</id>
    <displayName>SOCORRO 1.3 E, NM US</displayName>
    <minDate>2010-04-17</minDate>
    <maxDate>2011-09-07</maxDate>
    <latitude>34.0551</latitude>
    <longitude>-106.8818</longitude>
    <elevation>1399.6</elevation>
    <locationLabels>
      <type>CNTRY</type>
      <id>FIPS:US</id>
      <displayName>United States</displayName>
    </locationLabels>
    <coverage>0.7525</coverage>
  </station>
  <station>
    <id>GHCND:US1NMSC0006</id>
    <displayName>SOCORRO 1.3 N, NM US</displayName>
    <minDate>2006-10-23</minDate>
    <maxDate>2012-06-22</maxDate>
    <latitude>34.0733</latitude>
    <longitude>-106.9016</longitude>
    <elevation>1403.9</elevation>
    <locationLabels>
      <type>CNTRY</type>
      <id>FIPS:US</id>
      <displayName>United States</displayName>
    </locationLabels>
    <coverage>0.3512</coverage>
  </station>
  <station>
    <id>GHCND:US1NMSC0010</id>
    <displayName>SOCORRO 10.4 N, NM US</displayName>
    <minDate>2007-03-01</minDate>
    <maxDate>2007-08-06</maxDate>
    <latitude>34.2056</latitude>
    <longitude>-106.8991</longitude>
    <elevation>1420.4</elevation>
    <locationLabels>
      <type>CNTRY</type>
      <id>FIPS:US</id>
      <displayName>United States</displayName>
    </locationLabels>
    <coverage>0.9937</coverage>
  </station>
  <station>
    <id>GHCND:USW00053163</id>
    <displayName>SOCORRO 17 WSW, NM US</displayName>
    <minDate>2010-06-27</minDate>
    <maxDate>2013-01-15</maxDate>
    <latitude>33.9795</latitude>
    <longitude>-107.1872</longitude>
    <elevation>3196.1</elevation>
    <locationLabels>
      <type>CNTRY</type>
      <id>FIPS:US</id>
      <displayName>United States</displayName>
    </locationLabels>
    <coverage>0.9925</coverage>
  </station>
  <station>
    <id>GHCND:USW00003048</id>
    <displayName>SOCORRO 20 N, NM US</displayName>
    <minDate>2003-05-25</minDate>
    <maxDate>2013-01-15</maxDate>
    <latitude>34.3557</latitude>
    <longitude>-106.8859</longitude>
    <elevation>1477.4</elevation>
    <locationLabels>
      <type>CNTRY</type>
      <id>FIPS:US</id>
      <displayName>United States</displayName>
    </locationLabels>
    <coverage>0.9938</coverage>
  </station>
  <station>
    <id>GHCND:US1NMSC0001</id>
    <displayName>SOCORRO 33 NNE, NM US</displayName>
    <minDate>2005-03-14</minDate>
    <maxDate>2012-12-18</maxDate>
    <latitude>34.5343</latitude>
    <longitude>-106.7884</longitude>
    <elevation>1455.1</elevation>
    <locationLabels>
      <type>CNTRY</type>
      <id>FIPS:US</id>
      <displayName>United States</displayName>
    </locationLabels>
    <coverage>0.3222</coverage>
  </station>
  <station>
    <id>GHCND:US1NMSC0019</id>
    <displayName>SOCORRO 6.6 SSE, NM US</displayName>
    <minDate>2010-03-13</minDate>
    <maxDate>2010-12-31</maxDate>
    <latitude>33.9643</latitude>
    <longitude>-106.8701</longitude>
    <elevation>1389.9</elevation>
    <locationLabels>
      <type>CNTRY</type>
      <id>FIPS:US</id>
      <displayName>United States</displayName>
    </locationLabels>
    <coverage>0.9796</coverage>
  </station>
  <station>
    <id>GHCND:US1NMSC0013</id>
    <displayName>SOCORRO 8.5 N, NM US</displayName>
    <minDate>2010-03-17</minDate>
    <maxDate>2010-12-21</maxDate>
    <latitude>34.1767</latitude>
    <longitude>-106.9239</longitude>
    <elevation>1425.2</elevation>
    <locationLabels>
      <type>CNTRY</type>
      <id>FIPS:US</id>
      <displayName>United States</displayName>
    </locationLabels>
    <coverage>0.6607</coverage>
  </station>
  <station>
    <id>GHCND:US1NMSC0014</id>
    <displayName>SOCORRO 9.9 SSE, NM US</displayName>
    <minDate>2007-02-20</minDate>
    <maxDate>2013-01-16</maxDate>
    <latitude>33.9151</latitude>
    <longitude>-106.867</longitude>
    <elevation>1392</elevation>
    <locationLabels>
      <type>CNTRY</type>
      <id>FIPS:US</id>
      <displayName>United States</displayName>
    </locationLabels>
    <coverage>0.6807</coverage>
  </station>
  <station>
    <id>GHCND:USC00298387</id>
    <displayName>SOCORRO, NM US</displayName>
    <minDate>1893-01-01</minDate>
    <maxDate>2013-01-16</maxDate>
    <latitude>34.0827</latitude>
    <longitude>-106.883</longitude>
    <elevation>1397.5</elevation>
    <locationLabels>
      <type>CNTRY</type>
      <id>FIPS:US</id>
      <displayName>United States</displayName>
    </locationLabels>
    <coverage>0.9201</coverage>
  </station>
  <station>
    <id>GHCND:USC00418435</id>
    <displayName>SOCORRO, TX US</displayName>
    <minDate>1918-04-03</minDate>
    <maxDate>1950-10-31</maxDate>
    <latitude>31.65</latitude>
    <longitude>-106.28333</longitude>
    <elevation>1115.9</elevation>
    <locationLabels>
      <type>CNTRY</type>
      <id>FIPS:US</id>
      <displayName>United States</displayName>
    </locationLabels>
    <coverage>0.8795</coverage>
  </station>
  <station>
    <id>GHCND:USC00488340</id>
    <displayName>SODA BUTTE, WY US</displayName>
    <minDate>1904-11-01</minDate>
    <maxDate>1922-08-31</maxDate>
    <latitude>44.883333</latitude>
    <longitude>-110.15</longitude>
    <elevation>2011.7</elevation>
    <locationLabels>
      <type>CNTRY</type>
      <id>FIPS:US</id>
      <displayName>United States</displayName>
    </locationLabels>
    <coverage>0.8193</coverage>
  </station>
  <station>
    <id>GHCND:USR0000CSDC</id>
    <displayName>SODA CREEK CALIFORNIA, CA US</displayName>
    <minDate>1992-05-18</minDate>
    <maxDate>2012-08-30</maxDate>
    <latitude>39.425</latitude>
    <longitude>-122.9772</longitude>
    <elevation>540.4</elevation>
    <locationLabels>
      <type>CNTRY</type>
      <id>FIPS:US</id>
      <displayName>United States</displayName>
    </locationLabels>
    <coverage>0.854</coverage>
  </station>
  <station>
    <id>GHCND:USR0000CSOD</id>
    <displayName>SODA CREEK COLORADO, CO US</displayName>
    <minDate>1986-09-19</minDate>
    <maxDate>2012-08-21</maxDate>
    <latitude>39.56</latitude>
    <longitude>-105.9864</longitude>
    <elevation>2926.1</elevation>
    <locationLabels>
      <type>CNTRY</type>
      <id>FIPS:US</id>
      <displayName>United States</displayName>
    </locationLabels>
    <coverage>0.9301</coverage>
  </station>
  <station>
    <id>GHCND:USC00267660</id>
    <displayName>SODA LAKE, NV US</displayName>
    <minDate>1906-07-04</minDate>
    <maxDate>1913-11-30</maxDate>
    <latitude>39.55</latitude>
    <longitude>-118.75</longitude>
    <elevation>1220.7</elevation>
    <locationLabels>
      <type>CNTRY</type>
      <id>FIPS:US</id>
      <displayName>United States</displayName>
    </locationLabels>
    <coverage>0.7403</coverage>
  </station>
  <station>
    <id>GHCND:US1IDCR0001</id>
    <displayName>SODA SPRINGS 0.3 W, ID US</displayName>
    <minDate>2009-03-03</minDate>
    <maxDate>2013-01-16</maxDate>
    <latitude>42.659</latitude>
    <longitude>-111.5923</longitude>
    <elevation>1769.7</elevation>
    <locationLabels>
      <type>CNTRY</type>
      <id>FIPS:US</id>
      <displayName>United States</displayName>
    </locationLabels>
    <coverage>0.9823</coverage>
  </station>
  <station>
    <id>GHCND:USC00048332</id>
    <displayName>SODA SPRINGS 1 E, CA US</displayName>
    <minDate>1961-07-01</minDate>
    <maxDate>1970-05-31</maxDate>
    <latitude>39.3255</latitude>
    <longitude>-120.3672</longitude>
    <elevation>2098.5</elevation>
    <locationLabels>
      <type>CNTRY</type>
      <id>FIPS:US</id>
      <displayName>United States</displayName>
    </locationLabels>
    <coverage>0.9057</coverage>
  </station>
  <station>
    <id>GHCND:USC00048320</id>
    <displayName>SODA SPRINGS 1 E, CA US</displayName>
    <minDate>1948-07-01</minDate>
    <maxDate>1961-06-30</maxDate>
    <latitude>39.3255</latitude>
    <longitude>-120.3672</longitude>
    <elevation>2098.5</elevation>
    <locationLabels>
      <type>CNTRY</type>
      <id>FIPS:US</id>
      <displayName>United States</displayName>
    </locationLabels>
    <coverage>0.5444</coverage>
  </station>
  <station>
    <id>GHCND:US1CAPC0001</id>
    <displayName>SODA SPRINGS 1.5 SSW, CA US</displayName>
    <minDate>2008-10-01</minDate>
    <maxDate>2013-01-14</maxDate>
    <latitude>39.3021</latitude>
    <longitude>-120.3837</longitude>
    <elevation>2099.2</elevation>
    <locationLabels>
      <type>CNTRY</type>
      <id>FIPS:US</id>
      <displayName>United States</displayName>
    </locationLabels>
    <coverage>0.9962</coverage>
  </station>
  <station>
    <id>GHCND:USC00108535</id>
    <displayName>SODA SPRINGS AIRPORT, ID US</displayName>
    <minDate>1978-06-01</minDate>
    <maxDate>2012-10-26</maxDate>
    <latitude>42.6513</latitude>
    <longitude>-111.5833</longitude>
    <elevation>1780.6</elevation>
    <locationLabels>
      <type>CNTRY</type>
      <id>FIPS:US</id>
      <displayName>United States</displayName>
    </locationLabels>
    <coverage>0.914</coverage>
  </station>
  <station>
    <id>GHCND:USR0000MSOD</id>
    <displayName>SODA SPRINGS MONTANA, MT US</displayName>
    <minDate>2003-10-30</minDate>
    <maxDate>2012-08-31</maxDate>
    <latitude>45.7289</latitude>
    <longitude>-108.3967</longitude>
    <elevation>1225.3</elevation>
    <locationLabels>
      <type>CNTRY</type>
      <id>FIPS:US</id>
      <displayName>United States</displayName>
    </locationLabels>
    <coverage>0.9272</coverage>
  </station>
  <station>
    <id>GHCND:USC00048331</id>
    <displayName>SODA SPRINGS, CA US</displayName>
    <minDate>1913-01-21</minDate>
    <maxDate>1959-01-07</maxDate>
    <latitude>39.31667</latitude>
    <longitude>-120.38333</longitude>
    <elevation>2058.9</elevation>
    <locationLabels>
      <type>CNTRY</type>
      <id>FIPS:US</id>
      <displayName>United States</displayName>
    </locationLabels>
    <coverage>0.7159</coverage>
  </station>
  <station>
    <id>GHCND:USC00408445</id>
    <displayName>SODDY DAISY MOWBRAY MOUNT, TN US</displayName>
    <minDate>1997-12-01</minDate>
    <maxDate>2012-09-30</maxDate>
    <latitude>35.2803</latitude>
    <longitude>-85.2414</longitude>
    <elevation>518.2</elevation>
    <locationLabels>
      <type>CNTRY</type>
      <id>FIPS:US</id>
      <displayName>United States</displayName>
    </locationLabels>
    <coverage>0.9575</coverage>
  </station>
  <station>
    <id>GHCND:USC00307842</id>
    <displayName>SODUS CENTER, NY US</displayName>
    <minDate>1922-12-01</minDate>
    <maxDate>2012-11-30</maxDate>
    <latitude>43.2077</latitude>
    <longitude>-77.0127</longitude>
    <elevation>128</elevation>
    <locationLabels>
      <type>CNTRY</type>
      <id>FIPS:US</id>
      <displayName>United States</displayName>
    </locationLabels>
    <coverage>0.8889</coverage>
  </station>
  <station>
    <id>GHCND:USC00298416</id>
    <displayName>SOLANO NUMBER 1, NM US</displayName>
    <minDate>1909-04-01</minDate>
    <maxDate>1919-12-31</maxDate>
    <latitude>35.85</latitude>
    <longitude>-104.066667</longitude>
    <elevation>1713.6</elevation>
    <locationLabels>
      <type>CNTRY</type>
      <id>FIPS:US</id>
      <displayName>United States</displayName>
    </locationLabels>
    <coverage>0.9926</coverage>
  </station>
  <station>
    <id>GHCND:USC00298415</id>
    <displayName>SOLANO, NM US</displayName>
    <minDate>1948-01-01</minDate>
    <maxDate>1959-08-31</maxDate>
    <latitude>35.86667</latitude>
    <longitude>-104.05</longitude>
    <elevation>1708.1</elevation>
    <locationLabels>
      <type>CNTRY</type>
      <id>FIPS:US</id>
      <displayName>United States</displayName>
    </locationLabels>
    <coverage>0.9958</coverage>
  </station>
  <station>
    <id>GHCND:USC00108548</id>
    <displayName>SOLDIER CREEK ADM SITE, ID US</displayName>
    <minDate>1894-02-01</minDate>
    <maxDate>1948-07-31</maxDate>
    <latitude>43.48333</latitude>
    <longitude>-114.81667</longitude>
    <elevation>1751.1</elevation>
    <locationLabels>
      <type>CNTRY</type>
      <id>FIPS:US</id>
      <displayName>United States</displayName>
    </locationLabels>
    <coverage>0.8831</coverage>
  </station>
  <station>
    <id>GHCND:USC00427952</id>
    <displayName>SOLDIER CREEK SVM, UT US</displayName>
    <minDate>1956-01-01</minDate>
    <maxDate>1957-07-31</maxDate>
    <latitude>39.95</latitude>
    <longitude>-111.23333</longitude>
    <elevation>1848</elevation>
    <locationLabels>
      <type>CNTRY</type>
      <id>FIPS:US</id>
      <displayName>United States</displayName>
    </locationLabels>
    <coverage>0.5311</coverage>
  </station>
  <station>
    <id>GHCND:USC00427955</id>
    <displayName>SOLDIER CREEK, UT US</displayName>
    <minDate>1968-11-01</minDate>
    <maxDate>1973-01-31</maxDate>
    <latitude>40.18333</latitude>
    <longitude>-111.03333</longitude>
    <elevation>2318</elevation>
    <locationLabels>
      <type>CNTRY</type>
      <id>FIPS:US</id>
      <displayName>United States</displayName>
    </locationLabels>
    <coverage>0.9775</coverage>
  </station>
  <station>
    <id>GHCND:USR0000CSOL</id>
    <displayName>SOLDIER MOUNTAIN CALIFORNIA, CA US</displayName>
    <minDate>1990-05-02</minDate>
    <maxDate>2012-08-30</maxDate>
    <latitude>40.9258</latitude>
    <longitude>-121.5856</longitude>
    <elevation>1130.8</elevation>
    <locationLabels>
      <type>CNTRY</type>
      <id>FIPS:US</id>
      <displayName>United States</displayName>
    </locationLabels>
    <coverage>0.9306</coverage>
  </station>
  <station>
    <id>GHCND:USS0014F11S</id>
    <displayName>SOLDIER RANGER STATION, ID US</displayName>
    <minDate>1986-10-01</minDate>
    <maxDate>2013-01-13</maxDate>
    <latitude>43.4833</latitude>
    <longitude>-114.8167</longitude>
    <elevation>1749.6</elevation>
    <locationLabels>
      <type>CNTRY</type>
      <id>FIPS:US</id>
      <displayName>United States</displayName>
    </locationLabels>
    <coverage>0.963</coverage>
  </station>
  <station>
    <id>GHCND:USC00427959</id>
    <displayName>SOLDIER SUMMIT, UT US</displayName>
    <minDate>1893-05-01</minDate>
    <maxDate>2002-06-30</maxDate>
    <latitude>39.9286</latitude>
    <longitude>-111.0763</longitude>
    <elevation>2276.9</elevation>
    <locationLabels>
      <type>CNTRY</type>
      <id>FIPS:US</id>
      <displayName>United States</displayName>
    </locationLabels>
    <coverage>0.5828</coverage>
  </station>
  <station>
    <id>GHCND:USC00137774</id>
    <displayName>SOLDIER, IA US</displayName>
    <minDate>1948-08-01</minDate>
    <maxDate>1951-09-30</maxDate>
    <latitude>41.9811</latitude>
    <longitude>-95.7769</longitude>
    <elevation>342.9</elevation>
    <locationLabels>
      <type>CNTRY</type>
      <id>FIPS:US</id>
      <displayName>United States</displayName>
    </locationLabels>
    <coverage>0.9844</coverage>
  </station>
  <station>
    <id>GHCND:USC00477869</id>
    <displayName>SOLDIERS GROVE, WI US</displayName>
    <minDate>1978-08-01</minDate>
    <maxDate>2013-01-16</maxDate>
    <latitude>43.3943</latitude>
    <longitude>-90.7757</longitude>
    <elevation>216.4</elevation>
    <locationLabels>
      <type>CNTRY</type>
      <id>FIPS:US</id>
      <displayName>United States</displayName>
    </locationLabels>
    <coverage>0.3375</coverage>
  </station>
  <station>
    <id>GHCND:USC00267682</id>
    <displayName>SOLDIERS MEADOW, NV US</displayName>
    <minDate>1962-06-01</minDate>
    <maxDate>1966-11-30</maxDate>
    <latitude>41.35</latitude>
    <longitude>-119.16667</longitude>
    <elevation>1388.1</elevation>
    <locationLabels>
      <type>CNTRY</type>
      <id>FIPS:US</id>
      <displayName>United States</displayName>
    </locationLabels>
    <coverage>0.9763</coverage>
  </station>
  <station>
    <id>GHCND:US1AKKP0001</id>
    <displayName>SOLDOTNA 0.6 W, AK US</displayName>
    <minDate>2008-06-26</minDate>
    <maxDate>2011-09-30</maxDate>
    <latitude>60.4868</latitude>
    <longitude>-151.0823</longitude>
    <elevation>32</elevation>
    <locationLabels>
      <type>CNTRY</type>
      <id>FIPS:US</id>
      <displayName>United States</displayName>
    </locationLabels>
    <coverage>0.9069</coverage>
  </station>
  <station>
    <id>GHCND:US1AKKP0002</id>
    <displayName>SOLDOTNA 11.5 E, AK US</displayName>
    <minDate>2008-10-26</minDate>
    <maxDate>2009-12-19</maxDate>
    <latitude>60.4879</latitude>
    <longitude>-150.726</longitude>
    <elevation>94.5</elevation>
    <locationLabels>
      <type>CNTRY</type>
      <id>FIPS:US</id>
      <displayName>United States</displayName>
    </locationLabels>
    <coverage>0.3024</coverage>
  </station>
  <station>
    <id>GHCND:USC00508615</id>
    <displayName>SOLDOTNA 5 SSW, AK US</displayName>
    <minDate>2004-06-01</minDate>
    <maxDate>2012-11-30</maxDate>
    <latitude>60.4194</latitude>
    <longitude>-151.1336</longitude>
    <elevation>54.9</elevation>
    <locationLabels>
      <type>CNTRY</type>
      <id>FIPS:US</id>
      <displayName>United States</displayName>
    </locationLabels>
    <coverage>0.9739</coverage>
  </station>
  <station>
    <id>GHCND:US1AKKP0003</id>
    <displayName>SOLDOTNA 5.1 E, AK US</displayName>
    <minDate>2011-02-14</minDate>
    <maxDate>2013-01-16</maxDate>
    <latitude>60.4902</latitude>
    <longitude>-150.9138</longitude>
    <elevation>93</elevation>
    <locationLabels>
      <type>CNTRY</type>
      <id>FIPS:US</id>
      <displayName>United States</displayName>
    </locationLabels>
    <coverage>0.9772</coverage>
  </station>
  <station>
    <id>GHCND:USC00508613</id>
    <displayName>SOLDOTNA 6 W, AK US</displayName>
    <minDate>1970-08-01</minDate>
    <maxDate>1972-01-31</maxDate>
    <latitude>60.46667</latitude>
    <longitude>-151.23333</longitude>
    <elevation>3</elevation>
    <locationLabels>
      <type>CNTRY</type>
      <id>FIPS:US</id>
      <displayName>United States</displayName>
    </locationLabels>
    <coverage>0.7523</coverage>
  </station>
  <station>
    <id>GHCND:USC00508612</id>
    <displayName>SOLDOTNA, AK US</displayName>
    <minDate>1962-03-21</minDate>
    <maxDate>1969-12-31</maxDate>
    <latitude>60.46667</latitude>
    <longitude>-151.03333</longitude>
    <elevation>34.1</elevation>
    <locationLabels>
      <type>CNTRY</type>
      <id>FIPS:US</id>
      <displayName>United States</displayName>
    </locationLabels>
    <coverage>0.8347</coverage>
  </station>
  <station>
    <id>GHCND:USC00048338</id>
    <displayName>SOLEDAD, CA US</displayName>
    <minDate>1906-03-01</minDate>
    <maxDate>1983-12-31</maxDate>
    <latitude>36.43333</latitude>
    <longitude>-121.31667</longitude>
    <elevation>64</elevation>
    <locationLabels>
      <type>CNTRY</type>
      <id>FIPS:US</id>
      <displayName>United States</displayName>
    </locationLabels>
    <coverage>0.4826</coverage>
  </station>
  <station>
    <id>GHCND:US1FLPK0022</id>
    <displayName>SOLIVITA 2.0 SSW, FL US</displayName>
    <minDate>2007-12-04</minDate>
    <maxDate>2013-01-07</maxDate>
    <latitude>28.1141</latitude>
    <longitude>-81.4789</longitude>
    <elevation>17.1</elevation>
    <locationLabels>
      <type>CNTRY</type>
      <id>FIPS:US</id>
      <displayName>United States</displayName>
    </locationLabels>
    <coverage>0.1864</coverage>
  </station>
  <station>
    <id>GHCND:USR0000ASOL</id>
    <displayName>SOLLERS ARIZONA, AZ US</displayName>
    <minDate>1999-04-05</minDate>
    <maxDate>2012-08-31</maxDate>
    <latitude>32.4033</latitude>
    <longitude>-110.7117</longitude>
    <elevation>2377.4</elevation>
    <locationLabels>
      <type>CNTRY</type>
      <id>FIPS:US</id>
      <displayName>United States</displayName>
    </locationLabels>
    <coverage>0.7964</coverage>
  </station>
  <station>
    <id>GHCND:US1MOTX0005</id>
    <displayName>SOLO 4.6 NW, MO US</displayName>
    <minDate>2006-08-13</minDate>
    <maxDate>2007-07-06</maxDate>
    <latitude>37.2282</latitude>
    <longitude>-91.9974</longitude>
    <elevation>374</elevation>
    <locationLabels>
      <type>CNTRY</type>
      <id>FIPS:US</id>
      <displayName>United States</displayName>
    </locationLabels>
    <coverage>0.997</coverage>
  </station>
  <station>
    <id>GHCND:US1KSDK0020</id>
    <displayName>SOLOMON 3.1 NE, KS US</displayName>
    <minDate>2010-10-12</minDate>
    <maxDate>2013-01-10</maxDate>
    <latitude>38.9546</latitude>
    <longitude>-97.335</longitude>
    <elevation>379.2</elevation>
    <locationLabels>
      <type>CNTRY</type>
      <id>FIPS:US</id>
      <displayName>United States</displayName>
    </locationLabels>
    <coverage>0.1387</coverage>
  </station>
  <station>
    <id>GHCND:US1KSOT0001</id>
    <displayName>SOLOMON 9.9 N, KS US</displayName>
    <minDate>2005-07-26</minDate>
    <maxDate>2008-06-28</maxDate>
    <latitude>39.0622</latitude>
    <longitude>-97.3891</longitude>
    <elevation>420</elevation>
    <locationLabels>
      <type>CNTRY</type>
      <id>FIPS:US</id>
      <displayName>United States</displayName>
    </locationLabels>
    <coverage>0.1628</coverage>
  </station>
</stationCollection>
