<?xml version="1.0" encoding="UTF-8" standalone="yes"?>
<stationCollection totalCount="46020" pageCount="461" pageSize="100" page="118">
  <station>
    <id>GHCND:USS0006J01S</id>
    <displayName>DRY LAKE, CO US</displayName>
    <minDate>1980-06-22</minDate>
    <maxDate>2013-01-13</maxDate>
    <latitude>40.5333</latitude>
    <longitude>-106.7833</longitude>
    <elevation>2560.3</elevation>
    <locationLabels>
      <type>CNTRY</type>
      <id>FIPS:US</id>
      <displayName>United States</displayName>
    </locationLabels>
    <coverage>0.9093</coverage>
  </station>
  <station>
    <id>GHCND:USR0000ADRY</id>
    <displayName>DRY PARK ARIZONA, AZ US</displayName>
    <minDate>1996-05-10</minDate>
    <maxDate>2012-08-31</maxDate>
    <latitude>36.45</latitude>
    <longitude>-112.24</longitude>
    <elevation>2653.6</elevation>
    <locationLabels>
      <type>CNTRY</type>
      <id>FIPS:US</id>
      <displayName>United States</displayName>
    </locationLabels>
    <coverage>0.8406</coverage>
  </station>
  <station>
    <id>GHCND:US1LAGR0001</id>
    <displayName>DRY PRONG 4.3 W, LA US</displayName>
    <minDate>2010-06-28</minDate>
    <maxDate>2011-03-13</maxDate>
    <latitude>31.5857</latitude>
    <longitude>-92.6022</longitude>
    <elevation>48.5</elevation>
    <locationLabels>
      <type>CNTRY</type>
      <id>FIPS:US</id>
      <displayName>United States</displayName>
    </locationLabels>
    <coverage>0.9807</coverage>
  </station>
  <station>
    <id>GHCND:USC00152250</id>
    <displayName>DRY RIDGE KSP POST 6, KY US</displayName>
    <minDate>1984-09-01</minDate>
    <maxDate>2012-01-12</maxDate>
    <latitude>38.715</latitude>
    <longitude>-84.5911</longitude>
    <elevation>288</elevation>
    <locationLabels>
      <type>CNTRY</type>
      <id>FIPS:US</id>
      <displayName>United States</displayName>
    </locationLabels>
    <coverage>0.9168</coverage>
  </station>
  <station>
    <id>GHCND:USC00082418</id>
    <displayName>DRY TORTUGAS, US</displayName>
    <minDate>1950-07-01</minDate>
    <maxDate>2013-01-16</maxDate>
    <latitude>24.6279</latitude>
    <longitude>-82.8736</longitude>
    <elevation>3</elevation>
    <locationLabels>
      <type>CNTRY</type>
      <id>FIPS:US</id>
      <displayName>United States</displayName>
    </locationLabels>
    <coverage>0.5616</coverage>
  </station>
  <station>
    <id>GHCND:USC00242537</id>
    <displayName>DRY WOLF CAMP, MT US</displayName>
    <minDate>1909-06-01</minDate>
    <maxDate>1913-04-30</maxDate>
    <latitude>47.166667</latitude>
    <longitude>-110.333333</longitude>
    <elevation>1828.8</elevation>
    <locationLabels>
      <type>CNTRY</type>
      <id>FIPS:US</id>
      <displayName>United States</displayName>
    </locationLabels>
    <coverage>1</coverage>
  </station>
  <station>
    <id>GHCND:USC00452253</id>
    <displayName>DRYAD, WA US</displayName>
    <minDate>1963-06-01</minDate>
    <maxDate>2013-01-15</maxDate>
    <latitude>46.6363</latitude>
    <longitude>-123.2597</longitude>
    <elevation>92</elevation>
    <locationLabels>
      <type>CNTRY</type>
      <id>FIPS:US</id>
      <displayName>United States</displayName>
    </locationLabels>
    <coverage>0.323</coverage>
  </station>
  <station>
    <id>GHCND:US1MILP0006</id>
    <displayName>DRYDEN 1.9 SE, MI US</displayName>
    <minDate>2012-02-02</minDate>
    <maxDate>2012-08-26</maxDate>
    <latitude>42.9238</latitude>
    <longitude>-83.1008</longitude>
    <elevation>295</elevation>
    <locationLabels>
      <type>CNTRY</type>
      <id>FIPS:US</id>
      <displayName>United States</displayName>
    </locationLabels>
    <coverage>0.6812</coverage>
  </station>
  <station>
    <id>GHCND:USC00412593</id>
    <displayName>DRYDEN 10 NE, TX US</displayName>
    <minDate>1937-05-01</minDate>
    <maxDate>2013-01-16</maxDate>
    <latitude>30.2</latitude>
    <longitude>-101.83333</longitude>
    <elevation>694.9</elevation>
    <locationLabels>
      <type>CNTRY</type>
      <id>FIPS:US</id>
      <displayName>United States</displayName>
    </locationLabels>
    <coverage>0.1502</coverage>
  </station>
  <station>
    <id>GHCND:US1TXTL0001</id>
    <displayName>DRYDEN 17.7 NE, TX US</displayName>
    <minDate>2008-12-18</minDate>
    <maxDate>2013-01-16</maxDate>
    <latitude>30.0688</latitude>
    <longitude>-101.8204</longitude>
    <elevation>596.2</elevation>
    <locationLabels>
      <type>CNTRY</type>
      <id>FIPS:US</id>
      <displayName>United States</displayName>
    </locationLabels>
    <coverage>0.8209</coverage>
  </station>
  <station>
    <id>GHCND:USC00202270</id>
    <displayName>DRYDEN 5 W, MI US</displayName>
    <minDate>1997-11-01</minDate>
    <maxDate>2002-03-31</maxDate>
    <latitude>42.95833</latitude>
    <longitude>-83.22167</longitude>
    <elevation>313.9</elevation>
    <locationLabels>
      <type>CNTRY</type>
      <id>FIPS:US</id>
      <displayName>United States</displayName>
    </locationLabels>
    <coverage>0.7605</coverage>
  </station>
  <station>
    <id>GHCND:USW00003032</id>
    <displayName>DRYDEN TERRELL CO AIRPORT, TX US</displayName>
    <minDate>1999-06-15</minDate>
    <maxDate>2013-01-14</maxDate>
    <latitude>30.04806</latitude>
    <longitude>-102.21306</longitude>
    <elevation>707.7</elevation>
    <locationLabels>
      <type>CNTRY</type>
      <id>FIPS:US</id>
      <displayName>United States</displayName>
    </locationLabels>
    <coverage>0.9827</coverage>
  </station>
  <station>
    <id>GHCND:USC00202268</id>
    <displayName>DRYDEN, MI US</displayName>
    <minDate>1996-08-08</minDate>
    <maxDate>1999-05-31</maxDate>
    <latitude>42.93556</latitude>
    <longitude>-83.19389</longitude>
    <elevation>295.7</elevation>
    <locationLabels>
      <type>CNTRY</type>
      <id>FIPS:US</id>
      <displayName>United States</displayName>
    </locationLabels>
    <coverage>0.9494</coverage>
  </station>
  <station>
    <id>GHCND:USC00412590</id>
    <displayName>DRYDEN, TX US</displayName>
    <minDate>1966-06-01</minDate>
    <maxDate>1994-10-31</maxDate>
    <latitude>30.05</latitude>
    <longitude>-102.11667</longitude>
    <elevation>667.5</elevation>
    <locationLabels>
      <type>CNTRY</type>
      <id>FIPS:US</id>
      <displayName>United States</displayName>
    </locationLabels>
    <coverage>0.9354</coverage>
  </station>
  <station>
    <id>GHCND:USC00452260</id>
    <displayName>DRYDEN, WA US</displayName>
    <minDate>1910-03-01</minDate>
    <maxDate>1931-12-31</maxDate>
    <latitude>47.533333</latitude>
    <longitude>-120.533333</longitude>
    <elevation>280.4</elevation>
    <locationLabels>
      <type>CNTRY</type>
      <id>FIPS:US</id>
      <displayName>United States</displayName>
    </locationLabels>
    <coverage>0.6862</coverage>
  </station>
  <station>
    <id>GHCND:USC00412595</id>
    <displayName>DRYER 1 NW, TX US</displayName>
    <minDate>1940-02-01</minDate>
    <maxDate>1975-04-30</maxDate>
    <latitude>29.38333</latitude>
    <longitude>-97.26667</longitude>
    <elevation>92</elevation>
    <locationLabels>
      <type>CNTRY</type>
      <id>FIPS:US</id>
      <displayName>United States</displayName>
    </locationLabels>
    <coverage>0.9863</coverage>
  </station>
  <station>
    <id>GHCND:USC00242533</id>
    <displayName>DRYLAND EXPERIMENT S, MT US</displayName>
    <minDate>1924-06-20</minDate>
    <maxDate>1944-11-30</maxDate>
    <latitude>45.9</latitude>
    <longitude>-111.8</longitude>
    <elevation>1495</elevation>
    <locationLabels>
      <type>CNTRY</type>
      <id>FIPS:US</id>
      <displayName>United States</displayName>
    </locationLabels>
    <coverage>0.9242</coverage>
  </station>
  <station>
    <id>GHCND:USC00362265</id>
    <displayName>DU BOIS 7 E, PA US</displayName>
    <minDate>1937-02-01</minDate>
    <maxDate>1974-12-31</maxDate>
    <latitude>41.1</latitude>
    <longitude>-78.63333</longitude>
    <elevation>509</elevation>
    <locationLabels>
      <type>CNTRY</type>
      <id>FIPS:US</id>
      <displayName>United States</displayName>
    </locationLabels>
    <coverage>0.9991</coverage>
  </station>
  <station>
    <id>GHCND:USC00112483</id>
    <displayName>DU QUOIN 4 SE, IL US</displayName>
    <minDate>1893-01-01</minDate>
    <maxDate>2013-01-12</maxDate>
    <latitude>37.9877</latitude>
    <longitude>-89.193</longitude>
    <elevation>128</elevation>
    <locationLabels>
      <type>CNTRY</type>
      <id>FIPS:US</id>
      <displayName>United States</displayName>
    </locationLabels>
    <coverage>0.9719</coverage>
  </station>
  <station>
    <id>GHCND:USC00412598</id>
    <displayName>DUBLIN 2 SE, TX US</displayName>
    <minDate>1897-01-01</minDate>
    <maxDate>2011-10-21</maxDate>
    <latitude>32.0627</latitude>
    <longitude>-98.3047</longitude>
    <elevation>447.4</elevation>
    <locationLabels>
      <type>CNTRY</type>
      <id>FIPS:US</id>
      <displayName>United States</displayName>
    </locationLabels>
    <coverage>0.8958</coverage>
  </station>
  <station>
    <id>GHCND:USC00092844</id>
    <displayName>DUBLIN 2, GA US</displayName>
    <minDate>1948-08-01</minDate>
    <maxDate>2013-01-16</maxDate>
    <latitude>32.557</latitude>
    <longitude>-82.8997</longitude>
    <elevation>61</elevation>
    <locationLabels>
      <type>CNTRY</type>
      <id>FIPS:US</id>
      <displayName>United States</displayName>
    </locationLabels>
    <coverage>0.0879</coverage>
  </station>
  <station>
    <id>GHCND:US1OHFR0002</id>
    <displayName>DUBLIN 3.2 ENE, OH US</displayName>
    <minDate>2009-01-21</minDate>
    <maxDate>2013-01-15</maxDate>
    <latitude>40.1299</latitude>
    <longitude>-83.0742</longitude>
    <elevation>273.1</elevation>
    <locationLabels>
      <type>CNTRY</type>
      <id>FIPS:US</id>
      <displayName>United States</displayName>
    </locationLabels>
    <coverage>0.9238</coverage>
  </station>
  <station>
    <id>GHCND:US1OHFR0016</id>
    <displayName>DUBLIN 3.7 ESE, OH US</displayName>
    <minDate>2009-12-12</minDate>
    <maxDate>2011-01-21</maxDate>
    <latitude>40.0923</latitude>
    <longitude>-83.0725</longitude>
    <elevation>271.9</elevation>
    <locationLabels>
      <type>CNTRY</type>
      <id>FIPS:US</id>
      <displayName>United States</displayName>
    </locationLabels>
    <coverage>0.2783</coverage>
  </station>
  <station>
    <id>GHCND:US1GALR0001</id>
    <displayName>DUBLIN 6.3 SW, GA US</displayName>
    <minDate>2008-05-20</minDate>
    <maxDate>2013-01-15</maxDate>
    <latitude>32.4642</latitude>
    <longitude>-82.9861</longitude>
    <elevation>56.7</elevation>
    <locationLabels>
      <type>CNTRY</type>
      <id>FIPS:US</id>
      <displayName>United States</displayName>
    </locationLabels>
    <coverage>0.8954</coverage>
  </station>
  <station>
    <id>GHCND:USC00412599</id>
    <displayName>DUBLIN NEAR SOIL CONSERVATION SERVICE 7, TX US</displayName>
    <minDate>1941-08-01</minDate>
    <maxDate>1943-06-30</maxDate>
    <latitude>32.1</latitude>
    <longitude>-98.25</longitude>
    <elevation>448.1</elevation>
    <locationLabels>
      <type>CNTRY</type>
      <id>FIPS:US</id>
      <displayName>United States</displayName>
    </locationLabels>
    <coverage>0.6938</coverage>
  </station>
  <station>
    <id>GHCND:USC00092839</id>
    <displayName>DUBLIN, GA US</displayName>
    <minDate>1892-03-19</minDate>
    <maxDate>2010-04-30</maxDate>
    <latitude>32.5575</latitude>
    <longitude>-82.9036</longitude>
    <elevation>70.1</elevation>
    <locationLabels>
      <type>CNTRY</type>
      <id>FIPS:US</id>
      <displayName>United States</displayName>
    </locationLabels>
    <coverage>0.8439</coverage>
  </station>
  <station>
    <id>GHCND:USC00272136</id>
    <displayName>DUBLIN, NH US</displayName>
    <minDate>1892-11-01</minDate>
    <maxDate>1976-05-31</maxDate>
    <latitude>42.91667</latitude>
    <longitude>-72.06667</longitude>
    <elevation>454.2</elevation>
    <locationLabels>
      <type>CNTRY</type>
      <id>FIPS:US</id>
      <displayName>United States</displayName>
    </locationLabels>
    <coverage>0.3913</coverage>
  </station>
  <station>
    <id>GHCND:USC00332298</id>
    <displayName>DUBLIN, OH US</displayName>
    <minDate>1917-10-19</minDate>
    <maxDate>1928-07-31</maxDate>
    <latitude>40.083333</latitude>
    <longitude>-83.133333</longitude>
    <elevation>245.4</elevation>
    <locationLabels>
      <type>CNTRY</type>
      <id>FIPS:US</id>
      <displayName>United States</displayName>
    </locationLabels>
    <coverage>0.8355</coverage>
  </station>
  <station>
    <id>GHCND:USC00252430</id>
    <displayName>DUBOIS 1, NE US</displayName>
    <minDate>1905-09-01</minDate>
    <maxDate>1915-11-30</maxDate>
    <latitude>40.033333</latitude>
    <longitude>-96.05</longitude>
    <elevation>327.4</elevation>
    <locationLabels>
      <type>CNTRY</type>
      <id>FIPS:US</id>
      <displayName>United States</displayName>
    </locationLabels>
    <coverage>0.9949</coverage>
  </station>
  <station>
    <id>GHCND:US10pawn007</id>
    <displayName>DUBOIS 2.7 WNW, NE US</displayName>
    <minDate>2007-03-30</minDate>
    <maxDate>2013-01-07</maxDate>
    <latitude>40.0587</latitude>
    <longitude>-96.0903</longitude>
    <elevation>371.9</elevation>
    <locationLabels>
      <type>CNTRY</type>
      <id>FIPS:US</id>
      <displayName>United States</displayName>
    </locationLabels>
    <coverage>0.5505</coverage>
  </station>
  <station>
    <id>GHCND:USC00102722</id>
    <displayName>DUBOIS 34 W, ID US</displayName>
    <minDate>1963-11-01</minDate>
    <maxDate>1966-09-30</maxDate>
    <latitude>44.18333</latitude>
    <longitude>-112.93333</longitude>
    <elevation>1884.9</elevation>
    <locationLabels>
      <type>CNTRY</type>
      <id>FIPS:US</id>
      <displayName>United States</displayName>
    </locationLabels>
    <coverage>0.938</coverage>
  </station>
  <station>
    <id>GHCND:US1WYFM0005</id>
    <displayName>DUBOIS 8.9 WNW, WY US</displayName>
    <minDate>2005-10-28</minDate>
    <maxDate>2008-03-30</maxDate>
    <latitude>43.576</latitude>
    <longitude>-109.8123</longitude>
    <elevation>2582</elevation>
    <locationLabels>
      <type>CNTRY</type>
      <id>FIPS:US</id>
      <displayName>United States</displayName>
    </locationLabels>
    <coverage>0.1661</coverage>
  </station>
  <station>
    <id>GHCND:US1WYFM0004</id>
    <displayName>DUBOIS 9.7 WNW, WY US</displayName>
    <minDate>2005-10-02</minDate>
    <maxDate>2013-01-14</maxDate>
    <latitude>43.571</latitude>
    <longitude>-109.8264</longitude>
    <elevation>2573.1</elevation>
    <locationLabels>
      <type>CNTRY</type>
      <id>FIPS:US</id>
      <displayName>United States</displayName>
    </locationLabels>
    <coverage>0.6412</coverage>
  </station>
  <station>
    <id>GHCND:USC00102707</id>
    <displayName>DUBOIS EXPERIMENT ST, ID US</displayName>
    <minDate>1925-01-01</minDate>
    <maxDate>2012-11-30</maxDate>
    <latitude>44.2436</latitude>
    <longitude>-112.2005</longitude>
    <elevation>1661.2</elevation>
    <locationLabels>
      <type>CNTRY</type>
      <id>FIPS:US</id>
      <displayName>United States</displayName>
    </locationLabels>
    <coverage>0.9982</coverage>
  </station>
  <station>
    <id>GHCND:USW00024140</id>
    <displayName>DUBOIS FAA AIRPORT, ID US</displayName>
    <minDate>1948-08-01</minDate>
    <maxDate>1962-04-17</maxDate>
    <latitude>44.16667</latitude>
    <longitude>-112.21667</longitude>
    <elevation>1563.9</elevation>
    <locationLabels>
      <type>CNTRY</type>
      <id>FIPS:US</id>
      <displayName>United States</displayName>
    </locationLabels>
    <coverage>1</coverage>
  </station>
  <station>
    <id>GHCND:USW00004787</id>
    <displayName>DUBOIS JEFFERSON CO AIRPORT, PA US</displayName>
    <minDate>1962-07-26</minDate>
    <maxDate>2013-01-15</maxDate>
    <latitude>41.17833</latitude>
    <longitude>-78.89889</longitude>
    <elevation>552.9</elevation>
    <locationLabels>
      <type>CNTRY</type>
      <id>FIPS:US</id>
      <displayName>United States</displayName>
    </locationLabels>
    <coverage>0.9252</coverage>
  </station>
  <station>
    <id>GHCND:USC00122309</id>
    <displayName>DUBOIS S IN FORAGE FARM, IN US</displayName>
    <minDate>1955-01-01</minDate>
    <maxDate>2013-01-14</maxDate>
    <latitude>38.4558</latitude>
    <longitude>-86.6983</longitude>
    <elevation>210.3</elevation>
    <locationLabels>
      <type>CNTRY</type>
      <id>FIPS:US</id>
      <displayName>United States</displayName>
    </locationLabels>
    <coverage>0.9767</coverage>
  </station>
  <station>
    <id>GHCND:USC00112447</id>
    <displayName>DUBOIS, IL US</displayName>
    <minDate>1893-06-01</minDate>
    <maxDate>1893-11-30</maxDate>
    <latitude>38.216667</latitude>
    <longitude>-89.216667</longitude>
    <elevation>160.9</elevation>
    <locationLabels>
      <type>CNTRY</type>
      <id>FIPS:US</id>
      <displayName>United States</displayName>
    </locationLabels>
    <coverage>1</coverage>
  </station>
  <station>
    <id>GHCND:USC00482715</id>
    <displayName>DUBOIS, WY US</displayName>
    <minDate>1905-05-01</minDate>
    <maxDate>2013-01-16</maxDate>
    <latitude>43.5397</latitude>
    <longitude>-109.6552</longitude>
    <elevation>2119.9</elevation>
    <locationLabels>
      <type>CNTRY</type>
      <id>FIPS:US</id>
      <displayName>United States</displayName>
    </locationLabels>
    <coverage>0.8247</coverage>
  </station>
  <station>
    <id>GHCND:US1KYCM0001</id>
    <displayName>DUBRE 1.0 NE, KY US</displayName>
    <minDate>2008-02-01</minDate>
    <maxDate>2013-01-10</maxDate>
    <latitude>36.8505</latitude>
    <longitude>-85.5463</longitude>
    <elevation>191.1</elevation>
    <locationLabels>
      <type>CNTRY</type>
      <id>FIPS:US</id>
      <displayName>United States</displayName>
    </locationLabels>
    <coverage>0.9363</coverage>
  </station>
  <station>
    <id>GHCND:US1IADB0002</id>
    <displayName>DUBUQUE 1.0 E, IA US</displayName>
    <minDate>2007-08-19</minDate>
    <maxDate>2008-07-19</maxDate>
    <latitude>42.5045</latitude>
    <longitude>-90.6707</longitude>
    <elevation>200.9</elevation>
    <locationLabels>
      <type>CNTRY</type>
      <id>FIPS:US</id>
      <displayName>United States</displayName>
    </locationLabels>
    <coverage>0.6815</coverage>
  </station>
  <station>
    <id>GHCND:USC00132359</id>
    <displayName>DUBUQUE AIRPORT, IA US</displayName>
    <minDate>1981-10-01</minDate>
    <maxDate>1982-08-31</maxDate>
    <latitude>42.4</latitude>
    <longitude>-90.66667</longitude>
    <elevation>324</elevation>
    <locationLabels>
      <type>CNTRY</type>
      <id>FIPS:US</id>
      <displayName>United States</displayName>
    </locationLabels>
    <coverage>1</coverage>
  </station>
  <station>
    <id>GHCND:USC00132364</id>
    <displayName>DUBUQUE LOCK AND DAM 11, IA US</displayName>
    <minDate>1938-03-01</minDate>
    <maxDate>2013-01-16</maxDate>
    <latitude>42.5399</latitude>
    <longitude>-90.6461</longitude>
    <elevation>189</elevation>
    <locationLabels>
      <type>CNTRY</type>
      <id>FIPS:US</id>
      <displayName>United States</displayName>
    </locationLabels>
    <coverage>0.9556</coverage>
  </station>
  <station>
    <id>GHCND:USC00132362</id>
    <displayName>DUBUQUE NUMBER 3, IA US</displayName>
    <minDate>2011-09-17</minDate>
    <maxDate>2012-11-30</maxDate>
    <latitude>42.4087</latitude>
    <longitude>-90.7325</longitude>
    <elevation>335.3</elevation>
    <locationLabels>
      <type>CNTRY</type>
      <id>FIPS:US</id>
      <displayName>United States</displayName>
    </locationLabels>
    <coverage>0.9841</coverage>
  </station>
  <station>
    <id>GHCND:USW00094908</id>
    <displayName>DUBUQUE REGIONAL AIRPORT, IA US</displayName>
    <minDate>1951-02-01</minDate>
    <maxDate>2013-01-15</maxDate>
    <latitude>42.39778</latitude>
    <longitude>-90.70361</longitude>
    <elevation>321.9</elevation>
    <locationLabels>
      <type>CNTRY</type>
      <id>FIPS:US</id>
      <displayName>United States</displayName>
    </locationLabels>
    <coverage>0.9836</coverage>
  </station>
  <station>
    <id>GHCND:USW00014934</id>
    <displayName>DUBUQUE WEATHER BUREAU CITY, IA US</displayName>
    <minDate>1948-01-01</minDate>
    <maxDate>1952-01-31</maxDate>
    <latitude>42.5</latitude>
    <longitude>-90.66667</longitude>
    <elevation>207</elevation>
    <locationLabels>
      <type>CNTRY</type>
      <id>FIPS:US</id>
      <displayName>United States</displayName>
    </locationLabels>
    <coverage>1</coverage>
  </station>
  <station>
    <id>GHCND:USC00422252</id>
    <displayName>DUCHESNE AIRPORT, UT US</displayName>
    <minDate>1974-03-12</minDate>
    <maxDate>1980-10-31</maxDate>
    <latitude>40.2</latitude>
    <longitude>-110.38333</longitude>
    <elevation>1774.9</elevation>
    <locationLabels>
      <type>CNTRY</type>
      <id>FIPS:US</id>
      <displayName>United States</displayName>
    </locationLabels>
    <coverage>0.9955</coverage>
  </station>
  <station>
    <id>GHCND:USC00422253</id>
    <displayName>DUCHESNE, UT US</displayName>
    <minDate>1906-04-01</minDate>
    <maxDate>2013-01-15</maxDate>
    <latitude>40.1677</latitude>
    <longitude>-110.395</longitude>
    <elevation>1682.5</elevation>
    <locationLabels>
      <type>CNTRY</type>
      <id>FIPS:US</id>
      <displayName>United States</displayName>
    </locationLabels>
    <coverage>0.9258</coverage>
  </station>
  <station>
    <id>GHCND:US1NCDR0025</id>
    <displayName>DUCK 0.3 SE, NC US</displayName>
    <minDate>2012-03-28</minDate>
    <maxDate>2013-01-15</maxDate>
    <latitude>36.1671</latitude>
    <longitude>-75.7513</longitude>
    <elevation>7.3</elevation>
    <locationLabels>
      <type>CNTRY</type>
      <id>FIPS:US</id>
      <displayName>United States</displayName>
    </locationLabels>
    <coverage>0.8299</coverage>
  </station>
  <station>
    <id>GHCND:US1NCDR0024</id>
    <displayName>DUCK 1.1 SSE, NC US</displayName>
    <minDate>2012-04-01</minDate>
    <maxDate>2013-01-16</maxDate>
    <latitude>36.1542</latitude>
    <longitude>-75.7478</longitude>
    <elevation>13.4</elevation>
    <locationLabels>
      <type>CNTRY</type>
      <id>FIPS:US</id>
      <displayName>United States</displayName>
    </locationLabels>
    <coverage>0.921</coverage>
  </station>
  <station>
    <id>GHCND:USC00422255</id>
    <displayName>DUCK CREEK RANGER STATION, UT US</displayName>
    <minDate>1934-05-01</minDate>
    <maxDate>1936-09-30</maxDate>
    <latitude>37.51667</latitude>
    <longitude>-112.7</longitude>
    <elevation>2610.9</elevation>
    <locationLabels>
      <type>CNTRY</type>
      <id>FIPS:US</id>
      <displayName>United States</displayName>
    </locationLabels>
    <coverage>0.4186</coverage>
  </station>
  <station>
    <id>GHCND:USC00462488</id>
    <displayName>DUCK CREEK, WV US</displayName>
    <minDate>1946-04-01</minDate>
    <maxDate>1954-11-30</maxDate>
    <latitude>39.15</latitude>
    <longitude>-80.4</longitude>
    <elevation>326.1</elevation>
    <locationLabels>
      <type>CNTRY</type>
      <id>FIPS:US</id>
      <displayName>United States</displayName>
    </locationLabels>
    <coverage>0.9962</coverage>
  </station>
  <station>
    <id>GHCND:US1MSMT0001</id>
    <displayName>DUCK HILL 0.5 SE, MS US</displayName>
    <minDate>2010-04-04</minDate>
    <maxDate>2011-10-24</maxDate>
    <latitude>33.6262</latitude>
    <longitude>-89.7069</longitude>
    <elevation>83.8</elevation>
    <locationLabels>
      <type>CNTRY</type>
      <id>FIPS:US</id>
      <displayName>United States</displayName>
    </locationLabels>
    <coverage>0.8647</coverage>
  </station>
  <station>
    <id>GHCND:USC00222477</id>
    <displayName>DUCK HILL, MS US</displayName>
    <minDate>1893-01-01</minDate>
    <maxDate>1953-02-28</maxDate>
    <latitude>33.63333</latitude>
    <longitude>-89.71667</longitude>
    <elevation>75.9</elevation>
    <locationLabels>
      <type>CNTRY</type>
      <id>FIPS:US</id>
      <displayName>United States</displayName>
    </locationLabels>
    <coverage>0.8579</coverage>
  </station>
  <station>
    <id>GHCND:USC00081795</id>
    <displayName>DUCK KEY, FL US</displayName>
    <minDate>1982-06-01</minDate>
    <maxDate>1994-09-30</maxDate>
    <latitude>24.7705</latitude>
    <longitude>-80.9073</longitude>
    <elevation>2.4</elevation>
    <locationLabels>
      <type>CNTRY</type>
      <id>FIPS:US</id>
      <displayName>United States</displayName>
    </locationLabels>
    <coverage>1</coverage>
  </station>
  <station>
    <id>GHCND:USC00082441</id>
    <displayName>DUCK KEY, FL US</displayName>
    <minDate>1994-10-01</minDate>
    <maxDate>2013-01-15</maxDate>
    <latitude>24.7705</latitude>
    <longitude>-80.9073</longitude>
    <elevation>2.4</elevation>
    <locationLabels>
      <type>CNTRY</type>
      <id>FIPS:US</id>
      <displayName>United States</displayName>
    </locationLabels>
    <coverage>0.9563</coverage>
  </station>
  <station>
    <id>GHCND:US1NYCY0005</id>
    <displayName>DUCK LAKE, NY US</displayName>
    <minDate>2008-12-17</minDate>
    <maxDate>2012-12-28</maxDate>
    <latitude>43.142</latitude>
    <longitude>-76.6889</longitude>
    <elevation>122.2</elevation>
    <locationLabels>
      <type>CNTRY</type>
      <id>FIPS:US</id>
      <displayName>United States</displayName>
    </locationLabels>
    <coverage>0.2994</coverage>
  </station>
  <station>
    <id>GHCND:USC00402627</id>
    <displayName>DUCK TOWN, TN US</displayName>
    <minDate>1948-09-01</minDate>
    <maxDate>1962-03-31</maxDate>
    <latitude>35.03333</latitude>
    <longitude>-84.38333</longitude>
    <elevation>519.1</elevation>
    <locationLabels>
      <type>CNTRY</type>
      <id>FIPS:US</id>
      <displayName>United States</displayName>
    </locationLabels>
    <coverage>0.9954</coverage>
  </station>
  <station>
    <id>GHCND:USC00452270</id>
    <displayName>DUCKABUSH, WA US</displayName>
    <minDate>1908-01-01</minDate>
    <maxDate>1915-08-31</maxDate>
    <latitude>47.65</latitude>
    <longitude>-122.95</longitude>
    <elevation>115.8</elevation>
    <locationLabels>
      <type>CNTRY</type>
      <id>FIPS:US</id>
      <displayName>United States</displayName>
    </locationLabels>
    <coverage>0.6075</coverage>
  </station>
  <station>
    <id>GHCND:USC00262390</id>
    <displayName>DUCKWATER, NV US</displayName>
    <minDate>1966-09-01</minDate>
    <maxDate>2003-03-31</maxDate>
    <latitude>38.85222</latitude>
    <longitude>-115.63611</longitude>
    <elevation>1691.6</elevation>
    <locationLabels>
      <type>CNTRY</type>
      <id>FIPS:US</id>
      <displayName>United States</displayName>
    </locationLabels>
    <coverage>0.8123</coverage>
  </station>
  <station>
    <id>GHCND:USC00092865</id>
    <displayName>DUDLEY, GA US</displayName>
    <minDate>1902-09-01</minDate>
    <maxDate>1910-12-31</maxDate>
    <latitude>32.566667</latitude>
    <longitude>-83.066667</longitude>
    <elevation>100.6</elevation>
    <locationLabels>
      <type>CNTRY</type>
      <id>FIPS:US</id>
      <displayName>United States</displayName>
    </locationLabels>
    <coverage>0.9701</coverage>
  </station>
  <station>
    <id>GHCND:USC00192010</id>
    <displayName>DUDLEY, MA US</displayName>
    <minDate>1885-01-01</minDate>
    <maxDate>1900-05-31</maxDate>
    <latitude>42.033333</latitude>
    <longitude>-71.933333</longitude>
    <elevation>213.4</elevation>
    <locationLabels>
      <type>CNTRY</type>
      <id>FIPS:US</id>
      <displayName>United States</displayName>
    </locationLabels>
    <coverage>0.9428</coverage>
  </station>
  <station>
    <id>GHCND:USC00042539</id>
    <displayName>DUDLEYS, CA US</displayName>
    <minDate>1908-08-01</minDate>
    <maxDate>1976-01-31</maxDate>
    <latitude>37.75</latitude>
    <longitude>-120.1</longitude>
    <elevation>915</elevation>
    <locationLabels>
      <type>CNTRY</type>
      <id>FIPS:US</id>
      <displayName>United States</displayName>
    </locationLabels>
    <coverage>0.942</coverage>
  </station>
  <station>
    <id>GHCND:USC00382580</id>
    <displayName>DUE WEST, SC US</displayName>
    <minDate>1901-09-01</minDate>
    <maxDate>1908-01-31</maxDate>
    <latitude>34.35</latitude>
    <longitude>-82.366667</longitude>
    <elevation>216.7</elevation>
    <locationLabels>
      <type>CNTRY</type>
      <id>FIPS:US</id>
      <displayName>United States</displayName>
    </locationLabels>
    <coverage>0.9138</coverage>
  </station>
  <station>
    <id>GHCND:USC00252438</id>
    <displayName>DUFF, NE US</displayName>
    <minDate>1898-08-01</minDate>
    <maxDate>1909-08-22</maxDate>
    <latitude>42.216667</latitude>
    <longitude>-99.55</longitude>
    <locationLabels>
      <type>CNTRY</type>
      <id>FIPS:US</id>
      <displayName>United States</displayName>
    </locationLabels>
    <coverage>0.9408</coverage>
  </station>
  <station>
    <id>GHCND:USC00332305</id>
    <displayName>DUFFY DAM 15, OH US</displayName>
    <minDate>1948-08-01</minDate>
    <maxDate>1951-05-05</maxDate>
    <latitude>39.63333</latitude>
    <longitude>-80.88333</longitude>
    <elevation>192</elevation>
    <locationLabels>
      <type>CNTRY</type>
      <id>FIPS:US</id>
      <displayName>United States</displayName>
    </locationLabels>
    <coverage>0.7996</coverage>
  </station>
  <station>
    <id>GHCND:USC00292604</id>
    <displayName>DUFUR RANCH, NM US</displayName>
    <minDate>1921-05-01</minDate>
    <maxDate>1923-03-31</maxDate>
    <latitude>36.45</latitude>
    <longitude>-107.633333</longitude>
    <elevation>2072.6</elevation>
    <locationLabels>
      <type>CNTRY</type>
      <id>FIPS:US</id>
      <displayName>United States</displayName>
    </locationLabels>
    <coverage>0.7985</coverage>
  </station>
  <station>
    <id>GHCND:USC00352440</id>
    <displayName>DUFUR, OR US</displayName>
    <minDate>1904-07-18</minDate>
    <maxDate>2012-10-31</maxDate>
    <latitude>45.4538</latitude>
    <longitude>-121.1303</longitude>
    <elevation>405.4</elevation>
    <locationLabels>
      <type>CNTRY</type>
      <id>FIPS:US</id>
      <displayName>United States</displayName>
    </locationLabels>
    <coverage>0.9229</coverage>
  </station>
  <station>
    <id>GHCND:USC00262394</id>
    <displayName>DUFURRENA DENIO 22 WSW, NV US</displayName>
    <minDate>1959-09-01</minDate>
    <maxDate>2012-11-30</maxDate>
    <latitude>41.8679</latitude>
    <longitude>-119.0147</longitude>
    <elevation>1472.2</elevation>
    <locationLabels>
      <type>CNTRY</type>
      <id>FIPS:US</id>
      <displayName>United States</displayName>
    </locationLabels>
    <coverage>0.8873</coverage>
  </station>
  <station>
    <id>GHCND:USC00268776</id>
    <displayName>DUFURRENA DENIO 22 WSW, NV US</displayName>
    <minDate>1951-10-20</minDate>
    <maxDate>1956-10-31</maxDate>
    <latitude>41.8679</latitude>
    <longitude>-119.0147</longitude>
    <elevation>1472.2</elevation>
    <locationLabels>
      <type>CNTRY</type>
      <id>FIPS:US</id>
      <displayName>United States</displayName>
    </locationLabels>
    <coverage>0.8891</coverage>
  </station>
  <station>
    <id>GHCND:USC00022742</id>
    <displayName>DUGAS 2 SE, AZ US</displayName>
    <minDate>1960-02-09</minDate>
    <maxDate>1972-12-31</maxDate>
    <latitude>34.35</latitude>
    <longitude>-111.95</longitude>
    <elevation>1232</elevation>
    <locationLabels>
      <type>CNTRY</type>
      <id>FIPS:US</id>
      <displayName>United States</displayName>
    </locationLabels>
    <coverage>0.958</coverage>
  </station>
  <station>
    <id>GHCND:USC00028391</id>
    <displayName>DUGAS 2 SE, AZ US</displayName>
    <minDate>1919-07-01</minDate>
    <maxDate>1959-12-31</maxDate>
    <latitude>34.35</latitude>
    <longitude>-111.95</longitude>
    <elevation>1232</elevation>
    <locationLabels>
      <type>CNTRY</type>
      <id>FIPS:US</id>
      <displayName>United States</displayName>
    </locationLabels>
    <coverage>0.9297</coverage>
  </station>
  <station>
    <id>GHCND:USC00422258</id>
    <displayName>DUGWAY 7 N ORR RANCH, UT US</displayName>
    <minDate>1970-12-01</minDate>
    <maxDate>1972-07-31</maxDate>
    <latitude>40.3</latitude>
    <longitude>-112.73333</longitude>
    <elevation>1434.1</elevation>
    <locationLabels>
      <type>CNTRY</type>
      <id>FIPS:US</id>
      <displayName>United States</displayName>
    </locationLabels>
    <coverage>0.7291</coverage>
  </station>
  <station>
    <id>GHCND:USC00427220</id>
    <displayName>DUGWAY 7 N ORR RANCH, UT US</displayName>
    <minDate>1968-12-11</minDate>
    <maxDate>1970-11-30</maxDate>
    <latitude>40.3</latitude>
    <longitude>-112.73333</longitude>
    <elevation>1434.1</elevation>
    <locationLabels>
      <type>CNTRY</type>
      <id>FIPS:US</id>
      <displayName>United States</displayName>
    </locationLabels>
    <coverage>0.9944</coverage>
  </station>
  <station>
    <id>GHCND:USW00024103</id>
    <displayName>DUGWAY PROVING GROUNDS, UT US</displayName>
    <minDate>1949-12-07</minDate>
    <maxDate>1970-12-18</maxDate>
    <latitude>40.18333</latitude>
    <longitude>-112.93333</longitude>
    <elevation>1325.6</elevation>
    <locationLabels>
      <type>CNTRY</type>
      <id>FIPS:US</id>
      <displayName>United States</displayName>
    </locationLabels>
    <coverage>0.9629</coverage>
  </station>
  <station>
    <id>GHCND:USC00422257</id>
    <displayName>DUGWAY, UT US</displayName>
    <minDate>1950-09-21</minDate>
    <maxDate>2013-01-13</maxDate>
    <latitude>40.1838</latitude>
    <longitude>-112.9216</longitude>
    <elevation>1324.4</elevation>
    <locationLabels>
      <type>CNTRY</type>
      <id>FIPS:US</id>
      <displayName>United States</displayName>
    </locationLabels>
    <coverage>0.974</coverage>
  </station>
  <station>
    <id>GHCND:USW00003844</id>
    <displayName>DUKE FIELD AAFB, FL US</displayName>
    <minDate>1949-09-09</minDate>
    <maxDate>1970-12-30</maxDate>
    <latitude>30.65</latitude>
    <longitude>-86.53333</longitude>
    <elevation>57.9</elevation>
    <locationLabels>
      <type>CNTRY</type>
      <id>FIPS:US</id>
      <displayName>United States</displayName>
    </locationLabels>
    <coverage>0.5624</coverage>
  </station>
  <station>
    <id>GHCND:USR0000NDUK</id>
    <displayName>DUKE FOREST NORTH CAROLINA, NC US</displayName>
    <minDate>2000-03-29</minDate>
    <maxDate>2012-08-31</maxDate>
    <latitude>35.9667</latitude>
    <longitude>-79.0917</longitude>
    <elevation>172.2</elevation>
    <locationLabels>
      <type>CNTRY</type>
      <id>FIPS:US</id>
      <displayName>United States</displayName>
    </locationLabels>
    <coverage>0.9429</coverage>
  </station>
  <station>
    <id>GHCND:USC00202293</id>
    <displayName>DUKES, MI US</displayName>
    <minDate>1926-07-10</minDate>
    <maxDate>1942-10-31</maxDate>
    <latitude>46.333333</latitude>
    <longitude>-87.166667</longitude>
    <elevation>335.3</elevation>
    <locationLabels>
      <type>CNTRY</type>
      <id>FIPS:US</id>
      <displayName>United States</displayName>
    </locationLabels>
    <coverage>0.9527</coverage>
  </station>
  <station>
    <id>GHCND:USC00162672</id>
    <displayName>DULAC, LA US</displayName>
    <minDate>1940-05-10</minDate>
    <maxDate>1942-04-30</maxDate>
    <latitude>29.383333</latitude>
    <longitude>-90.716667</longitude>
    <locationLabels>
      <type>CNTRY</type>
      <id>FIPS:US</id>
      <displayName>United States</displayName>
    </locationLabels>
    <coverage>0.9515</coverage>
  </station>
  <station>
    <id>GHCND:USC00292608</id>
    <displayName>DULCE, NM US</displayName>
    <minDate>1906-06-01</minDate>
    <maxDate>2013-01-15</maxDate>
    <latitude>36.9358</latitude>
    <longitude>-107</longitude>
    <elevation>2070.5</elevation>
    <locationLabels>
      <type>CNTRY</type>
      <id>FIPS:US</id>
      <displayName>United States</displayName>
    </locationLabels>
    <coverage>0.9281</coverage>
  </station>
  <station>
    <id>GHCND:USC00482725</id>
    <displayName>DULL CENTER 1 SE, WY US</displayName>
    <minDate>1926-05-20</minDate>
    <maxDate>2012-11-30</maxDate>
    <latitude>43.4117</latitude>
    <longitude>-104.9614</longitude>
    <elevation>1345.7</elevation>
    <locationLabels>
      <type>CNTRY</type>
      <id>FIPS:US</id>
      <displayName>United States</displayName>
    </locationLabels>
    <coverage>0.9434</coverage>
  </station>
  <station>
    <id>GHCND:US1GAGW0033</id>
    <displayName>DULUTH 0.9 ENE, GA US</displayName>
    <minDate>2012-06-26</minDate>
    <maxDate>2013-01-16</maxDate>
    <latitude>34.0079</latitude>
    <longitude>-84.1377</longitude>
    <elevation>326.1</elevation>
    <locationLabels>
      <type>CNTRY</type>
      <id>FIPS:US</id>
      <displayName>United States</displayName>
    </locationLabels>
    <coverage>0.9171</coverage>
  </station>
  <station>
    <id>GHCND:US1MNSL0009</id>
    <displayName>DULUTH 1.0 N, MN US</displayName>
    <minDate>2011-04-08</minDate>
    <maxDate>2012-07-25</maxDate>
    <latitude>46.7977</latitude>
    <longitude>-92.1037</longitude>
    <elevation>300.5</elevation>
    <locationLabels>
      <type>CNTRY</type>
      <id>FIPS:US</id>
      <displayName>United States</displayName>
    </locationLabels>
    <coverage>0.4884</coverage>
  </station>
  <station>
    <id>GHCND:US1MNSL0018</id>
    <displayName>DULUTH 1.4 NNW, MN US</displayName>
    <minDate>2011-09-21</minDate>
    <maxDate>2013-01-16</maxDate>
    <latitude>46.8032</latitude>
    <longitude>-92.1124</longitude>
    <elevation>367.9</elevation>
    <locationLabels>
      <type>CNTRY</type>
      <id>FIPS:US</id>
      <displayName>United States</displayName>
    </locationLabels>
    <coverage>0.6157</coverage>
  </station>
  <station>
    <id>GHCND:US1MNSL0002</id>
    <displayName>DULUTH 12.8 NE, MN US</displayName>
    <minDate>2010-06-25</minDate>
    <maxDate>2013-01-15</maxDate>
    <latitude>46.9312</latitude>
    <longitude>-91.9428</longitude>
    <elevation>332.2</elevation>
    <locationLabels>
      <type>CNTRY</type>
      <id>FIPS:US</id>
      <displayName>United States</displayName>
    </locationLabels>
    <coverage>0.5833</coverage>
  </station>
  <station>
    <id>GHCND:US1MNSL0035</id>
    <displayName>DULUTH 18.3 NNW, MN US</displayName>
    <minDate>2012-05-28</minDate>
    <maxDate>2012-12-07</maxDate>
    <latitude>47.033</latitude>
    <longitude>-92.2367</longitude>
    <elevation>422.1</elevation>
    <locationLabels>
      <type>CNTRY</type>
      <id>FIPS:US</id>
      <displayName>United States</displayName>
    </locationLabels>
    <coverage>0.7938</coverage>
  </station>
  <station>
    <id>GHCND:US1MNSL0030</id>
    <displayName>DULUTH 2.0 NNE, MN US</displayName>
    <minDate>2012-03-20</minDate>
    <maxDate>2012-11-02</maxDate>
    <latitude>46.8109</latitude>
    <longitude>-92.0918</longitude>
    <elevation>332.8</elevation>
    <locationLabels>
      <type>CNTRY</type>
      <id>FIPS:US</id>
      <displayName>United States</displayName>
    </locationLabels>
    <coverage>0.8377</coverage>
  </station>
  <station>
    <id>GHCND:US1MNSL0005</id>
    <displayName>DULUTH 3.0 NE, MN US</displayName>
    <minDate>2011-04-09</minDate>
    <maxDate>2013-01-16</maxDate>
    <latitude>46.8153</latitude>
    <longitude>-92.0637</longitude>
    <elevation>251.2</elevation>
    <locationLabels>
      <type>CNTRY</type>
      <id>FIPS:US</id>
      <displayName>United States</displayName>
    </locationLabels>
    <coverage>0.9692</coverage>
  </station>
  <station>
    <id>GHCND:US1MNSL0020</id>
    <displayName>DULUTH 3.2 NE, MN US</displayName>
    <minDate>2011-11-15</minDate>
    <maxDate>2013-01-16</maxDate>
    <latitude>46.8131</latitude>
    <longitude>-92.0556</longitude>
    <elevation>197.5</elevation>
    <locationLabels>
      <type>CNTRY</type>
      <id>FIPS:US</id>
      <displayName>United States</displayName>
    </locationLabels>
    <coverage>0.6387</coverage>
  </station>
  <station>
    <id>GHCND:US1MNSL0011</id>
    <displayName>DULUTH 4.1 NNE, MN US</displayName>
    <minDate>2011-06-05</minDate>
    <maxDate>2012-09-07</maxDate>
    <latitude>46.8382</latitude>
    <longitude>-92.0827</longitude>
    <elevation>361.8</elevation>
    <locationLabels>
      <type>CNTRY</type>
      <id>FIPS:US</id>
      <displayName>United States</displayName>
    </locationLabels>
    <coverage>0.2299</coverage>
  </station>
  <station>
    <id>GHCND:USC00212246</id>
    <displayName>DULUTH HARBOR STATION, MN US</displayName>
    <minDate>1933-08-13</minDate>
    <maxDate>2004-09-30</maxDate>
    <latitude>46.7681</latitude>
    <longitude>-92.0903</longitude>
    <elevation>185.9</elevation>
    <locationLabels>
      <type>CNTRY</type>
      <id>FIPS:US</id>
      <displayName>United States</displayName>
    </locationLabels>
    <coverage>0.6079</coverage>
  </station>
  <station>
    <id>GHCND:USW00014913</id>
    <displayName>DULUTH INTERNATIONAL AIRPORT, MN US</displayName>
    <minDate>1948-01-01</minDate>
    <maxDate>2013-01-15</maxDate>
    <latitude>46.8369</latitude>
    <longitude>-92.1833</longitude>
    <elevation>436.8</elevation>
    <locationLabels>
      <type>CNTRY</type>
      <id>FIPS:US</id>
      <displayName>United States</displayName>
    </locationLabels>
    <coverage>0.9997</coverage>
  </station>
  <station>
    <id>GHCND:USW00094909</id>
    <displayName>DULUTH INTERNATIONAL AIRPORT, MN US</displayName>
    <minDate>1951-09-16</minDate>
    <maxDate>1952-01-12</maxDate>
    <latitude>46.83333</latitude>
    <longitude>-92.18333</longitude>
    <elevation>428.9</elevation>
    <locationLabels>
      <type>CNTRY</type>
      <id>FIPS:US</id>
      <displayName>United States</displayName>
    </locationLabels>
    <coverage>1</coverage>
  </station>
  <station>
    <id>GHCND:USC00212252</id>
    <displayName>DULUTH NE EXPERIMENTAL FARM, MN US</displayName>
    <minDate>1915-08-11</minDate>
    <maxDate>1922-11-30</maxDate>
    <latitude>46.86667</latitude>
    <longitude>-92.1</longitude>
    <elevation>344.4</elevation>
    <locationLabels>
      <type>CNTRY</type>
      <id>FIPS:US</id>
      <displayName>United States</displayName>
    </locationLabels>
    <coverage>0.4489</coverage>
  </station>
  <station>
    <id>GHCND:USC00212250</id>
    <displayName>DULUTH NWS, MN US</displayName>
    <minDate>2011-10-04</minDate>
    <maxDate>2012-11-29</maxDate>
    <latitude>46.8368</latitude>
    <longitude>-92.2108</longitude>
    <elevation>436.8</elevation>
    <locationLabels>
      <type>CNTRY</type>
      <id>FIPS:US</id>
      <displayName>United States</displayName>
    </locationLabels>
    <coverage>0.8842</coverage>
  </station>
  <station>
    <id>GHCND:USC00212253</id>
    <displayName>DULUTH, MN US</displayName>
    <minDate>1935-06-01</minDate>
    <maxDate>1959-09-30</maxDate>
    <latitude>46.78333</latitude>
    <longitude>-92.1</longitude>
    <elevation>353.9</elevation>
    <locationLabels>
      <type>CNTRY</type>
      <id>FIPS:US</id>
      <displayName>United States</displayName>
    </locationLabels>
    <coverage>0.6437</coverage>
  </station>
  <station>
    <id>GHCND:USC00412619</id>
    <displayName>DUMAS 8 NE, TX US</displayName>
    <minDate>1948-06-01</minDate>
    <maxDate>1951-09-30</maxDate>
    <latitude>35.95</latitude>
    <longitude>-101.88333</longitude>
    <elevation>1083</elevation>
    <locationLabels>
      <type>CNTRY</type>
      <id>FIPS:US</id>
      <displayName>United States</displayName>
    </locationLabels>
    <coverage>0.9417</coverage>
  </station>
  <station>
    <id>GHCND:USC00412620</id>
    <displayName>DUMAS NEAR SOIL CONSERVATION SERVICE NUMBER 34, TX US</displayName>
    <minDate>1941-01-01</minDate>
    <maxDate>1942-12-31</maxDate>
    <latitude>35.9</latitude>
    <longitude>-102.116667</longitude>
    <locationLabels>
      <type>CNTRY</type>
      <id>FIPS:US</id>
      <displayName>United States</displayName>
    </locationLabels>
    <coverage>0.9014</coverage>
  </station>
  <station>
    <id>GHCND:USC00032148</id>
    <displayName>DUMAS, AR US</displayName>
    <minDate>1912-05-01</minDate>
    <maxDate>2012-10-31</maxDate>
    <latitude>33.8847</latitude>
    <longitude>-91.5317</longitude>
    <elevation>49.7</elevation>
    <locationLabels>
      <type>CNTRY</type>
      <id>FIPS:US</id>
      <displayName>United States</displayName>
    </locationLabels>
    <coverage>0.9923</coverage>
  </station>
</stationCollection>
