<?xml version="1.0" encoding="UTF-8" standalone="yes"?>
<stationCollection totalCount="46020" pageCount="461" pageSize="100" page="173">
  <station>
    <id>GHCND:US1PAWT0009</id>
    <displayName>GREENSBURG 0.6 WNW, PA US</displayName>
    <minDate>2010-02-21</minDate>
    <maxDate>2013-01-16</maxDate>
    <latitude>40.3136</latitude>
    <longitude>-79.5543</longitude>
    <elevation>341.1</elevation>
    <locationLabels>
      <type>CNTRY</type>
      <id>FIPS:US</id>
      <displayName>United States</displayName>
    </locationLabels>
    <coverage>0.7531</coverage>
  </station>
  <station>
    <id>GHCND:US1INDC0005</id>
    <displayName>GREENSBURG 1.2 SE, IN US</displayName>
    <minDate>2009-12-07</minDate>
    <maxDate>2013-01-16</maxDate>
    <latitude>39.3269</latitude>
    <longitude>-85.4672</longitude>
    <elevation>291.7</elevation>
    <locationLabels>
      <type>CNTRY</type>
      <id>FIPS:US</id>
      <displayName>United States</displayName>
    </locationLabels>
    <coverage>0.9622</coverage>
  </station>
  <station>
    <id>GHCND:USC00363515</id>
    <displayName>GREENSBURG 2 E, PA US</displayName>
    <minDate>1948-05-01</minDate>
    <maxDate>1951-09-30</maxDate>
    <latitude>40.3</latitude>
    <longitude>-79.51667</longitude>
    <elevation>374.9</elevation>
    <locationLabels>
      <type>CNTRY</type>
      <id>FIPS:US</id>
      <displayName>United States</displayName>
    </locationLabels>
    <coverage>0.9599</coverage>
  </station>
  <station>
    <id>GHCND:USC00363510</id>
    <displayName>GREENSBURG 2 S, PA US</displayName>
    <minDate>1908-04-05</minDate>
    <maxDate>1952-03-11</maxDate>
    <latitude>40.26667</latitude>
    <longitude>-79.55</longitude>
    <elevation>299</elevation>
    <locationLabels>
      <type>CNTRY</type>
      <id>FIPS:US</id>
      <displayName>United States</displayName>
    </locationLabels>
    <coverage>0.9877</coverage>
  </station>
  <station>
    <id>GHCND:USC00363516</id>
    <displayName>GREENSBURG 3 SE UNIT, PA US</displayName>
    <minDate>1908-10-01</minDate>
    <maxDate>1959-06-30</maxDate>
    <latitude>40.28333</latitude>
    <longitude>-79.5</longitude>
    <elevation>378</elevation>
    <locationLabels>
      <type>CNTRY</type>
      <id>FIPS:US</id>
      <displayName>United States</displayName>
    </locationLabels>
    <coverage>0.9188</coverage>
  </station>
  <station>
    <id>GHCND:US1KYGN0001</id>
    <displayName>GREENSBURG 3.5 W, KY US</displayName>
    <minDate>2009-04-19</minDate>
    <maxDate>2012-09-03</maxDate>
    <latitude>37.262</latitude>
    <longitude>-85.5576</longitude>
    <elevation>226.5</elevation>
    <locationLabels>
      <type>CNTRY</type>
      <id>FIPS:US</id>
      <displayName>United States</displayName>
    </locationLabels>
    <coverage>0.5227</coverage>
  </station>
  <station>
    <id>GHCND:US1INDC0001</id>
    <displayName>GREENSBURG 5.8 S, IN US</displayName>
    <minDate>2006-03-21</minDate>
    <maxDate>2012-09-22</maxDate>
    <latitude>39.259</latitude>
    <longitude>-85.5009</longitude>
    <elevation>289</elevation>
    <locationLabels>
      <type>CNTRY</type>
      <id>FIPS:US</id>
      <displayName>United States</displayName>
    </locationLabels>
    <coverage>0.4802</coverage>
  </station>
  <station>
    <id>GHCND:USC00123550</id>
    <displayName>GREENSBURG WATERWORKS, IN US</displayName>
    <minDate>1969-02-01</minDate>
    <maxDate>1970-12-31</maxDate>
    <latitude>39.35</latitude>
    <longitude>-85.5</longitude>
    <elevation>287.1</elevation>
    <locationLabels>
      <type>CNTRY</type>
      <id>FIPS:US</id>
      <displayName>United States</displayName>
    </locationLabels>
    <coverage>0.7825</coverage>
  </station>
  <station>
    <id>GHCND:USC00123547</id>
    <displayName>GREENSBURG, IN US</displayName>
    <minDate>1896-05-01</minDate>
    <maxDate>2013-01-16</maxDate>
    <latitude>39.3475</latitude>
    <longitude>-85.4891</longitude>
    <elevation>285</elevation>
    <locationLabels>
      <type>CNTRY</type>
      <id>FIPS:US</id>
      <displayName>United States</displayName>
    </locationLabels>
    <coverage>0.9722</coverage>
  </station>
  <station>
    <id>GHCND:USC00143239</id>
    <displayName>GREENSBURG, KS US</displayName>
    <minDate>1893-01-01</minDate>
    <maxDate>2013-01-16</maxDate>
    <latitude>37.6025</latitude>
    <longitude>-99.3021</longitude>
    <elevation>683.7</elevation>
    <locationLabels>
      <type>CNTRY</type>
      <id>FIPS:US</id>
      <displayName>United States</displayName>
    </locationLabels>
    <coverage>0.8654</coverage>
  </station>
  <station>
    <id>GHCND:USC00153435</id>
    <displayName>GREENSBURG, KY US</displayName>
    <minDate>1947-11-01</minDate>
    <maxDate>1998-09-30</maxDate>
    <latitude>37.23333</latitude>
    <longitude>-85.55</longitude>
    <elevation>213.4</elevation>
    <locationLabels>
      <type>CNTRY</type>
      <id>FIPS:US</id>
      <displayName>United States</displayName>
    </locationLabels>
    <coverage>0.9658</coverage>
  </station>
  <station>
    <id>GHCND:USC00153430</id>
    <displayName>GREENSBURG, KY US</displayName>
    <minDate>1889-01-05</minDate>
    <maxDate>2012-11-30</maxDate>
    <latitude>37.2591</latitude>
    <longitude>-85.5022</longitude>
    <elevation>179.8</elevation>
    <locationLabels>
      <type>CNTRY</type>
      <id>FIPS:US</id>
      <displayName>United States</displayName>
    </locationLabels>
    <coverage>0.9496</coverage>
  </station>
  <station>
    <id>GHCND:USC00163864</id>
    <displayName>GREENSBURG, LA US</displayName>
    <minDate>1958-02-21</minDate>
    <maxDate>1981-09-30</maxDate>
    <latitude>30.83333</latitude>
    <longitude>-90.66667</longitude>
    <elevation>70.1</elevation>
    <locationLabels>
      <type>CNTRY</type>
      <id>FIPS:US</id>
      <displayName>United States</displayName>
    </locationLabels>
    <coverage>0.9251</coverage>
  </station>
  <station>
    <id>GHCND:USC00113683</id>
    <displayName>GREENUP 3 SE, IL US</displayName>
    <minDate>1942-06-01</minDate>
    <maxDate>2003-08-31</maxDate>
    <latitude>39.2283</latitude>
    <longitude>-88.1261</longitude>
    <elevation>166.1</elevation>
    <locationLabels>
      <type>CNTRY</type>
      <id>FIPS:US</id>
      <displayName>United States</displayName>
    </locationLabels>
    <coverage>0.9316</coverage>
  </station>
  <station>
    <id>GHCND:US1KYGP0002</id>
    <displayName>GREENUP 7.0 WNW, KY US</displayName>
    <minDate>2008-02-26</minDate>
    <maxDate>2009-10-02</maxDate>
    <latitude>38.6017</latitude>
    <longitude>-82.9542</longitude>
    <elevation>171</elevation>
    <locationLabels>
      <type>CNTRY</type>
      <id>FIPS:US</id>
      <displayName>United States</displayName>
    </locationLabels>
    <coverage>0.8274</coverage>
  </station>
  <station>
    <id>GHCND:US1CASK0001</id>
    <displayName>GREENVIEW 0.7 SW, CA US</displayName>
    <minDate>2008-10-01</minDate>
    <maxDate>2010-02-03</maxDate>
    <latitude>41.5465</latitude>
    <longitude>-122.9102</longitude>
    <elevation>861.1</elevation>
    <locationLabels>
      <type>CNTRY</type>
      <id>FIPS:US</id>
      <displayName>United States</displayName>
    </locationLabels>
    <coverage>0.5682</coverage>
  </station>
  <station>
    <id>GHCND:USC00043614</id>
    <displayName>GREENVIEW, CA US</displayName>
    <minDate>1941-08-01</minDate>
    <maxDate>2008-05-31</maxDate>
    <latitude>41.5519</latitude>
    <longitude>-122.9236</longitude>
    <elevation>859.5</elevation>
    <locationLabels>
      <type>CNTRY</type>
      <id>FIPS:US</id>
      <displayName>United States</displayName>
    </locationLabels>
    <coverage>0.8875</coverage>
  </station>
  <station>
    <id>GHCND:US1INFD0009</id>
    <displayName>GREENVILLE 0.6 S, IN US</displayName>
    <minDate>2008-06-30</minDate>
    <maxDate>2008-10-28</maxDate>
    <latitude>38.3623</latitude>
    <longitude>-85.9853</longitude>
    <elevation>244.8</elevation>
    <locationLabels>
      <type>CNTRY</type>
      <id>FIPS:US</id>
      <displayName>United States</displayName>
    </locationLabels>
    <coverage>1</coverage>
  </station>
  <station>
    <id>GHCND:US1NYGR0007</id>
    <displayName>GREENVILLE 0.7 E, NY US</displayName>
    <minDate>2012-05-12</minDate>
    <maxDate>2013-01-16</maxDate>
    <latitude>42.414</latitude>
    <longitude>-74.009</longitude>
    <elevation>248.7</elevation>
    <locationLabels>
      <type>CNTRY</type>
      <id>FIPS:US</id>
      <displayName>United States</displayName>
    </locationLabels>
    <coverage>0.884</coverage>
  </station>
  <station>
    <id>GHCND:USC00273658</id>
    <displayName>GREENVILLE 1 NNE, NH US</displayName>
    <minDate>1992-05-01</minDate>
    <maxDate>2013-01-16</maxDate>
    <latitude>42.7828</latitude>
    <longitude>-71.7985</longitude>
    <elevation>274.3</elevation>
    <locationLabels>
      <type>CNTRY</type>
      <id>FIPS:US</id>
      <displayName>United States</displayName>
    </locationLabels>
    <coverage>0.9459</coverage>
  </station>
  <station>
    <id>GHCND:USC00275196</id>
    <displayName>GREENVILLE 1 NNE, NH US</displayName>
    <minDate>1988-09-01</minDate>
    <maxDate>1991-05-31</maxDate>
    <latitude>42.7828</latitude>
    <longitude>-71.7985</longitude>
    <elevation>274.3</elevation>
    <locationLabels>
      <type>CNTRY</type>
      <id>FIPS:US</id>
      <displayName>United States</displayName>
    </locationLabels>
    <coverage>0.9222</coverage>
  </station>
  <station>
    <id>GHCND:USC00273661</id>
    <displayName>GREENVILLE 1 NW, NH US</displayName>
    <minDate>1938-09-01</minDate>
    <maxDate>1948-10-31</maxDate>
    <latitude>42.78333</latitude>
    <longitude>-71.8</longitude>
    <elevation>217</elevation>
    <locationLabels>
      <type>CNTRY</type>
      <id>FIPS:US</id>
      <displayName>United States</displayName>
    </locationLabels>
    <coverage>0.4488</coverage>
  </station>
  <station>
    <id>GHCND:US1GAMW0005</id>
    <displayName>GREENVILLE 1.0 SW, GA US</displayName>
    <minDate>2011-07-09</minDate>
    <maxDate>2013-01-16</maxDate>
    <latitude>33.0173</latitude>
    <longitude>-84.7275</longitude>
    <elevation>251.2</elevation>
    <locationLabels>
      <type>CNTRY</type>
      <id>FIPS:US</id>
      <displayName>United States</displayName>
    </locationLabels>
    <coverage>0.9803</coverage>
  </station>
  <station>
    <id>GHCND:US1NHHL0048</id>
    <displayName>GREENVILLE 1.1 ENE, NH US</displayName>
    <minDate>2010-12-01</minDate>
    <maxDate>2013-01-15</maxDate>
    <latitude>42.7767</latitude>
    <longitude>-71.7799</longitude>
    <elevation>296.3</elevation>
    <locationLabels>
      <type>CNTRY</type>
      <id>FIPS:US</id>
      <displayName>United States</displayName>
    </locationLabels>
    <coverage>0.9858</coverage>
  </station>
  <station>
    <id>GHCND:US1NCPT0009</id>
    <displayName>GREENVILLE 1.1 S, NC US</displayName>
    <minDate>2008-05-21</minDate>
    <maxDate>2012-09-04</maxDate>
    <latitude>35.5845</latitude>
    <longitude>-77.3757</longitude>
    <elevation>18.6</elevation>
    <locationLabels>
      <type>CNTRY</type>
      <id>FIPS:US</id>
      <displayName>United States</displayName>
    </locationLabels>
    <coverage>0.4802</coverage>
  </station>
  <station>
    <id>GHCND:US1SCGV0040</id>
    <displayName>GREENVILLE 1.2 SSE, SC US</displayName>
    <minDate>2011-11-02</minDate>
    <maxDate>2013-01-16</maxDate>
    <latitude>34.8229</latitude>
    <longitude>-82.3624</longitude>
    <elevation>276.5</elevation>
    <locationLabels>
      <type>CNTRY</type>
      <id>FIPS:US</id>
      <displayName>United States</displayName>
    </locationLabels>
    <coverage>0.3982</coverage>
  </station>
  <station>
    <id>GHCND:US1NCPT0008</id>
    <displayName>GREENVILLE 1.4 SE, NC US</displayName>
    <minDate>2008-05-07</minDate>
    <maxDate>2013-01-12</maxDate>
    <latitude>35.5857</latitude>
    <longitude>-77.3553</longitude>
    <elevation>20.7</elevation>
    <locationLabels>
      <type>CNTRY</type>
      <id>FIPS:US</id>
      <displayName>United States</displayName>
    </locationLabels>
    <coverage>0.9241</coverage>
  </station>
  <station>
    <id>GHCND:US1VAAG0001</id>
    <displayName>GREENVILLE 1.9 NW, VA US</displayName>
    <minDate>2007-03-01</minDate>
    <maxDate>2009-02-08</maxDate>
    <latitude>38.0204</latitude>
    <longitude>-79.184</longitude>
    <elevation>584</elevation>
    <locationLabels>
      <type>CNTRY</type>
      <id>FIPS:US</id>
      <displayName>United States</displayName>
    </locationLabels>
    <coverage>0.8594</coverage>
  </station>
  <station>
    <id>GHCND:US1ALBT0001</id>
    <displayName>GREENVILLE 12.7 W, AL US</displayName>
    <minDate>2008-02-20</minDate>
    <maxDate>2009-05-17</maxDate>
    <latitude>31.8589</latitude>
    <longitude>-86.8405</longitude>
    <elevation>130.1</elevation>
    <locationLabels>
      <type>CNTRY</type>
      <id>FIPS:US</id>
      <displayName>United States</displayName>
    </locationLabels>
    <coverage>0.4084</coverage>
  </station>
  <station>
    <id>GHCND:USC00203434</id>
    <displayName>GREENVILLE 2 N, MI US</displayName>
    <minDate>1949-08-10</minDate>
    <maxDate>1951-09-30</maxDate>
    <latitude>43.21667</latitude>
    <longitude>-85.25</longitude>
    <elevation>264.9</elevation>
    <locationLabels>
      <type>CNTRY</type>
      <id>FIPS:US</id>
      <displayName>United States</displayName>
    </locationLabels>
    <coverage>0.9706</coverage>
  </station>
  <station>
    <id>GHCND:USC00363526</id>
    <displayName>GREENVILLE 2 NE, PA US</displayName>
    <minDate>1894-01-12</minDate>
    <maxDate>1997-01-31</maxDate>
    <latitude>41.41667</latitude>
    <longitude>-80.36667</longitude>
    <elevation>344.4</elevation>
    <locationLabels>
      <type>CNTRY</type>
      <id>FIPS:US</id>
      <displayName>United States</displayName>
    </locationLabels>
    <coverage>0.9228</coverage>
  </station>
  <station>
    <id>GHCND:USC00203429</id>
    <displayName>GREENVILLE 2 NNE, MI US</displayName>
    <minDate>1912-08-10</minDate>
    <maxDate>2012-11-30</maxDate>
    <latitude>43.2025</latitude>
    <longitude>-85.2422</longitude>
    <elevation>268.8</elevation>
    <locationLabels>
      <type>CNTRY</type>
      <id>FIPS:US</id>
      <displayName>United States</displayName>
    </locationLabels>
    <coverage>0.9731</coverage>
  </station>
  <station>
    <id>GHCND:USC00273660</id>
    <displayName>GREENVILLE 2 NNE, NH US</displayName>
    <minDate>1971-05-01</minDate>
    <maxDate>1988-05-31</maxDate>
    <latitude>42.76667</latitude>
    <longitude>-71.78333</longitude>
    <elevation>320</elevation>
    <locationLabels>
      <type>CNTRY</type>
      <id>FIPS:US</id>
      <displayName>United States</displayName>
    </locationLabels>
    <coverage>0.8805</coverage>
  </station>
  <station>
    <id>GHCND:USC00153451</id>
    <displayName>GREENVILLE 2 W, KY US</displayName>
    <minDate>1916-09-01</minDate>
    <maxDate>1985-07-31</maxDate>
    <latitude>37.18333</latitude>
    <longitude>-87.21667</longitude>
    <elevation>167.6</elevation>
    <locationLabels>
      <type>CNTRY</type>
      <id>FIPS:US</id>
      <displayName>United States</displayName>
    </locationLabels>
    <coverage>0.9317</coverage>
  </station>
  <station>
    <id>GHCND:USC00013524</id>
    <displayName>GREENVILLE 2, AL US</displayName>
    <minDate>1948-07-01</minDate>
    <maxDate>1951-09-30</maxDate>
    <latitude>31.83333</latitude>
    <longitude>-86.63333</longitude>
    <elevation>128</elevation>
    <locationLabels>
      <type>CNTRY</type>
      <id>FIPS:US</id>
      <displayName>United States</displayName>
    </locationLabels>
    <coverage>0.8778</coverage>
  </station>
  <station>
    <id>GHCND:USC00223610</id>
    <displayName>GREENVILLE 2, MS US</displayName>
    <minDate>1950-04-01</minDate>
    <maxDate>1960-07-14</maxDate>
    <latitude>33.4</latitude>
    <longitude>-91.05</longitude>
    <elevation>39.9</elevation>
    <locationLabels>
      <type>CNTRY</type>
      <id>FIPS:US</id>
      <displayName>United States</displayName>
    </locationLabels>
    <coverage>0.2014</coverage>
  </station>
  <station>
    <id>GHCND:USC00313643</id>
    <displayName>GREENVILLE 2, NC US</displayName>
    <minDate>1940-04-01</minDate>
    <maxDate>1955-08-31</maxDate>
    <latitude>35.6</latitude>
    <longitude>-77.38333</longitude>
    <elevation>21</elevation>
    <locationLabels>
      <type>CNTRY</type>
      <id>FIPS:US</id>
      <displayName>United States</displayName>
    </locationLabels>
    <coverage>0.9998</coverage>
  </station>
  <station>
    <id>GHCND:US1NCPT0003</id>
    <displayName>GREENVILLE 2.1 SE, NC US</displayName>
    <minDate>2007-11-09</minDate>
    <maxDate>2008-04-12</maxDate>
    <latitude>35.5815</latitude>
    <longitude>-77.3442</longitude>
    <elevation>23.2</elevation>
    <locationLabels>
      <type>CNTRY</type>
      <id>FIPS:US</id>
      <displayName>United States</displayName>
    </locationLabels>
    <coverage>0.9038</coverage>
  </station>
  <station>
    <id>GHCND:US1NCPT0016</id>
    <displayName>GREENVILLE 2.5 E, NC US</displayName>
    <minDate>2011-06-04</minDate>
    <maxDate>2012-11-17</maxDate>
    <latitude>35.5938</latitude>
    <longitude>-77.3297</longitude>
    <elevation>10.4</elevation>
    <locationLabels>
      <type>CNTRY</type>
      <id>FIPS:US</id>
      <displayName>United States</displayName>
    </locationLabels>
    <coverage>0.576</coverage>
  </station>
  <station>
    <id>GHCND:US1KYMU0003</id>
    <displayName>GREENVILLE 2.6 NW, KY US</displayName>
    <minDate>2010-10-13</minDate>
    <maxDate>2012-09-29</maxDate>
    <latitude>37.2365</latitude>
    <longitude>-87.2061</longitude>
    <elevation>154.5</elevation>
    <locationLabels>
      <type>CNTRY</type>
      <id>FIPS:US</id>
      <displayName>United States</displayName>
    </locationLabels>
    <coverage>0.266</coverage>
  </station>
  <station>
    <id>GHCND:US1SCGV0003</id>
    <displayName>GREENVILLE 2.7 N, SC US</displayName>
    <minDate>2008-03-02</minDate>
    <maxDate>2012-09-17</maxDate>
    <latitude>34.8776</latitude>
    <longitude>-82.37</longitude>
    <elevation>306</elevation>
    <locationLabels>
      <type>CNTRY</type>
      <id>FIPS:US</id>
      <displayName>United States</displayName>
    </locationLabels>
    <coverage>0.5117</coverage>
  </station>
  <station>
    <id>GHCND:US1NCPT0035</id>
    <displayName>GREENVILLE 2.8 ESE, NC US</displayName>
    <minDate>2012-05-05</minDate>
    <maxDate>2013-01-16</maxDate>
    <latitude>35.5895</latitude>
    <longitude>-77.3261</longitude>
    <elevation>14</elevation>
    <locationLabels>
      <type>CNTRY</type>
      <id>FIPS:US</id>
      <displayName>United States</displayName>
    </locationLabels>
    <coverage>0.6926</coverage>
  </station>
  <station>
    <id>GHCND:USC00313648</id>
    <displayName>GREENVILLE 3 S, NC US</displayName>
    <minDate>1954-03-01</minDate>
    <maxDate>1963-12-31</maxDate>
    <latitude>35.56667</latitude>
    <longitude>-77.38333</longitude>
    <elevation>21</elevation>
    <locationLabels>
      <type>CNTRY</type>
      <id>FIPS:US</id>
      <displayName>United States</displayName>
    </locationLabels>
    <coverage>0.9864</coverage>
  </station>
  <station>
    <id>GHCND:US1KYMU0002</id>
    <displayName>GREENVILLE 4.0 SSE, KY US</displayName>
    <minDate>2008-04-16</minDate>
    <maxDate>2011-06-27</maxDate>
    <latitude>37.1545</latitude>
    <longitude>-87.1451</longitude>
    <elevation>134.7</elevation>
    <locationLabels>
      <type>CNTRY</type>
      <id>FIPS:US</id>
      <displayName>United States</displayName>
    </locationLabels>
    <coverage>0.7877</coverage>
  </station>
  <station>
    <id>GHCND:US1SCGV0015</id>
    <displayName>GREENVILLE 4.1 NE, SC US</displayName>
    <minDate>2008-06-17</minDate>
    <maxDate>2013-01-16</maxDate>
    <latitude>34.8816</latitude>
    <longitude>-82.3224</longitude>
    <elevation>281</elevation>
    <locationLabels>
      <type>CNTRY</type>
      <id>FIPS:US</id>
      <displayName>United States</displayName>
    </locationLabels>
    <coverage>0.7934</coverage>
  </station>
  <station>
    <id>GHCND:US1NCPT0021</id>
    <displayName>GREENVILLE 4.3 SSE, NC US</displayName>
    <minDate>2012-03-31</minDate>
    <maxDate>2013-01-16</maxDate>
    <latitude>35.5408</latitude>
    <longitude>-77.35</longitude>
    <elevation>19.2</elevation>
    <locationLabels>
      <type>CNTRY</type>
      <id>FIPS:US</id>
      <displayName>United States</displayName>
    </locationLabels>
    <coverage>0.6918</coverage>
  </station>
  <station>
    <id>GHCND:US1NCPT0019</id>
    <displayName>GREENVILLE 4.4 SSE, NC US</displayName>
    <minDate>2012-04-05</minDate>
    <maxDate>2013-01-10</maxDate>
    <latitude>35.5395</latitude>
    <longitude>-77.3466</longitude>
    <elevation>19.5</elevation>
    <locationLabels>
      <type>CNTRY</type>
      <id>FIPS:US</id>
      <displayName>United States</displayName>
    </locationLabels>
    <coverage>0.8256</coverage>
  </station>
  <station>
    <id>GHCND:US1NCPT0017</id>
    <displayName>GREENVILLE 4.6 W, NC US</displayName>
    <minDate>2011-08-14</minDate>
    <maxDate>2012-12-06</maxDate>
    <latitude>35.6024</latitude>
    <longitude>-77.4557</longitude>
    <elevation>25.3</elevation>
    <locationLabels>
      <type>CNTRY</type>
      <id>FIPS:US</id>
      <displayName>United States</displayName>
    </locationLabels>
    <coverage>0.3472</coverage>
  </station>
  <station>
    <id>GHCND:US1NCPT0025</id>
    <displayName>GREENVILLE 4.7 WNW, NC US</displayName>
    <minDate>2012-03-23</minDate>
    <maxDate>2013-01-16</maxDate>
    <latitude>35.6345</latitude>
    <longitude>-77.446</longitude>
    <elevation>25.3</elevation>
    <locationLabels>
      <type>CNTRY</type>
      <id>FIPS:US</id>
      <displayName>United States</displayName>
    </locationLabels>
    <coverage>0.77</coverage>
  </station>
  <station>
    <id>GHCND:US1NCPT0002</id>
    <displayName>GREENVILLE 5.2 SE, NC US</displayName>
    <minDate>2007-09-03</minDate>
    <maxDate>2008-12-05</maxDate>
    <latitude>35.5471</latitude>
    <longitude>-77.3075</longitude>
    <elevation>20.1</elevation>
    <locationLabels>
      <type>CNTRY</type>
      <id>FIPS:US</id>
      <displayName>United States</displayName>
    </locationLabels>
    <coverage>0.8196</coverage>
  </station>
  <station>
    <id>GHCND:US1MOFSA223</id>
    <displayName>GREENVILLE 5.2 WNW, MO US</displayName>
    <minDate>2006-05-01</minDate>
    <maxDate>2013-01-14</maxDate>
    <latitude>37.1559</latitude>
    <longitude>-90.5329</longitude>
    <elevation>212.1</elevation>
    <locationLabels>
      <type>CNTRY</type>
      <id>FIPS:US</id>
      <displayName>United States</displayName>
    </locationLabels>
    <coverage>0.9935</coverage>
  </station>
  <station>
    <id>GHCND:US1SCGV0035</id>
    <displayName>GREENVILLE 5.4 WNW, SC US</displayName>
    <minDate>2010-05-04</minDate>
    <maxDate>2013-01-16</maxDate>
    <latitude>34.8734</latitude>
    <longitude>-82.4855</longitude>
    <elevation>289</elevation>
    <locationLabels>
      <type>CNTRY</type>
      <id>FIPS:US</id>
      <displayName>United States</displayName>
    </locationLabels>
    <coverage>0.9221</coverage>
  </station>
  <station>
    <id>GHCND:USC00233451</id>
    <displayName>GREENVILLE 6 N, MO US</displayName>
    <minDate>1894-06-01</minDate>
    <maxDate>1994-05-31</maxDate>
    <latitude>37.2</latitude>
    <longitude>-90.45</longitude>
    <elevation>149.4</elevation>
    <locationLabels>
      <type>CNTRY</type>
      <id>FIPS:US</id>
      <displayName>United States</displayName>
    </locationLabels>
    <coverage>0.7274</coverage>
  </station>
  <station>
    <id>GHCND:US1KYMU0001</id>
    <displayName>GREENVILLE 6.2 WSW, KY US</displayName>
    <minDate>2008-03-08</minDate>
    <maxDate>2013-01-14</maxDate>
    <latitude>37.1572</latitude>
    <longitude>-87.273</longitude>
    <elevation>146</elevation>
    <locationLabels>
      <type>CNTRY</type>
      <id>FIPS:US</id>
      <displayName>United States</displayName>
    </locationLabels>
    <coverage>0.9797</coverage>
  </station>
  <station>
    <id>GHCND:US1GAMW0003</id>
    <displayName>GREENVILLE 6.8 NW, GA US</displayName>
    <minDate>2010-06-30</minDate>
    <maxDate>2013-01-16</maxDate>
    <latitude>33.1085</latitude>
    <longitude>-84.7807</longitude>
    <elevation>275.8</elevation>
    <locationLabels>
      <type>CNTRY</type>
      <id>FIPS:US</id>
      <displayName>United States</displayName>
    </locationLabels>
    <coverage>0.8273</coverage>
  </station>
  <station>
    <id>GHCND:US1NCPT0018</id>
    <displayName>GREENVILLE 7.1 SSE, NC US</displayName>
    <minDate>2011-08-22</minDate>
    <maxDate>2013-01-16</maxDate>
    <latitude>35.5072</latitude>
    <longitude>-77.3214</longitude>
    <elevation>18</elevation>
    <locationLabels>
      <type>CNTRY</type>
      <id>FIPS:US</id>
      <displayName>United States</displayName>
    </locationLabels>
    <coverage>0.928</coverage>
  </station>
  <station>
    <id>GHCND:US1SCGV0026</id>
    <displayName>GREENVILLE 7.7 SE, SC US</displayName>
    <minDate>2008-12-02</minDate>
    <maxDate>2013-01-16</maxDate>
    <latitude>34.7508</latitude>
    <longitude>-82.3437</longitude>
    <elevation>251.8</elevation>
    <locationLabels>
      <type>CNTRY</type>
      <id>FIPS:US</id>
      <displayName>United States</displayName>
    </locationLabels>
    <coverage>0.5873</coverage>
  </station>
  <station>
    <id>GHCND:USC00223611</id>
    <displayName>GREENVILLE 8 SW, MS US</displayName>
    <minDate>1952-05-02</minDate>
    <maxDate>1980-07-31</maxDate>
    <latitude>33.3</latitude>
    <longitude>-91.13333</longitude>
    <elevation>22.9</elevation>
    <locationLabels>
      <type>CNTRY</type>
      <id>FIPS:US</id>
      <displayName>United States</displayName>
    </locationLabels>
    <coverage>0.989</coverage>
  </station>
  <station>
    <id>GHCND:US1NCPT0012</id>
    <displayName>GREENVILLE 8.2 SSE, NC US</displayName>
    <minDate>2011-01-07</minDate>
    <maxDate>2013-01-16</maxDate>
    <latitude>35.4935</latitude>
    <longitude>-77.3082</longitude>
    <elevation>14</elevation>
    <locationLabels>
      <type>CNTRY</type>
      <id>FIPS:US</id>
      <displayName>United States</displayName>
    </locationLabels>
    <coverage>0.9717</coverage>
  </station>
  <station>
    <id>GHCND:USW00013939</id>
    <displayName>GREENVILLE ASOS, MS US</displayName>
    <minDate>1953-04-20</minDate>
    <maxDate>2013-01-15</maxDate>
    <latitude>33.4825</latitude>
    <longitude>-90.98528</longitude>
    <elevation>39</elevation>
    <locationLabels>
      <type>CNTRY</type>
      <id>FIPS:US</id>
      <displayName>United States</displayName>
    </locationLabels>
    <coverage>0.3119</coverage>
  </station>
  <station>
    <id>GHCND:USR0000UGB1</id>
    <displayName>GREENVILLE BENCH SAND HOLLOW, UT US</displayName>
    <minDate>2002-11-22</minDate>
    <maxDate>2010-08-22</maxDate>
    <latitude>38.1964</latitude>
    <longitude>-112.6619</longitude>
    <elevation>1914.1</elevation>
    <locationLabels>
      <type>CNTRY</type>
      <id>FIPS:US</id>
      <displayName>United States</displayName>
    </locationLabels>
    <coverage>0.9958</coverage>
  </station>
  <station>
    <id>GHCND:USW00013822</id>
    <displayName>GREENVILLE DONALDSON AFB, SC US</displayName>
    <minDate>1949-01-01</minDate>
    <maxDate>1963-04-30</maxDate>
    <latitude>34.76667</latitude>
    <longitude>-82.38333</longitude>
    <elevation>298.1</elevation>
    <locationLabels>
      <type>CNTRY</type>
      <id>FIPS:US</id>
      <displayName>United States</displayName>
    </locationLabels>
    <coverage>0.9404</coverage>
  </station>
  <station>
    <id>GHCND:USC00333380</id>
    <displayName>GREENVILLE HIGHWAY DEP, OH US</displayName>
    <minDate>1948-08-01</minDate>
    <maxDate>1951-02-23</maxDate>
    <latitude>40.1</latitude>
    <longitude>-84.61667</longitude>
    <elevation>274.9</elevation>
    <locationLabels>
      <type>CNTRY</type>
      <id>FIPS:US</id>
      <displayName>United States</displayName>
    </locationLabels>
    <coverage>0.7076</coverage>
  </station>
  <station>
    <id>GHCND:USR0000KGRE</id>
    <displayName>GREENVILLE KENTUCKY, KY US</displayName>
    <minDate>2003-04-22</minDate>
    <maxDate>2012-08-31</maxDate>
    <latitude>37.2672</latitude>
    <longitude>-87.2028</longitude>
    <elevation>168.2</elevation>
    <locationLabels>
      <type>CNTRY</type>
      <id>FIPS:US</id>
      <displayName>United States</displayName>
    </locationLabels>
    <coverage>0.9231</coverage>
  </station>
  <station>
    <id>GHCND:USC00413734</id>
    <displayName>GREENVILLE KGVL RADIO, TX US</displayName>
    <minDate>1900-03-01</minDate>
    <maxDate>2013-01-16</maxDate>
    <latitude>33.1677</latitude>
    <longitude>-96.0983</longitude>
    <elevation>166.1</elevation>
    <locationLabels>
      <type>CNTRY</type>
      <id>FIPS:US</id>
      <displayName>United States</displayName>
    </locationLabels>
    <coverage>0.9491</coverage>
  </station>
  <station>
    <id>GHCND:USW00063874</id>
    <displayName>GREENVILLE MAC CRENSHAW MEMORIAL AIRPORT, AL US</displayName>
    <minDate>2006-09-01</minDate>
    <maxDate>2012-12-31</maxDate>
    <latitude>31.84556</latitude>
    <longitude>-86.61083</longitude>
    <elevation>137.5</elevation>
    <locationLabels>
      <type>CNTRY</type>
      <id>FIPS:US</id>
      <displayName>United States</displayName>
    </locationLabels>
    <coverage>0.4555</coverage>
  </station>
  <station>
    <id>GHCND:USW00094626</id>
    <displayName>GREENVILLE MAINE FORESTRY SERVICE, ME US</displayName>
    <minDate>1998-03-01</minDate>
    <maxDate>2013-01-14</maxDate>
    <latitude>45.46222</latitude>
    <longitude>-69.59528</longitude>
    <elevation>316.1</elevation>
    <locationLabels>
      <type>CNTRY</type>
      <id>FIPS:US</id>
      <displayName>United States</displayName>
    </locationLabels>
    <coverage>0.9792</coverage>
  </station>
  <station>
    <id>GHCND:USC00173353</id>
    <displayName>GREENVILLE MAINE FORESTRY SERVICE, ME US</displayName>
    <minDate>1920-01-01</minDate>
    <maxDate>2013-01-15</maxDate>
    <latitude>45.46222</latitude>
    <longitude>-69.59528</longitude>
    <elevation>316.1</elevation>
    <locationLabels>
      <type>CNTRY</type>
      <id>FIPS:US</id>
      <displayName>United States</displayName>
    </locationLabels>
    <coverage>0.683</coverage>
  </station>
  <station>
    <id>GHCND:USW00003870</id>
    <displayName>GREENVILLE SPARTANBURG AIRPORT, SC US</displayName>
    <minDate>1962-10-15</minDate>
    <maxDate>2013-01-15</maxDate>
    <latitude>34.88472</latitude>
    <longitude>-82.22389</longitude>
    <elevation>287.4</elevation>
    <locationLabels>
      <type>CNTRY</type>
      <id>FIPS:US</id>
      <displayName>United States</displayName>
    </locationLabels>
    <coverage>0.9996</coverage>
  </station>
  <station>
    <id>GHCND:USR0000TGRE</id>
    <displayName>GREENVILLE TEXAS, TX US</displayName>
    <minDate>2002-04-16</minDate>
    <maxDate>2012-08-31</maxDate>
    <latitude>33.0353</latitude>
    <longitude>-96.1639</longitude>
    <elevation>136.2</elevation>
    <locationLabels>
      <type>CNTRY</type>
      <id>FIPS:US</id>
      <displayName>United States</displayName>
    </locationLabels>
    <coverage>0.9312</coverage>
  </station>
  <station>
    <id>GHCND:USC00333375</id>
    <displayName>GREENVILLE WATER PLANT, OH US</displayName>
    <minDate>1893-06-01</minDate>
    <maxDate>2013-01-14</maxDate>
    <latitude>40.1</latitude>
    <longitude>-84.65</longitude>
    <elevation>312.1</elevation>
    <locationLabels>
      <type>CNTRY</type>
      <id>FIPS:US</id>
      <displayName>United States</displayName>
    </locationLabels>
    <coverage>0.993</coverage>
  </station>
  <station>
    <id>GHCND:USC00013519</id>
    <displayName>GREENVILLE, AL US</displayName>
    <minDate>1900-09-15</minDate>
    <maxDate>2013-01-16</maxDate>
    <latitude>31.7901</latitude>
    <longitude>-86.6087</longitude>
    <elevation>104.2</elevation>
    <locationLabels>
      <type>CNTRY</type>
      <id>FIPS:US</id>
      <displayName>United States</displayName>
    </locationLabels>
    <coverage>0.9699</coverage>
  </station>
  <station>
    <id>GHCND:USC00043621</id>
    <displayName>GREENVILLE, CA US</displayName>
    <minDate>1894-01-01</minDate>
    <maxDate>2008-05-31</maxDate>
    <latitude>40.1408</latitude>
    <longitude>-120.9505</longitude>
    <elevation>1094.2</elevation>
    <locationLabels>
      <type>CNTRY</type>
      <id>FIPS:US</id>
      <displayName>United States</displayName>
    </locationLabels>
    <coverage>0.6616</coverage>
  </station>
  <station>
    <id>GHCND:USC00093915</id>
    <displayName>GREENVILLE, GA US</displayName>
    <minDate>1957-02-01</minDate>
    <maxDate>2001-09-30</maxDate>
    <latitude>33.02861</latitude>
    <longitude>-84.735</longitude>
    <elevation>292.6</elevation>
    <locationLabels>
      <type>CNTRY</type>
      <id>FIPS:US</id>
      <displayName>United States</displayName>
    </locationLabels>
    <coverage>0.803</coverage>
  </station>
  <station>
    <id>GHCND:USC00113693</id>
    <displayName>GREENVILLE, IL US</displayName>
    <minDate>1893-01-01</minDate>
    <maxDate>2013-01-16</maxDate>
    <latitude>38.8665</latitude>
    <longitude>-89.4051</longitude>
    <elevation>164.9</elevation>
    <locationLabels>
      <type>CNTRY</type>
      <id>FIPS:US</id>
      <displayName>United States</displayName>
    </locationLabels>
    <coverage>0.9454</coverage>
  </station>
  <station>
    <id>GHCND:USC00223605</id>
    <displayName>GREENVILLE, MS US</displayName>
    <minDate>1903-01-01</minDate>
    <maxDate>2012-12-18</maxDate>
    <latitude>33.3591</latitude>
    <longitude>-91.06</longitude>
    <elevation>38.1</elevation>
    <locationLabels>
      <type>CNTRY</type>
      <id>FIPS:US</id>
      <displayName>United States</displayName>
    </locationLabels>
    <coverage>0.9567</coverage>
  </station>
  <station>
    <id>GHCND:USC00313638</id>
    <displayName>GREENVILLE, NC US</displayName>
    <minDate>1875-03-01</minDate>
    <maxDate>2013-01-15</maxDate>
    <latitude>35.64</latitude>
    <longitude>-77.3984</longitude>
    <elevation>9.8</elevation>
    <locationLabels>
      <type>CNTRY</type>
      <id>FIPS:US</id>
      <displayName>United States</displayName>
    </locationLabels>
    <coverage>0.7019</coverage>
  </station>
  <station>
    <id>GHCND:USC00273656</id>
    <displayName>GREENVILLE, NH US</displayName>
    <minDate>1955-11-10</minDate>
    <maxDate>1971-04-30</maxDate>
    <latitude>42.78333</latitude>
    <longitude>-71.81667</longitude>
    <elevation>267.9</elevation>
    <locationLabels>
      <type>CNTRY</type>
      <id>FIPS:US</id>
      <displayName>United States</displayName>
    </locationLabels>
    <coverage>0.9574</coverage>
  </station>
  <station>
    <id>GHCND:USC00373306</id>
    <displayName>GREENVILLE, RI US</displayName>
    <minDate>1942-04-01</minDate>
    <maxDate>1974-08-31</maxDate>
    <latitude>41.88333</latitude>
    <longitude>-71.56667</longitude>
    <elevation>128</elevation>
    <locationLabels>
      <type>CNTRY</type>
      <id>FIPS:US</id>
      <displayName>United States</displayName>
    </locationLabels>
    <coverage>0.9014</coverage>
  </station>
  <station>
    <id>GHCND:USW00013886</id>
    <displayName>GREENVILLE, SC US</displayName>
    <minDate>1884-04-01</minDate>
    <maxDate>2013-01-14</maxDate>
    <latitude>34.823</latitude>
    <longitude>-82.3627</longitude>
    <elevation>292.6</elevation>
    <locationLabels>
      <type>CNTRY</type>
      <id>FIPS:US</id>
      <displayName>United States</displayName>
    </locationLabels>
    <coverage>0.4734</coverage>
  </station>
  <station>
    <id>GHCND:USC00383732</id>
    <displayName>GREENVILLE, SC US</displayName>
    <minDate>1963-01-01</minDate>
    <maxDate>1977-12-31</maxDate>
    <latitude>34.86667</latitude>
    <longitude>-82.38333</longitude>
    <elevation>302.1</elevation>
    <locationLabels>
      <type>CNTRY</type>
      <id>FIPS:US</id>
      <displayName>United States</displayName>
    </locationLabels>
    <coverage>0.9836</coverage>
  </station>
  <station>
    <id>GHCND:USR0000WGRN</id>
    <displayName>GREENWATER WASHINGTON, WA US</displayName>
    <minDate>1995-05-09</minDate>
    <maxDate>2012-08-31</maxDate>
    <latitude>47.1556</latitude>
    <longitude>-121.6114</longitude>
    <elevation>640.1</elevation>
    <locationLabels>
      <type>CNTRY</type>
      <id>FIPS:US</id>
      <displayName>United States</displayName>
    </locationLabels>
    <coverage>0.4836</coverage>
  </station>
  <station>
    <id>GHCND:USC00453357</id>
    <displayName>GREENWATER, WA US</displayName>
    <minDate>1939-01-11</minDate>
    <maxDate>1981-05-31</maxDate>
    <latitude>47.13333</latitude>
    <longitude>-121.63333</longitude>
    <elevation>527.3</elevation>
    <locationLabels>
      <type>CNTRY</type>
      <id>FIPS:US</id>
      <displayName>United States</displayName>
    </locationLabels>
    <coverage>0.9583</coverage>
  </station>
  <station>
    <id>GHCND:USC00163867</id>
    <displayName>GREENWELL SPRINGS, LA US</displayName>
    <minDate>1967-06-01</minDate>
    <maxDate>2005-12-31</maxDate>
    <latitude>30.55889</latitude>
    <longitude>-90.98556</longitude>
    <elevation>18.3</elevation>
    <locationLabels>
      <type>CNTRY</type>
      <id>FIPS:US</id>
      <displayName>United States</displayName>
    </locationLabels>
    <coverage>0.9976</coverage>
  </station>
  <station>
    <id>GHCND:US1NJCD0006</id>
    <displayName>GREENWICH TWP 1.3 NE, NJ US</displayName>
    <minDate>2011-02-10</minDate>
    <maxDate>2013-01-16</maxDate>
    <latitude>39.4087</latitude>
    <longitude>-75.3472</longitude>
    <elevation>3.4</elevation>
    <locationLabels>
      <type>CNTRY</type>
      <id>FIPS:US</id>
      <displayName>United States</displayName>
    </locationLabels>
    <coverage>0.8218</coverage>
  </station>
  <station>
    <id>GHCND:US1NJWR0001</id>
    <displayName>GREENWICH TWP 1.6 S, NJ US</displayName>
    <minDate>2008-01-29</minDate>
    <maxDate>2013-01-16</maxDate>
    <latitude>40.6554</latitude>
    <longitude>-75.1167</longitude>
    <elevation>118.6</elevation>
    <locationLabels>
      <type>CNTRY</type>
      <id>FIPS:US</id>
      <displayName>United States</displayName>
    </locationLabels>
    <coverage>0.9884</coverage>
  </station>
  <station>
    <id>GHCND:USC00063137</id>
    <displayName>GREENWICH, CT US</displayName>
    <minDate>1947-11-12</minDate>
    <maxDate>1953-12-31</maxDate>
    <latitude>41.08333</latitude>
    <longitude>-73.7</longitude>
    <elevation>136.9</elevation>
    <locationLabels>
      <type>CNTRY</type>
      <id>FIPS:US</id>
      <displayName>United States</displayName>
    </locationLabels>
    <coverage>0.9862</coverage>
  </station>
  <station>
    <id>GHCND:USC00303468</id>
    <displayName>GREENWICH, NY US</displayName>
    <minDate>1897-08-01</minDate>
    <maxDate>1913-06-30</maxDate>
    <latitude>43.116667</latitude>
    <longitude>-73.5</longitude>
    <elevation>129.5</elevation>
    <locationLabels>
      <type>CNTRY</type>
      <id>FIPS:US</id>
      <displayName>United States</displayName>
    </locationLabels>
    <coverage>0.9222</coverage>
  </station>
  <station>
    <id>GHCND:US1ARSB0004</id>
    <displayName>GREENWOOD 1.4 W, AR US</displayName>
    <minDate>2012-05-22</minDate>
    <maxDate>2013-01-16</maxDate>
    <latitude>35.21</latitude>
    <longitude>-94.26</longitude>
    <elevation>154.2</elevation>
    <locationLabels>
      <type>CNTRY</type>
      <id>FIPS:US</id>
      <displayName>United States</displayName>
    </locationLabels>
    <coverage>0.9625</coverage>
  </station>
  <station>
    <id>GHCND:USC00073595</id>
    <displayName>GREENWOOD 2 NE, DE US</displayName>
    <minDate>1986-01-01</minDate>
    <maxDate>2010-06-30</maxDate>
    <latitude>38.8161</latitude>
    <longitude>-75.5761</longitude>
    <elevation>13.7</elevation>
    <locationLabels>
      <type>CNTRY</type>
      <id>FIPS:US</id>
      <displayName>United States</displayName>
    </locationLabels>
    <coverage>0.9923</coverage>
  </station>
  <station>
    <id>GHCND:US1INJH0011</id>
    <displayName>GREENWOOD 2.2 WNW, IN US</displayName>
    <minDate>2009-01-27</minDate>
    <maxDate>2009-12-08</maxDate>
    <latitude>39.6256</latitude>
    <longitude>-86.1522</longitude>
    <elevation>224</elevation>
    <locationLabels>
      <type>CNTRY</type>
      <id>FIPS:US</id>
      <displayName>United States</displayName>
    </locationLabels>
    <coverage>0.7215</coverage>
  </station>
  <station>
    <id>GHCND:US1SCGW0004</id>
    <displayName>GREENWOOD 2.8 NNW, SC US</displayName>
    <minDate>2008-06-10</minDate>
    <maxDate>2013-01-16</maxDate>
    <latitude>34.2299</latitude>
    <longitude>-82.1628</longitude>
    <elevation>176.8</elevation>
    <locationLabels>
      <type>CNTRY</type>
      <id>FIPS:US</id>
      <displayName>United States</displayName>
    </locationLabels>
    <coverage>0.9869</coverage>
  </station>
  <station>
    <id>GHCND:US1DESS0007</id>
    <displayName>GREENWOOD 2.9 SE, DE US</displayName>
    <minDate>2009-09-01</minDate>
    <maxDate>2012-06-30</maxDate>
    <latitude>38.7731</latitude>
    <longitude>-75.5616</longitude>
    <elevation>12.2</elevation>
    <locationLabels>
      <type>CNTRY</type>
      <id>FIPS:US</id>
      <displayName>United States</displayName>
    </locationLabels>
    <coverage>0.6286</coverage>
  </station>
  <station>
    <id>GHCND:US1ARSB0005</id>
    <displayName>GREENWOOD 3.7 SW, AR US</displayName>
    <minDate>2012-05-29</minDate>
    <maxDate>2012-12-20</maxDate>
    <latitude>35.1839</latitude>
    <longitude>-94.3094</longitude>
    <elevation>186.5</elevation>
    <locationLabels>
      <type>CNTRY</type>
      <id>FIPS:US</id>
      <displayName>United States</displayName>
    </locationLabels>
    <coverage>0.5291</coverage>
  </station>
  <station>
    <id>GHCND:US1ARSB0001</id>
    <displayName>GREENWOOD 4.3NW, AR US</displayName>
    <minDate>2009-04-01</minDate>
    <maxDate>2009-09-04</maxDate>
    <latitude>35.2576</latitude>
    <longitude>-94.3089</longitude>
    <elevation>167.6</elevation>
    <locationLabels>
      <type>CNTRY</type>
      <id>FIPS:US</id>
      <displayName>United States</displayName>
    </locationLabels>
    <coverage>0.7516</coverage>
  </station>
  <station>
    <id>GHCND:US1INJH0022</id>
    <displayName>GREENWOOD 4.6 SW, IN US</displayName>
    <minDate>2012-08-05</minDate>
    <maxDate>2013-01-16</maxDate>
    <latitude>39.5682</latitude>
    <longitude>-86.1749</longitude>
    <elevation>235.9</elevation>
    <locationLabels>
      <type>CNTRY</type>
      <id>FIPS:US</id>
      <displayName>United States</displayName>
    </locationLabels>
    <coverage>0.9758</coverage>
  </station>
  <station>
    <id>GHCND:US1INJH0012</id>
    <displayName>GREENWOOD 4.8 WSW, IN US</displayName>
    <minDate>2009-03-25</minDate>
    <maxDate>2013-01-16</maxDate>
    <latitude>39.5858</latitude>
    <longitude>-86.1947</longitude>
    <elevation>211.5</elevation>
    <locationLabels>
      <type>CNTRY</type>
      <id>FIPS:US</id>
      <displayName>United States</displayName>
    </locationLabels>
    <coverage>0.9943</coverage>
  </station>
  <station>
    <id>GHCND:US1SCGW0003</id>
    <displayName>GREENWOOD 5.0 SSE, SC US</displayName>
    <minDate>2008-05-27</minDate>
    <maxDate>2011-07-14</maxDate>
    <latitude>34.1235</latitude>
    <longitude>-82.1171</longitude>
    <elevation>185.6</elevation>
    <locationLabels>
      <type>CNTRY</type>
      <id>FIPS:US</id>
      <displayName>United States</displayName>
    </locationLabels>
    <coverage>0.118</coverage>
  </station>
  <station>
    <id>GHCND:US1INJH0005</id>
    <displayName>GREENWOOD 5.0 W, IN US</displayName>
    <minDate>2006-06-26</minDate>
    <maxDate>2011-02-02</maxDate>
    <latitude>39.604</latitude>
    <longitude>-86.2067</longitude>
    <elevation>205.1</elevation>
    <locationLabels>
      <type>CNTRY</type>
      <id>FIPS:US</id>
      <displayName>United States</displayName>
    </locationLabels>
    <coverage>0.2418</coverage>
  </station>
  <station>
    <id>GHCND:US1SCGW0001</id>
    <displayName>GREENWOOD 5.0 W, SC US</displayName>
    <minDate>2008-03-01</minDate>
    <maxDate>2013-01-07</maxDate>
    <latitude>34.2001</latitude>
    <longitude>-82.2398</longitude>
    <elevation>165.8</elevation>
    <locationLabels>
      <type>CNTRY</type>
      <id>FIPS:US</id>
      <displayName>United States</displayName>
    </locationLabels>
    <coverage>0.655</coverage>
  </station>
</stationCollection>
