<?xml version="1.0" encoding="UTF-8" standalone="yes"?>
<stationCollection totalCount="46020" pageCount="461" pageSize="100" page="213">
  <station>
    <id>GHCND:USC00512686</id>
    <displayName>KAILUA HEIGHTS 68.15, HI US</displayName>
    <minDate>1979-03-01</minDate>
    <maxDate>1983-11-30</maxDate>
    <latitude>19.61667</latitude>
    <longitude>-155.96667</longitude>
    <elevation>152.4</elevation>
    <locationLabels>
      <type>CNTRY</type>
      <id>FIPS:US</id>
      <displayName>United States</displayName>
    </locationLabels>
    <coverage>0.9476</coverage>
  </station>
  <station>
    <id>GHCND:USW00021510</id>
    <displayName>KAILUA KONA KE AHOLE AIRPORT, HI US</displayName>
    <minDate>1998-01-01</minDate>
    <maxDate>2013-01-14</maxDate>
    <latitude>19.73556</latitude>
    <longitude>-156.04889</longitude>
    <elevation>13.1</elevation>
    <locationLabels>
      <type>CNTRY</type>
      <id>FIPS:US</id>
      <displayName>United States</displayName>
    </locationLabels>
    <coverage>0.9863</coverage>
  </station>
  <station>
    <id>GHCND:USC00512685</id>
    <displayName>KAILUA MAUKA 443, HI US</displayName>
    <minDate>1949-10-01</minDate>
    <maxDate>1961-01-31</maxDate>
    <latitude>20.83333</latitude>
    <longitude>-156.23333</longitude>
    <elevation>966.2</elevation>
    <locationLabels>
      <type>CNTRY</type>
      <id>FIPS:US</id>
      <displayName>United States</displayName>
    </locationLabels>
    <coverage>1</coverage>
  </station>
  <station>
    <id>GHCND:USC00512684</id>
    <displayName>KAILUA MAUKA, HI US</displayName>
    <minDate>1950-01-01</minDate>
    <maxDate>1958-02-28</maxDate>
    <latitude>19.61</latitude>
    <longitude>-155.96333</longitude>
    <elevation>144.8</elevation>
    <locationLabels>
      <type>CNTRY</type>
      <id>FIPS:US</id>
      <displayName>United States</displayName>
    </locationLabels>
    <coverage>1</coverage>
  </station>
  <station>
    <id>GHCND:USC00512725</id>
    <displayName>KAIMUKI 715, HI US</displayName>
    <minDate>1921-01-01</minDate>
    <maxDate>1951-05-31</maxDate>
    <latitude>21.26667</latitude>
    <longitude>-157.8</longitude>
    <elevation>36.9</elevation>
    <locationLabels>
      <type>CNTRY</type>
      <id>FIPS:US</id>
      <displayName>United States</displayName>
    </locationLabels>
    <coverage>0.9853</coverage>
  </station>
  <station>
    <id>GHCND:USC00512751</id>
    <displayName>KAINALIU 73.2, HI US</displayName>
    <minDate>1939-01-01</minDate>
    <maxDate>2012-09-29</maxDate>
    <latitude>19.5336</latitude>
    <longitude>-155.9258</longitude>
    <elevation>457.2</elevation>
    <locationLabels>
      <type>CNTRY</type>
      <id>FIPS:US</id>
      <displayName>United States</displayName>
    </locationLabels>
    <coverage>0.8794</coverage>
  </station>
  <station>
    <id>GHCND:USC00512802</id>
    <displayName>KAIWIKI HOMESTEAD 89.11, HI US</displayName>
    <minDate>1999-03-01</minDate>
    <maxDate>2012-11-30</maxDate>
    <latitude>19.7509</latitude>
    <longitude>-155.1362</longitude>
    <elevation>390.1</elevation>
    <locationLabels>
      <type>CNTRY</type>
      <id>FIPS:US</id>
      <displayName>United States</displayName>
    </locationLabels>
    <coverage>0.9956</coverage>
  </station>
  <station>
    <id>GHCND:USR0000AKAI</id>
    <displayName>KAIYUH ALASKA, AK US</displayName>
    <minDate>1997-08-25</minDate>
    <maxDate>2012-08-30</maxDate>
    <latitude>64.4256</latitude>
    <longitude>-158.1058</longitude>
    <elevation>33.5</elevation>
    <locationLabels>
      <type>CNTRY</type>
      <id>FIPS:US</id>
      <displayName>United States</displayName>
    </locationLabels>
    <coverage>0.9187</coverage>
  </station>
  <station>
    <id>GHCND:USR0000AKAK</id>
    <displayName>KAKE ALASKA, AK US</displayName>
    <minDate>1989-09-25</minDate>
    <maxDate>2012-08-30</maxDate>
    <latitude>56.9739</latitude>
    <longitude>-133.66</longitude>
    <elevation>121.9</elevation>
    <locationLabels>
      <type>CNTRY</type>
      <id>FIPS:US</id>
      <displayName>United States</displayName>
    </locationLabels>
    <coverage>0.6085</coverage>
  </station>
  <station>
    <id>GHCND:USC00504155</id>
    <displayName>KAKE, AK US</displayName>
    <minDate>1919-05-01</minDate>
    <maxDate>1992-04-30</maxDate>
    <latitude>56.96667</latitude>
    <longitude>-133.9</longitude>
    <elevation>21.3</elevation>
    <locationLabels>
      <type>CNTRY</type>
      <id>FIPS:US</id>
      <displayName>United States</displayName>
    </locationLabels>
    <coverage>0.3475</coverage>
  </station>
  <station>
    <id>GHCND:USC00512880</id>
    <displayName>KALAE, HI US</displayName>
    <minDate>1924-12-12</minDate>
    <maxDate>1949-04-30</maxDate>
    <latitude>18.91667</latitude>
    <longitude>-155.68333</longitude>
    <elevation>11.9</elevation>
    <locationLabels>
      <type>CNTRY</type>
      <id>FIPS:US</id>
      <displayName>United States</displayName>
    </locationLabels>
    <coverage>0.9248</coverage>
  </station>
  <station>
    <id>GHCND:USC00512884</id>
    <displayName>KALAHIKI, HI US</displayName>
    <minDate>1905-06-01</minDate>
    <maxDate>1907-05-29</maxDate>
    <latitude>19.3833</latitude>
    <longitude>-155.85</longitude>
    <locationLabels>
      <type>CNTRY</type>
      <id>FIPS:US</id>
      <displayName>United States</displayName>
    </locationLabels>
    <coverage>0.9657</coverage>
  </station>
  <station>
    <id>GHCND:USC00454085</id>
    <displayName>KALAMA 5 ENE, WA US</displayName>
    <minDate>1917-02-01</minDate>
    <maxDate>1967-05-31</maxDate>
    <latitude>46.05</latitude>
    <longitude>-122.75</longitude>
    <elevation>274.9</elevation>
    <locationLabels>
      <type>CNTRY</type>
      <id>FIPS:US</id>
      <displayName>United States</displayName>
    </locationLabels>
    <coverage>0.9885</coverage>
  </station>
  <station>
    <id>GHCND:USC00454084</id>
    <displayName>KALAMA FALLS HATCHERY, WA US</displayName>
    <minDate>1967-11-01</minDate>
    <maxDate>2013-01-16</maxDate>
    <latitude>46.0163</latitude>
    <longitude>-122.7325</longitude>
    <elevation>94.5</elevation>
    <locationLabels>
      <type>CNTRY</type>
      <id>FIPS:US</id>
      <displayName>United States</displayName>
    </locationLabels>
    <coverage>0.9656</coverage>
  </station>
  <station>
    <id>GHCND:US1MIKZ0011</id>
    <displayName>KALAMAZOO 2.3 NE, MI US</displayName>
    <minDate>2010-02-09</minDate>
    <maxDate>2013-01-16</maxDate>
    <latitude>42.3014</latitude>
    <longitude>-85.5614</longitude>
    <elevation>255.4</elevation>
    <locationLabels>
      <type>CNTRY</type>
      <id>FIPS:US</id>
      <displayName>United States</displayName>
    </locationLabels>
    <coverage>0.891</coverage>
  </station>
  <station>
    <id>GHCND:US1MIKZ0008</id>
    <displayName>KALAMAZOO 3.0 WNW, MI US</displayName>
    <minDate>2009-04-19</minDate>
    <maxDate>2012-12-01</maxDate>
    <latitude>42.2905</latitude>
    <longitude>-85.6425</longitude>
    <elevation>285.9</elevation>
    <locationLabels>
      <type>CNTRY</type>
      <id>FIPS:US</id>
      <displayName>United States</displayName>
    </locationLabels>
    <coverage>0.7627</coverage>
  </station>
  <station>
    <id>GHCND:US1MIKZ0009</id>
    <displayName>KALAMAZOO 5.6 E, MI US</displayName>
    <minDate>2009-10-03</minDate>
    <maxDate>2012-11-15</maxDate>
    <latitude>42.269</latitude>
    <longitude>-85.4789</longitude>
    <elevation>260.9</elevation>
    <locationLabels>
      <type>CNTRY</type>
      <id>FIPS:US</id>
      <displayName>United States</displayName>
    </locationLabels>
    <coverage>0.4904</coverage>
  </station>
  <station>
    <id>GHCND:US1MIKZ0001</id>
    <displayName>KALAMAZOO 6.0 SW, MI US</displayName>
    <minDate>2008-07-01</minDate>
    <maxDate>2012-12-17</maxDate>
    <latitude>42.2061</latitude>
    <longitude>-85.659</longitude>
    <elevation>274</elevation>
    <locationLabels>
      <type>CNTRY</type>
      <id>FIPS:US</id>
      <displayName>United States</displayName>
    </locationLabels>
    <coverage>0.7523</coverage>
  </station>
  <station>
    <id>GHCND:USW00094815</id>
    <displayName>KALAMAZOO BATTLE CREEK INTERNATIONAL AIRPORT, MI US</displayName>
    <minDate>1998-01-15</minDate>
    <maxDate>2013-01-14</maxDate>
    <latitude>42.23472</latitude>
    <longitude>-85.55194</longitude>
    <elevation>264.6</elevation>
    <locationLabels>
      <type>CNTRY</type>
      <id>FIPS:US</id>
      <displayName>United States</displayName>
    </locationLabels>
    <coverage>0.9954</coverage>
  </station>
  <station>
    <id>GHCND:USC00204244</id>
    <displayName>KALAMAZOO STATE HOSPITAL, MI US</displayName>
    <minDate>1892-01-01</minDate>
    <maxDate>1995-11-30</maxDate>
    <latitude>42.28333</latitude>
    <longitude>-85.6</longitude>
    <elevation>289.6</elevation>
    <locationLabels>
      <type>CNTRY</type>
      <id>FIPS:US</id>
      <displayName>United States</displayName>
    </locationLabels>
    <coverage>0.9356</coverage>
  </station>
  <station>
    <id>GHCND:USC00204239</id>
    <displayName>KALAMAZOO, MI US</displayName>
    <minDate>1915-05-01</minDate>
    <maxDate>1951-09-30</maxDate>
    <latitude>42.3</latitude>
    <longitude>-85.61667</longitude>
    <elevation>274.3</elevation>
    <locationLabels>
      <type>CNTRY</type>
      <id>FIPS:US</id>
      <displayName>United States</displayName>
    </locationLabels>
    <coverage>0.6406</coverage>
  </station>
  <station>
    <id>GHCND:US1HIHI0006</id>
    <displayName>KALAOA 1.7 E, HI US</displayName>
    <minDate>2010-03-22</minDate>
    <maxDate>2013-01-16</maxDate>
    <latitude>19.7238</latitude>
    <longitude>-155.9926</longitude>
    <elevation>304.5</elevation>
    <locationLabels>
      <type>CNTRY</type>
      <id>FIPS:US</id>
      <displayName>United States</displayName>
    </locationLabels>
    <coverage>0.9903</coverage>
  </station>
  <station>
    <id>GHCND:USC00512887</id>
    <displayName>KALAOA 69.22, HI US</displayName>
    <minDate>1975-06-01</minDate>
    <maxDate>1986-02-27</maxDate>
    <latitude>19.73333</latitude>
    <longitude>-155.98333</longitude>
    <elevation>609.6</elevation>
    <locationLabels>
      <type>CNTRY</type>
      <id>FIPS:US</id>
      <displayName>United States</displayName>
    </locationLabels>
    <coverage>0.9921</coverage>
  </station>
  <station>
    <id>GHCND:USC00512894</id>
    <displayName>KALAPANA 1 67.8, HI US</displayName>
    <minDate>1967-07-01</minDate>
    <maxDate>1989-07-31</maxDate>
    <latitude>19.33333</latitude>
    <longitude>-155.03333</longitude>
    <elevation>3</elevation>
    <locationLabels>
      <type>CNTRY</type>
      <id>FIPS:US</id>
      <displayName>United States</displayName>
    </locationLabels>
    <coverage>0.9908</coverage>
  </station>
  <station>
    <id>GHCND:USC00512896</id>
    <displayName>KALAUPAPA 563, HI US</displayName>
    <minDate>1933-01-04</minDate>
    <maxDate>2012-11-30</maxDate>
    <latitude>21.19</latitude>
    <longitude>-156.98306</longitude>
    <elevation>9.1</elevation>
    <locationLabels>
      <type>CNTRY</type>
      <id>FIPS:US</id>
      <displayName>United States</displayName>
    </locationLabels>
    <coverage>0.7744</coverage>
  </station>
  <station>
    <id>GHCND:USC00512905</id>
    <displayName>KALAWAO, HI US</displayName>
    <minDate>1905-02-01</minDate>
    <maxDate>1932-12-23</maxDate>
    <latitude>21.18333</latitude>
    <longitude>-156.95</longitude>
    <elevation>21</elevation>
    <locationLabels>
      <type>CNTRY</type>
      <id>FIPS:US</id>
      <displayName>United States</displayName>
    </locationLabels>
    <coverage>0.9365</coverage>
  </station>
  <station>
    <id>GHCND:USC00504158</id>
    <displayName>KALGIN ISLAND, US</displayName>
    <minDate>2004-04-28</minDate>
    <maxDate>2013-01-16</maxDate>
    <latitude>60.45</latitude>
    <longitude>-151.91667</longitude>
    <elevation>9.1</elevation>
    <locationLabels>
      <type>CNTRY</type>
      <id>FIPS:US</id>
      <displayName>United States</displayName>
    </locationLabels>
    <coverage>0.9105</coverage>
  </station>
  <station>
    <id>GHCND:USC00512960</id>
    <displayName>KALIHI RES SITE 777, HI US</displayName>
    <minDate>1914-09-01</minDate>
    <maxDate>2012-09-30</maxDate>
    <latitude>21.37528</latitude>
    <longitude>-157.82222</longitude>
    <elevation>277.4</elevation>
    <locationLabels>
      <type>CNTRY</type>
      <id>FIPS:US</id>
      <displayName>United States</displayName>
    </locationLabels>
    <coverage>0.8437</coverage>
  </station>
  <station>
    <id>GHCND:USC00512956</id>
    <displayName>KALIHI UKA, HI US</displayName>
    <minDate>1905-01-01</minDate>
    <maxDate>1907-04-30</maxDate>
    <latitude>21.3667</latitude>
    <longitude>-157.85</longitude>
    <locationLabels>
      <type>CNTRY</type>
      <id>FIPS:US</id>
      <displayName>United States</displayName>
    </locationLabels>
    <coverage>0.7506</coverage>
  </station>
  <station>
    <id>GHCND:USC00512974</id>
    <displayName>KALIHIWAI RESERVOIR, HI US</displayName>
    <minDate>1942-01-01</minDate>
    <maxDate>1970-10-31</maxDate>
    <latitude>22.18333</latitude>
    <longitude>-159.43333</longitude>
    <elevation>116.1</elevation>
    <locationLabels>
      <type>CNTRY</type>
      <id>FIPS:US</id>
      <displayName>United States</displayName>
    </locationLabels>
    <coverage>0.5648</coverage>
  </station>
  <station>
    <id>GHCND:US1MTFH0022</id>
    <displayName>KALISPELL 0.8 SSW, MT US</displayName>
    <minDate>2011-07-11</minDate>
    <maxDate>2012-03-28</maxDate>
    <latitude>48.1891</latitude>
    <longitude>-114.3263</longitude>
    <elevation>897.9</elevation>
    <locationLabels>
      <type>CNTRY</type>
      <id>FIPS:US</id>
      <displayName>United States</displayName>
    </locationLabels>
    <coverage>0.7519</coverage>
  </station>
  <station>
    <id>GHCND:US1MTFH0013</id>
    <displayName>KALISPELL 1.7 NW, MT US</displayName>
    <minDate>2008-06-08</minDate>
    <maxDate>2011-12-12</maxDate>
    <latitude>48.218</latitude>
    <longitude>-114.3398</longitude>
    <elevation>920.5</elevation>
    <locationLabels>
      <type>CNTRY</type>
      <id>FIPS:US</id>
      <displayName>United States</displayName>
    </locationLabels>
    <coverage>0.8823</coverage>
  </station>
  <station>
    <id>GHCND:US1MTFH0002</id>
    <displayName>KALISPELL 10.1 SW, MT US</displayName>
    <minDate>2007-01-22</minDate>
    <maxDate>2013-01-16</maxDate>
    <latitude>48.0913</latitude>
    <longitude>-114.4642</longitude>
    <elevation>992.1</elevation>
    <locationLabels>
      <type>CNTRY</type>
      <id>FIPS:US</id>
      <displayName>United States</displayName>
    </locationLabels>
    <coverage>0.8752</coverage>
  </station>
  <station>
    <id>GHCND:US1MTFH0014</id>
    <displayName>KALISPELL 5.9 SW, MT US</displayName>
    <minDate>2008-07-19</minDate>
    <maxDate>2009-09-20</maxDate>
    <latitude>48.1511</latitude>
    <longitude>-114.4233</longitude>
    <elevation>980.8</elevation>
    <locationLabels>
      <type>CNTRY</type>
      <id>FIPS:US</id>
      <displayName>United States</displayName>
    </locationLabels>
    <coverage>0.4569</coverage>
  </station>
  <station>
    <id>GHCND:USC00244560</id>
    <displayName>KALISPELL 9 NNE, MT US</displayName>
    <minDate>1997-01-03</minDate>
    <maxDate>2012-07-08</maxDate>
    <latitude>48.3094</latitude>
    <longitude>-114.2522</longitude>
    <elevation>903.7</elevation>
    <locationLabels>
      <type>CNTRY</type>
      <id>FIPS:US</id>
      <displayName>United States</displayName>
    </locationLabels>
    <coverage>0.7631</coverage>
  </station>
  <station>
    <id>GHCND:USC00244558</id>
    <displayName>KALISPELL GLACIER PARK INTERNATIONAL AIRPORT, MT US</displayName>
    <minDate>1899-05-01</minDate>
    <maxDate>2013-01-15</maxDate>
    <latitude>48.3042</latitude>
    <longitude>-114.2636</longitude>
    <elevation>901.3</elevation>
    <locationLabels>
      <type>CNTRY</type>
      <id>FIPS:US</id>
      <displayName>United States</displayName>
    </locationLabels>
    <coverage>0.9941</coverage>
  </station>
  <station>
    <id>GHCND:USC00244563</id>
    <displayName>KALISPELL, MT US</displayName>
    <minDate>1948-07-01</minDate>
    <maxDate>2006-05-31</maxDate>
    <latitude>48.1891</latitude>
    <longitude>-114.3113</longitude>
    <elevation>896.1</elevation>
    <locationLabels>
      <type>CNTRY</type>
      <id>FIPS:US</id>
      <displayName>United States</displayName>
    </locationLabels>
    <coverage>0.5827</coverage>
  </station>
  <station>
    <id>GHCND:USC00512983</id>
    <displayName>KALIULA, HI US</displayName>
    <minDate>1907-10-01</minDate>
    <maxDate>1925-12-31</maxDate>
    <latitude>21.3167</latitude>
    <longitude>-157.8167</longitude>
    <elevation>365.8</elevation>
    <locationLabels>
      <type>CNTRY</type>
      <id>FIPS:US</id>
      <displayName>United States</displayName>
    </locationLabels>
    <coverage>0.8861</coverage>
  </station>
  <station>
    <id>GHCND:USC00204258</id>
    <displayName>KALKASKA 11 SE, MI US</displayName>
    <minDate>2006-06-01</minDate>
    <maxDate>2013-01-16</maxDate>
    <latitude>44.5897</latitude>
    <longitude>-85.0486</longitude>
    <elevation>330.1</elevation>
    <locationLabels>
      <type>CNTRY</type>
      <id>FIPS:US</id>
      <displayName>United States</displayName>
    </locationLabels>
    <coverage>0.9983</coverage>
  </station>
  <station>
    <id>GHCND:USC00204257</id>
    <displayName>KALKASKA, MI US</displayName>
    <minDate>1938-12-01</minDate>
    <maxDate>2013-01-15</maxDate>
    <latitude>44.728</latitude>
    <longitude>-85.1727</longitude>
    <elevation>315.5</elevation>
    <locationLabels>
      <type>CNTRY</type>
      <id>FIPS:US</id>
      <displayName>United States</displayName>
    </locationLabels>
    <coverage>0.9894</coverage>
  </station>
  <station>
    <id>GHCND:US1IAJH0009</id>
    <displayName>KALONA 7.3 NNW, IA US</displayName>
    <minDate>2012-04-27</minDate>
    <maxDate>2013-01-16</maxDate>
    <latitude>41.5877</latitude>
    <longitude>-91.7451</longitude>
    <elevation>229.8</elevation>
    <locationLabels>
      <type>CNTRY</type>
      <id>FIPS:US</id>
      <displayName>United States</displayName>
    </locationLabels>
    <coverage>0.8981</coverage>
  </station>
  <station>
    <id>GHCND:USC00512982</id>
    <displayName>KALOPA 216.8, HI US</displayName>
    <minDate>2005-01-01</minDate>
    <maxDate>2012-11-30</maxDate>
    <latitude>20.0579</latitude>
    <longitude>-155.432</longitude>
    <elevation>396.2</elevation>
    <locationLabels>
      <type>CNTRY</type>
      <id>FIPS:US</id>
      <displayName>United States</displayName>
    </locationLabels>
    <coverage>0.9827</coverage>
  </station>
  <station>
    <id>GHCND:USC00512991</id>
    <displayName>KALOPA, HI US</displayName>
    <minDate>1906-04-01</minDate>
    <maxDate>1913-07-31</maxDate>
    <latitude>20.0667</latitude>
    <longitude>-155.4</longitude>
    <elevation>274.3</elevation>
    <locationLabels>
      <type>CNTRY</type>
      <id>FIPS:US</id>
      <displayName>United States</displayName>
    </locationLabels>
    <coverage>0.8466</coverage>
  </station>
  <station>
    <id>GHCND:USC00504161</id>
    <displayName>KALSIN BAY, AK US</displayName>
    <minDate>1928-08-01</minDate>
    <maxDate>1931-06-11</maxDate>
    <latitude>57.5667</latitude>
    <longitude>-152.45</longitude>
    <elevation>6.1</elevation>
    <locationLabels>
      <type>CNTRY</type>
      <id>FIPS:US</id>
      <displayName>United States</displayName>
    </locationLabels>
    <coverage>0.9665</coverage>
  </station>
  <station>
    <id>GHCND:USC00504163</id>
    <displayName>KALSKAG, AK US</displayName>
    <minDate>1932-12-06</minDate>
    <maxDate>1934-06-30</maxDate>
    <latitude>61.45</latitude>
    <longitude>-160.8167</longitude>
    <elevation>27.4</elevation>
    <locationLabels>
      <type>CNTRY</type>
      <id>FIPS:US</id>
      <displayName>United States</displayName>
    </locationLabels>
    <coverage>0.9405</coverage>
  </station>
  <station>
    <id>GHCND:USW00026502</id>
    <displayName>KALTAG AIRPORT, AK US</displayName>
    <minDate>1998-07-06</minDate>
    <maxDate>2013-01-14</maxDate>
    <latitude>64.32667</latitude>
    <longitude>-158.74167</longitude>
    <elevation>55.2</elevation>
    <locationLabels>
      <type>CNTRY</type>
      <id>FIPS:US</id>
      <displayName>United States</displayName>
    </locationLabels>
    <coverage>0.97</coverage>
  </station>
  <station>
    <id>GHCND:USC00504165</id>
    <displayName>KALTAG AIRPORT, AK US</displayName>
    <minDate>1944-06-01</minDate>
    <maxDate>2013-01-15</maxDate>
    <latitude>64.32667</latitude>
    <longitude>-158.74167</longitude>
    <elevation>55.2</elevation>
    <locationLabels>
      <type>CNTRY</type>
      <id>FIPS:US</id>
      <displayName>United States</displayName>
    </locationLabels>
    <coverage>0.1322</coverage>
  </station>
  <station>
    <id>GHCND:USC00513023</id>
    <displayName>KALUAHONU 1005, HI US</displayName>
    <minDate>1944-07-01</minDate>
    <maxDate>1963-04-30</maxDate>
    <latitude>21.91667</latitude>
    <longitude>-159.45</longitude>
    <elevation>100.9</elevation>
    <locationLabels>
      <type>CNTRY</type>
      <id>FIPS:US</id>
      <displayName>United States</displayName>
    </locationLabels>
    <coverage>0.752</coverage>
  </station>
  <station>
    <id>GHCND:US1KSFI0009</id>
    <displayName>KALVESTA 0.7 NNW, KS US</displayName>
    <minDate>2006-10-14</minDate>
    <maxDate>2013-01-10</maxDate>
    <latitude>38.0591</latitude>
    <longitude>-100.2865</longitude>
    <elevation>821.1</elevation>
    <locationLabels>
      <type>CNTRY</type>
      <id>FIPS:US</id>
      <displayName>United States</displayName>
    </locationLabels>
    <coverage>0.3095</coverage>
  </station>
  <station>
    <id>GHCND:USC00144161</id>
    <displayName>KALVESTA 1 W, KS US</displayName>
    <minDate>1963-09-01</minDate>
    <maxDate>2012-11-30</maxDate>
    <latitude>38.0585</latitude>
    <longitude>-100.2988</longitude>
    <elevation>813.8</elevation>
    <locationLabels>
      <type>CNTRY</type>
      <id>FIPS:US</id>
      <displayName>United States</displayName>
    </locationLabels>
    <coverage>0.9767</coverage>
  </station>
  <station>
    <id>GHCND:USC00144166</id>
    <displayName>KALVESTA 14 W, KS US</displayName>
    <minDate>1989-03-01</minDate>
    <maxDate>2012-12-31</maxDate>
    <latitude>38.1273</latitude>
    <longitude>-100.5079</longitude>
    <elevation>806.2</elevation>
    <locationLabels>
      <type>CNTRY</type>
      <id>FIPS:US</id>
      <displayName>United States</displayName>
    </locationLabels>
    <coverage>0.9498</coverage>
  </station>
  <station>
    <id>GHCND:USC00142497</id>
    <displayName>KALVESTA 14 W, KS US</displayName>
    <minDate>1971-07-01</minDate>
    <maxDate>1989-01-31</maxDate>
    <latitude>38.1273</latitude>
    <longitude>-100.5079</longitude>
    <elevation>806.2</elevation>
    <locationLabels>
      <type>CNTRY</type>
      <id>FIPS:US</id>
      <displayName>United States</displayName>
    </locationLabels>
    <coverage>0.8139</coverage>
  </station>
  <station>
    <id>GHCND:US1KSFI0013</id>
    <displayName>KALVESTA 9.9 WNW, KS US</displayName>
    <minDate>2007-05-15</minDate>
    <maxDate>2013-01-10</maxDate>
    <latitude>38.1026</latitude>
    <longitude>-100.4731</longitude>
    <elevation>835.2</elevation>
    <locationLabels>
      <type>CNTRY</type>
      <id>FIPS:US</id>
      <displayName>United States</displayName>
    </locationLabels>
    <coverage>0.1417</coverage>
  </station>
  <station>
    <id>GHCND:USC00144159</id>
    <displayName>KALVESTA NEAR, KS US</displayName>
    <minDate>1935-08-01</minDate>
    <maxDate>1943-02-28</maxDate>
    <latitude>38.183333</latitude>
    <longitude>-100.316667</longitude>
    <locationLabels>
      <type>CNTRY</type>
      <id>FIPS:US</id>
      <displayName>United States</displayName>
    </locationLabels>
    <coverage>0.9888</coverage>
  </station>
  <station>
    <id>GHCND:USC00513043</id>
    <displayName>KAMAILI 67, HI US</displayName>
    <minDate>1950-01-01</minDate>
    <maxDate>1955-03-31</maxDate>
    <latitude>19.43333</latitude>
    <longitude>-154.93333</longitude>
    <locationLabels>
      <type>CNTRY</type>
      <id>FIPS:US</id>
      <displayName>United States</displayName>
    </locationLabels>
    <coverage>1</coverage>
  </station>
  <station>
    <id>GHCND:USC00513045</id>
    <displayName>KAMALO 542.10, HI US</displayName>
    <minDate>1923-04-01</minDate>
    <maxDate>2012-12-12</maxDate>
    <latitude>21.05222</latitude>
    <longitude>-156.87083</longitude>
    <elevation>6.1</elevation>
    <locationLabels>
      <type>CNTRY</type>
      <id>FIPS:US</id>
      <displayName>United States</displayName>
    </locationLabels>
    <coverage>0.1212</coverage>
  </station>
  <station>
    <id>GHCND:USC00513048</id>
    <displayName>KAMAOA 2 5, HI US</displayName>
    <minDate>1958-01-01</minDate>
    <maxDate>1983-04-30</maxDate>
    <latitude>19.03333</latitude>
    <longitude>-155.66667</longitude>
    <elevation>419.1</elevation>
    <locationLabels>
      <type>CNTRY</type>
      <id>FIPS:US</id>
      <displayName>United States</displayName>
    </locationLabels>
    <coverage>0.987</coverage>
  </station>
  <station>
    <id>GHCND:USC00513047</id>
    <displayName>KAMAOA 5, HI US</displayName>
    <minDate>1944-12-01</minDate>
    <maxDate>1960-06-30</maxDate>
    <latitude>19.01667</latitude>
    <longitude>-155.66667</longitude>
    <elevation>335.9</elevation>
    <locationLabels>
      <type>CNTRY</type>
      <id>FIPS:US</id>
      <displayName>United States</displayName>
    </locationLabels>
    <coverage>0.7252</coverage>
  </station>
  <station>
    <id>GHCND:USC00513054</id>
    <displayName>KAMAOA PUUEO 5.1, HI US</displayName>
    <minDate>1983-07-01</minDate>
    <maxDate>2012-10-31</maxDate>
    <latitude>19.0106</latitude>
    <longitude>-155.6591</longitude>
    <elevation>317</elevation>
    <locationLabels>
      <type>CNTRY</type>
      <id>FIPS:US</id>
      <displayName>United States</displayName>
    </locationLabels>
    <coverage>0.9877</coverage>
  </station>
  <station>
    <id>GHCND:US1UTSM0002</id>
    <displayName>KAMAS 0.1 ESE, UT US</displayName>
    <minDate>2008-07-13</minDate>
    <maxDate>2009-10-30</maxDate>
    <latitude>40.6429</latitude>
    <longitude>-111.2727</longitude>
    <elevation>1985.2</elevation>
    <locationLabels>
      <type>CNTRY</type>
      <id>FIPS:US</id>
      <displayName>United States</displayName>
    </locationLabels>
    <coverage>0.4463</coverage>
  </station>
  <station>
    <id>GHCND:USC00424467</id>
    <displayName>KAMAS 3 NW, UT US</displayName>
    <minDate>1948-10-01</minDate>
    <maxDate>2012-11-30</maxDate>
    <latitude>40.6491</latitude>
    <longitude>-111.2847</longitude>
    <elevation>1973.6</elevation>
    <locationLabels>
      <type>CNTRY</type>
      <id>FIPS:US</id>
      <displayName>United States</displayName>
    </locationLabels>
    <coverage>0.9064</coverage>
  </station>
  <station>
    <id>GHCND:USC00354370</id>
    <displayName>KAMELA, OR US</displayName>
    <minDate>1908-04-01</minDate>
    <maxDate>1910-07-31</maxDate>
    <latitude>45.433333</latitude>
    <longitude>-118.383333</longitude>
    <elevation>1281.4</elevation>
    <locationLabels>
      <type>CNTRY</type>
      <id>FIPS:US</id>
      <displayName>United States</displayName>
    </locationLabels>
    <coverage>1</coverage>
  </station>
  <station>
    <id>GHCND:US1IDID0004</id>
    <displayName>KAMIAH 3.9 NNE, ID US</displayName>
    <minDate>2009-03-06</minDate>
    <maxDate>2013-01-14</maxDate>
    <latitude>46.2783</latitude>
    <longitude>-115.995</longitude>
    <elevation>942.7</elevation>
    <locationLabels>
      <type>CNTRY</type>
      <id>FIPS:US</id>
      <displayName>United States</displayName>
    </locationLabels>
    <coverage>0.7335</coverage>
  </station>
  <station>
    <id>GHCND:US1IDID0005</id>
    <displayName>KAMIAH 6.0 NNW, ID US</displayName>
    <minDate>2009-01-07</minDate>
    <maxDate>2013-01-14</maxDate>
    <latitude>46.3118</latitude>
    <longitude>-116.0553</longitude>
    <elevation>961.9</elevation>
    <locationLabels>
      <type>CNTRY</type>
      <id>FIPS:US</id>
      <displayName>United States</displayName>
    </locationLabels>
    <coverage>0.6487</coverage>
  </station>
  <station>
    <id>GHCND:USC00104793</id>
    <displayName>KAMIAH, ID US</displayName>
    <minDate>1913-01-14</minDate>
    <maxDate>2013-01-15</maxDate>
    <latitude>46.2299</latitude>
    <longitude>-116.0338</longitude>
    <elevation>368.8</elevation>
    <locationLabels>
      <type>CNTRY</type>
      <id>FIPS:US</id>
      <displayName>United States</displayName>
    </locationLabels>
    <coverage>0.8629</coverage>
  </station>
  <station>
    <id>GHCND:USC00513084</id>
    <displayName>KAMOOLOA, HI US</displayName>
    <minDate>1938-01-01</minDate>
    <maxDate>1949-05-31</maxDate>
    <latitude>21.98333</latitude>
    <longitude>-159.46667</longitude>
    <elevation>256</elevation>
    <locationLabels>
      <type>CNTRY</type>
      <id>FIPS:US</id>
      <displayName>United States</displayName>
    </locationLabels>
    <coverage>0.9592</coverage>
  </station>
  <station>
    <id>GHCND:USC00519557</id>
    <displayName>KAMUELA 192.2, HI US</displayName>
    <minDate>1949-10-06</minDate>
    <maxDate>1950-10-31</maxDate>
    <latitude>20.01667</latitude>
    <longitude>-155.66667</longitude>
    <elevation>814.1</elevation>
    <locationLabels>
      <type>CNTRY</type>
      <id>FIPS:US</id>
      <displayName>United States</displayName>
    </locationLabels>
    <coverage>0.9488</coverage>
  </station>
  <station>
    <id>GHCND:USC00513077</id>
    <displayName>KAMUELA 192.2, HI US</displayName>
    <minDate>1950-11-01</minDate>
    <maxDate>1980-03-31</maxDate>
    <latitude>20.01667</latitude>
    <longitude>-155.66667</longitude>
    <elevation>814.1</elevation>
    <locationLabels>
      <type>CNTRY</type>
      <id>FIPS:US</id>
      <displayName>United States</displayName>
    </locationLabels>
    <coverage>0.9971</coverage>
  </station>
  <station>
    <id>GHCND:USC00424508</id>
    <displayName>KANAB, UT US</displayName>
    <minDate>1899-12-01</minDate>
    <maxDate>2013-01-15</maxDate>
    <latitude>37.0286</latitude>
    <longitude>-112.5366</longitude>
    <elevation>1493.5</elevation>
    <locationLabels>
      <type>CNTRY</type>
      <id>FIPS:US</id>
      <displayName>United States</displayName>
    </locationLabels>
    <coverage>0.8692</coverage>
  </station>
  <station>
    <id>GHCND:USC00513095</id>
    <displayName>KANAHAHA 74, HI US</displayName>
    <minDate>1949-10-01</minDate>
    <maxDate>1963-04-30</maxDate>
    <latitude>19.6</latitude>
    <longitude>-155.8</longitude>
    <elevation>1542.9</elevation>
    <locationLabels>
      <type>CNTRY</type>
      <id>FIPS:US</id>
      <displayName>United States</displayName>
    </locationLabels>
    <coverage>0.9869</coverage>
  </station>
  <station>
    <id>GHCND:USC00513099</id>
    <displayName>KANALOHULUHULU 1075, HI US</displayName>
    <minDate>1931-01-01</minDate>
    <maxDate>2012-11-30</maxDate>
    <latitude>22.12972</latitude>
    <longitude>-159.65861</longitude>
    <elevation>1097.3</elevation>
    <locationLabels>
      <type>CNTRY</type>
      <id>FIPS:US</id>
      <displayName>United States</displayName>
    </locationLabels>
    <coverage>0.8297</coverage>
  </station>
  <station>
    <id>GHCND:USC00464727</id>
    <displayName>KANAWHA FALLS, WV US</displayName>
    <minDate>1917-06-01</minDate>
    <maxDate>1941-02-28</maxDate>
    <latitude>38.13806</latitude>
    <longitude>-81.21444</longitude>
    <elevation>189</elevation>
    <locationLabels>
      <type>CNTRY</type>
      <id>FIPS:US</id>
      <displayName>United States</displayName>
    </locationLabels>
    <coverage>0.9734</coverage>
  </station>
  <station>
    <id>GHCND:USC00134308</id>
    <displayName>KANAWHA, IA US</displayName>
    <minDate>1941-08-01</minDate>
    <maxDate>2013-01-16</maxDate>
    <latitude>42.9311</latitude>
    <longitude>-93.7933</longitude>
    <elevation>361.2</elevation>
    <locationLabels>
      <type>CNTRY</type>
      <id>FIPS:US</id>
      <displayName>United States</displayName>
    </locationLabels>
    <coverage>0.9233</coverage>
  </station>
  <station>
    <id>GHCND:USC00414688</id>
    <displayName>KANAWHA, TX US</displayName>
    <minDate>1996-05-01</minDate>
    <maxDate>2001-04-30</maxDate>
    <latitude>33.84778</latitude>
    <longitude>-95.26028</longitude>
    <elevation>157</elevation>
    <locationLabels>
      <type>CNTRY</type>
      <id>FIPS:US</id>
      <displayName>United States</displayName>
    </locationLabels>
    <coverage>0.9951</coverage>
  </station>
  <station>
    <id>GHCND:USC00364432</id>
    <displayName>KANE 1 NNE, PA US</displayName>
    <minDate>1894-01-01</minDate>
    <maxDate>2013-01-07</maxDate>
    <latitude>41.6767</latitude>
    <longitude>-78.8036</longitude>
    <elevation>533.4</elevation>
    <locationLabels>
      <type>CNTRY</type>
      <id>FIPS:US</id>
      <displayName>United States</displayName>
    </locationLabels>
    <coverage>0.6099</coverage>
  </station>
  <station>
    <id>GHCND:USC00485026</id>
    <displayName>KANE 2 SW, WY US</displayName>
    <minDate>1951-11-07</minDate>
    <maxDate>1952-12-31</maxDate>
    <latitude>44.83333</latitude>
    <longitude>-108.23333</longitude>
    <elevation>1150</elevation>
    <locationLabels>
      <type>CNTRY</type>
      <id>FIPS:US</id>
      <displayName>United States</displayName>
    </locationLabels>
    <coverage>0.9881</coverage>
  </station>
  <station>
    <id>GHCND:USC00364437</id>
    <displayName>KANE 5 SE, PA US</displayName>
    <minDate>1932-07-01</minDate>
    <maxDate>1948-12-31</maxDate>
    <latitude>41.6</latitude>
    <longitude>-78.76667</longitude>
    <elevation>613</elevation>
    <locationLabels>
      <type>CNTRY</type>
      <id>FIPS:US</id>
      <displayName>United States</displayName>
    </locationLabels>
    <coverage>0.4662</coverage>
  </station>
  <station>
    <id>GHCND:USR0000KANE</id>
    <displayName>KANE GULCH BLANDING 23 WSW, UT US</displayName>
    <minDate>1991-06-24</minDate>
    <maxDate>2012-08-31</maxDate>
    <latitude>37.5264</latitude>
    <longitude>-109.8936</longitude>
    <elevation>2011.7</elevation>
    <locationLabels>
      <type>CNTRY</type>
      <id>FIPS:US</id>
      <displayName>United States</displayName>
    </locationLabels>
    <coverage>0.968</coverage>
  </station>
  <station>
    <id>GHCND:USR0000NKAN</id>
    <displayName>KANE SPRINGS NEVADA, NV US</displayName>
    <minDate>1986-11-07</minDate>
    <maxDate>2012-08-31</maxDate>
    <latitude>37.2506</latitude>
    <longitude>-114.7075</longitude>
    <elevation>1399</elevation>
    <locationLabels>
      <type>CNTRY</type>
      <id>FIPS:US</id>
      <displayName>United States</displayName>
    </locationLabels>
    <coverage>0.9668</coverage>
  </station>
  <station>
    <id>GHCND:USC00485021</id>
    <displayName>KANE, WY US</displayName>
    <minDate>1949-08-02</minDate>
    <maxDate>1951-09-30</maxDate>
    <latitude>44.85</latitude>
    <longitude>-108.2</longitude>
    <elevation>1110.1</elevation>
    <locationLabels>
      <type>CNTRY</type>
      <id>FIPS:US</id>
      <displayName>United States</displayName>
    </locationLabels>
    <coverage>0.9494</coverage>
  </station>
  <station>
    <id>GHCND:USC00513104</id>
    <displayName>KANEHA RESERVOIR 109, HI US</displayName>
    <minDate>1963-11-01</minDate>
    <maxDate>2000-10-31</maxDate>
    <latitude>22.13278</latitude>
    <longitude>-159.37028</longitude>
    <elevation>246.9</elevation>
    <locationLabels>
      <type>CNTRY</type>
      <id>FIPS:US</id>
      <displayName>United States</displayName>
    </locationLabels>
    <coverage>0.9959</coverage>
  </station>
  <station>
    <id>GHCND:USR0000HKAN</id>
    <displayName>KANELOA HAWAII, HI US</displayName>
    <minDate>2001-09-28</minDate>
    <maxDate>2012-08-30</maxDate>
    <latitude>20.5222</latitude>
    <longitude>-156.5658</longitude>
    <elevation>248.4</elevation>
    <locationLabels>
      <type>CNTRY</type>
      <id>FIPS:US</id>
      <displayName>United States</displayName>
    </locationLabels>
    <coverage>0.8687</coverage>
  </station>
  <station>
    <id>GHCND:US1HIHN0003</id>
    <displayName>KANEOHE 1.8 WNW, HI US</displayName>
    <minDate>2009-06-26</minDate>
    <maxDate>2010-03-11</maxDate>
    <latitude>21.4209</latitude>
    <longitude>-157.8183</longitude>
    <elevation>68</elevation>
    <locationLabels>
      <type>CNTRY</type>
      <id>FIPS:US</id>
      <displayName>United States</displayName>
    </locationLabels>
    <coverage>0.5405</coverage>
  </station>
  <station>
    <id>GHCND:US1HIHN0011</id>
    <displayName>KANEOHE 3.9 NW, HI US</displayName>
    <minDate>2011-10-12</minDate>
    <maxDate>2013-01-16</maxDate>
    <latitude>21.4551</latitude>
    <longitude>-157.8294</longitude>
    <elevation>23.8</elevation>
    <locationLabels>
      <type>CNTRY</type>
      <id>FIPS:US</id>
      <displayName>United States</displayName>
    </locationLabels>
    <coverage>0.9698</coverage>
  </station>
  <station>
    <id>GHCND:USC00513117</id>
    <displayName>KANEOHE 838.1, HI US</displayName>
    <minDate>1905-01-01</minDate>
    <maxDate>2013-01-16</maxDate>
    <latitude>21.42333</latitude>
    <longitude>-157.80139</longitude>
    <elevation>14.6</elevation>
    <locationLabels>
      <type>CNTRY</type>
      <id>FIPS:US</id>
      <displayName>United States</displayName>
    </locationLabels>
    <coverage>0.4135</coverage>
  </station>
  <station>
    <id>GHCND:USW00022519</id>
    <displayName>KANEOHE BAY MCAS, HI US</displayName>
    <minDate>1942-01-01</minDate>
    <maxDate>2013-01-14</maxDate>
    <latitude>21.45</latitude>
    <longitude>-157.78333</longitude>
    <elevation>3</elevation>
    <locationLabels>
      <type>CNTRY</type>
      <id>FIPS:US</id>
      <displayName>United States</displayName>
    </locationLabels>
    <coverage>0.8092</coverage>
  </station>
  <station>
    <id>GHCND:USC00513113</id>
    <displayName>KANEOHE MAUKA 781, HI US</displayName>
    <minDate>1928-08-01</minDate>
    <maxDate>1998-06-30</maxDate>
    <latitude>21.41667</latitude>
    <longitude>-157.81667</longitude>
    <elevation>57.9</elevation>
    <locationLabels>
      <type>CNTRY</type>
      <id>FIPS:US</id>
      <displayName>United States</displayName>
    </locationLabels>
    <coverage>0.9574</coverage>
  </station>
  <station>
    <id>GHCND:USC00513130</id>
    <displayName>KANEPUU 690, HI US</displayName>
    <minDate>1955-01-01</minDate>
    <maxDate>2007-04-30</maxDate>
    <latitude>20.88111</latitude>
    <longitude>-156.99278</longitude>
    <elevation>502.9</elevation>
    <locationLabels>
      <type>CNTRY</type>
      <id>FIPS:US</id>
      <displayName>United States</displayName>
    </locationLabels>
    <coverage>0.9832</coverage>
  </station>
  <station>
    <id>GHCND:USC00114593</id>
    <displayName>KANKAKEE 3 SW, IL US</displayName>
    <minDate>1917-01-01</minDate>
    <maxDate>1973-03-15</maxDate>
    <latitude>41.08333</latitude>
    <longitude>-87.91667</longitude>
    <elevation>192</elevation>
    <locationLabels>
      <type>CNTRY</type>
      <id>FIPS:US</id>
      <displayName>United States</displayName>
    </locationLabels>
    <coverage>0.996</coverage>
  </station>
  <station>
    <id>GHCND:US1ILKK0026</id>
    <displayName>KANKAKEE 3.2 SE, IL US</displayName>
    <minDate>2012-03-18</minDate>
    <maxDate>2013-01-16</maxDate>
    <latitude>41.079</latitude>
    <longitude>-87.823</longitude>
    <elevation>184.4</elevation>
    <locationLabels>
      <type>CNTRY</type>
      <id>FIPS:US</id>
      <displayName>United States</displayName>
    </locationLabels>
    <coverage>0.8164</coverage>
  </station>
  <station>
    <id>GHCND:USC00114598</id>
    <displayName>KANKAKEE 4 NW, IL US</displayName>
    <minDate>1941-04-01</minDate>
    <maxDate>1960-02-29</maxDate>
    <latitude>41.13333</latitude>
    <longitude>-87.93333</longitude>
    <elevation>192</elevation>
    <locationLabels>
      <type>CNTRY</type>
      <id>FIPS:US</id>
      <displayName>United States</displayName>
    </locationLabels>
    <coverage>0.9993</coverage>
  </station>
  <station>
    <id>GHCND:US1ILKK0011</id>
    <displayName>KANKAKEE 4.2 NW, IL US</displayName>
    <minDate>2008-05-21</minDate>
    <maxDate>2012-07-31</maxDate>
    <latitude>41.1508</latitude>
    <longitude>-87.9268</longitude>
    <elevation>198.1</elevation>
    <locationLabels>
      <type>CNTRY</type>
      <id>FIPS:US</id>
      <displayName>United States</displayName>
    </locationLabels>
    <coverage>0.2935</coverage>
  </station>
  <station>
    <id>GHCND:US1ILKK0007</id>
    <displayName>KANKAKEE 4.5 WNW, IL US</displayName>
    <minDate>2007-08-12</minDate>
    <maxDate>2010-01-08</maxDate>
    <latitude>41.1502</latitude>
    <longitude>-87.9353</longitude>
    <elevation>196.9</elevation>
    <locationLabels>
      <type>CNTRY</type>
      <id>FIPS:US</id>
      <displayName>United States</displayName>
    </locationLabels>
    <coverage>0.3212</coverage>
  </station>
  <station>
    <id>GHCND:USC00114603</id>
    <displayName>KANKAKEE METRO WWTP, IL US</displayName>
    <minDate>1948-07-01</minDate>
    <maxDate>2013-01-16</maxDate>
    <latitude>41.138</latitude>
    <longitude>-87.8855</longitude>
    <elevation>195.1</elevation>
    <locationLabels>
      <type>CNTRY</type>
      <id>FIPS:US</id>
      <displayName>United States</displayName>
    </locationLabels>
    <coverage>0.6517</coverage>
  </station>
  <station>
    <id>GHCND:US1NCCB0001</id>
    <displayName>KANNAPOLIS 5.2 E, NC US</displayName>
    <minDate>2007-09-01</minDate>
    <maxDate>2013-01-15</maxDate>
    <latitude>35.4916</latitude>
    <longitude>-80.5277</longitude>
    <elevation>243.8</elevation>
    <locationLabels>
      <type>CNTRY</type>
      <id>FIPS:US</id>
      <displayName>United States</displayName>
    </locationLabels>
    <coverage>0.8956</coverage>
  </station>
  <station>
    <id>GHCND:US1KSEW0002</id>
    <displayName>KANOPOLIS 0.8 SW, KS US</displayName>
    <minDate>2007-11-24</minDate>
    <maxDate>2013-01-16</maxDate>
    <latitude>38.699</latitude>
    <longitude>-98.1662</longitude>
    <elevation>467</elevation>
    <locationLabels>
      <type>CNTRY</type>
      <id>FIPS:US</id>
      <displayName>United States</displayName>
    </locationLabels>
    <coverage>0.5976</coverage>
  </station>
  <station>
    <id>GHCND:US1KSEW0016</id>
    <displayName>KANOPOLIS 9.8 ESE, KS US</displayName>
    <minDate>2008-04-21</minDate>
    <maxDate>2012-12-17</maxDate>
    <latitude>38.6439</latitude>
    <longitude>-97.9957</longitude>
    <elevation>481.3</elevation>
    <locationLabels>
      <type>CNTRY</type>
      <id>FIPS:US</id>
      <displayName>United States</displayName>
    </locationLabels>
    <coverage>0.7632</coverage>
  </station>
  <station>
    <id>GHCND:USC00144178</id>
    <displayName>KANOPOLIS LAKE, KS US</displayName>
    <minDate>1941-03-01</minDate>
    <maxDate>2013-01-15</maxDate>
    <latitude>38.6078</latitude>
    <longitude>-97.9596</longitude>
    <elevation>454.8</elevation>
    <locationLabels>
      <type>CNTRY</type>
      <id>FIPS:US</id>
      <displayName>United States</displayName>
    </locationLabels>
    <coverage>0.8873</coverage>
  </station>
  <station>
    <id>GHCND:USC00424527</id>
    <displayName>KANOSH, UT US</displayName>
    <minDate>1907-07-01</minDate>
    <maxDate>2013-01-15</maxDate>
    <latitude>38.7952</latitude>
    <longitude>-112.4382</longitude>
    <elevation>1335.6</elevation>
    <locationLabels>
      <type>CNTRY</type>
      <id>FIPS:US</id>
      <displayName>United States</displayName>
    </locationLabels>
    <coverage>0.837</coverage>
  </station>
  <station>
    <id>GHCND:USC00344672</id>
    <displayName>KANSAS 2 NE, OK US</displayName>
    <minDate>1959-04-02</minDate>
    <maxDate>2010-07-31</maxDate>
    <latitude>36.2133</latitude>
    <longitude>-94.7724</longitude>
    <elevation>362.7</elevation>
    <locationLabels>
      <type>CNTRY</type>
      <id>FIPS:US</id>
      <displayName>United States</displayName>
    </locationLabels>
    <coverage>0.9798</coverage>
  </station>
</stationCollection>
