<?xml version="1.0" encoding="UTF-8" standalone="yes"?>
<stationCollection totalCount="46020" pageCount="461" pageSize="100" page="441">
  <station>
    <id>GHCND:USC00429368</id>
    <displayName>WELLINGTON 3 E, UT US</displayName>
    <minDate>1980-06-01</minDate>
    <maxDate>2013-01-15</maxDate>
    <latitude>39.5447</latitude>
    <longitude>-110.6861</longitude>
    <elevation>1645.9</elevation>
    <locationLabels>
      <type>CNTRY</type>
      <id>FIPS:US</id>
      <displayName>United States</displayName>
    </locationLabels>
    <coverage>0.98</coverage>
  </station>
  <station>
    <id>GHCND:US1COLR0918</id>
    <displayName>WELLINGTON 3.7 WNW, CO US</displayName>
    <minDate>2012-03-02</minDate>
    <maxDate>2013-01-16</maxDate>
    <latitude>40.7228</latitude>
    <longitude>-105.068</longitude>
    <elevation>1619.7</elevation>
    <locationLabels>
      <type>CNTRY</type>
      <id>FIPS:US</id>
      <displayName>United States</displayName>
    </locationLabels>
    <coverage>0.8972</coverage>
  </station>
  <station>
    <id>GHCND:US1COLR0686</id>
    <displayName>WELLINGTON 3.9 NNE, CO US</displayName>
    <minDate>2006-05-01</minDate>
    <maxDate>2006-09-04</maxDate>
    <latitude>40.7511</latitude>
    <longitude>-104.9625</longitude>
    <elevation>1631</elevation>
    <locationLabels>
      <type>CNTRY</type>
      <id>FIPS:US</id>
      <displayName>United States</displayName>
    </locationLabels>
    <coverage>0.8346</coverage>
  </station>
  <station>
    <id>GHCND:US1COLR0193</id>
    <displayName>WELLINGTON 3.9 SW, CO US</displayName>
    <minDate>2001-06-09</minDate>
    <maxDate>2010-06-15</maxDate>
    <latitude>40.6711</latitude>
    <longitude>-105.0639</longitude>
    <elevation>1584</elevation>
    <locationLabels>
      <type>CNTRY</type>
      <id>FIPS:US</id>
      <displayName>United States</displayName>
    </locationLabels>
    <coverage>0.1245</coverage>
  </station>
  <station>
    <id>GHCND:US1COLR0171</id>
    <displayName>WELLINGTON 4.2 N, CO US</displayName>
    <minDate>2000-01-31</minDate>
    <maxDate>2012-12-26</maxDate>
    <latitude>40.7618</latitude>
    <longitude>-105.0208</longitude>
    <elevation>1634</elevation>
    <locationLabels>
      <type>CNTRY</type>
      <id>FIPS:US</id>
      <displayName>United States</displayName>
    </locationLabels>
    <coverage>0.7202</coverage>
  </station>
  <station>
    <id>GHCND:USC00058907</id>
    <displayName>WELLINGTON 5 WNW, CO US</displayName>
    <minDate>1995-03-01</minDate>
    <maxDate>1998-12-31</maxDate>
    <latitude>40.72556</latitude>
    <longitude>-105.10972</longitude>
    <elevation>1603.2</elevation>
    <locationLabels>
      <type>CNTRY</type>
      <id>FIPS:US</id>
      <displayName>United States</displayName>
    </locationLabels>
    <coverage>0.9843</coverage>
  </station>
  <station>
    <id>GHCND:US1COLR0187</id>
    <displayName>WELLINGTON 5.5 NW, CO US</displayName>
    <minDate>2001-05-27</minDate>
    <maxDate>2012-11-28</maxDate>
    <latitude>40.7689</latitude>
    <longitude>-105.064</longitude>
    <elevation>1653.8</elevation>
    <locationLabels>
      <type>CNTRY</type>
      <id>FIPS:US</id>
      <displayName>United States</displayName>
    </locationLabels>
    <coverage>0.95</coverage>
  </station>
  <station>
    <id>GHCND:US1OHLR0002</id>
    <displayName>WELLINGTON 5.5 SW, OH US</displayName>
    <minDate>2009-02-08</minDate>
    <maxDate>2013-01-16</maxDate>
    <latitude>41.1134</latitude>
    <longitude>-82.3036</longitude>
    <elevation>284.1</elevation>
    <locationLabels>
      <type>CNTRY</type>
      <id>FIPS:US</id>
      <displayName>United States</displayName>
    </locationLabels>
    <coverage>0.9604</coverage>
  </station>
  <station>
    <id>GHCND:US1COLR0185</id>
    <displayName>WELLINGTON 5.8 W, CO US</displayName>
    <minDate>2001-05-17</minDate>
    <maxDate>2002-08-13</maxDate>
    <latitude>40.711</latitude>
    <longitude>-105.1144</longitude>
    <elevation>1599</elevation>
    <locationLabels>
      <type>CNTRY</type>
      <id>FIPS:US</id>
      <displayName>United States</displayName>
    </locationLabels>
    <coverage>0.4581</coverage>
  </station>
  <station>
    <id>GHCND:US1COLR0173</id>
    <displayName>WELLINGTON 6.0 N, CO US</displayName>
    <minDate>2000-04-10</minDate>
    <maxDate>2002-09-13</maxDate>
    <latitude>40.7852</latitude>
    <longitude>-104.9757</longitude>
    <elevation>1670</elevation>
    <locationLabels>
      <type>CNTRY</type>
      <id>FIPS:US</id>
      <displayName>United States</displayName>
    </locationLabels>
    <coverage>0.3766</coverage>
  </station>
  <station>
    <id>GHCND:US1COLR0887</id>
    <displayName>WELLINGTON 7.5 NW, CO US</displayName>
    <minDate>2010-11-04</minDate>
    <maxDate>2013-01-12</maxDate>
    <latitude>40.7842</latitude>
    <longitude>-105.0971</longitude>
    <elevation>1674.6</elevation>
    <locationLabels>
      <type>CNTRY</type>
      <id>FIPS:US</id>
      <displayName>United States</displayName>
    </locationLabels>
    <coverage>0.779</coverage>
  </station>
  <station>
    <id>GHCND:USC00268977</id>
    <displayName>WELLINGTON RANGER STATION, NV US</displayName>
    <minDate>1942-07-01</minDate>
    <maxDate>1973-04-30</maxDate>
    <latitude>38.75</latitude>
    <longitude>-119.36667</longitude>
    <elevation>1476.1</elevation>
    <locationLabels>
      <type>CNTRY</type>
      <id>FIPS:US</id>
      <displayName>United States</displayName>
    </locationLabels>
    <coverage>0.9828</coverage>
  </station>
  <station>
    <id>GHCND:USC00148670</id>
    <displayName>WELLINGTON, KS US</displayName>
    <minDate>1894-04-01</minDate>
    <maxDate>2013-01-16</maxDate>
    <latitude>37.2777</latitude>
    <longitude>-97.4097</longitude>
    <elevation>374.9</elevation>
    <locationLabels>
      <type>CNTRY</type>
      <id>FIPS:US</id>
      <displayName>United States</displayName>
    </locationLabels>
    <coverage>0.8596</coverage>
  </station>
  <station>
    <id>GHCND:USC00158537</id>
    <displayName>WELLINGTON, KY US</displayName>
    <minDate>2011-07-01</minDate>
    <maxDate>2011-11-30</maxDate>
    <latitude>37.9482</latitude>
    <longitude>-83.4824</longitude>
    <elevation>357.8</elevation>
    <locationLabels>
      <type>CNTRY</type>
      <id>FIPS:US</id>
      <displayName>United States</displayName>
    </locationLabels>
    <coverage>0.7974</coverage>
  </station>
  <station>
    <id>GHCND:USC00338915</id>
    <displayName>WELLINGTON, OH US</displayName>
    <minDate>1893-04-01</minDate>
    <maxDate>1911-01-31</maxDate>
    <latitude>41.166667</latitude>
    <longitude>-82.25</longitude>
    <elevation>260.9</elevation>
    <locationLabels>
      <type>CNTRY</type>
      <id>FIPS:US</id>
      <displayName>United States</displayName>
    </locationLabels>
    <coverage>0.8881</coverage>
  </station>
  <station>
    <id>GHCND:USC00419565</id>
    <displayName>WELLINGTON, TX US</displayName>
    <minDate>1912-04-01</minDate>
    <maxDate>2013-01-13</maxDate>
    <latitude>34.8422</latitude>
    <longitude>-100.2102</longitude>
    <elevation>621.8</elevation>
    <locationLabels>
      <type>CNTRY</type>
      <id>FIPS:US</id>
      <displayName>United States</displayName>
    </locationLabels>
    <coverage>0.6611</coverage>
  </station>
  <station>
    <id>GHCND:USC00429365</id>
    <displayName>WELLINGTON, UT US</displayName>
    <minDate>1900-02-03</minDate>
    <maxDate>1942-04-30</maxDate>
    <latitude>39.533333</latitude>
    <longitude>-110.716667</longitude>
    <elevation>1650.5</elevation>
    <locationLabels>
      <type>CNTRY</type>
      <id>FIPS:US</id>
      <displayName>United States</displayName>
    </locationLabels>
    <coverage>0.1784</coverage>
  </station>
  <station>
    <id>GHCND:USC00459058</id>
    <displayName>WELLPINIT, WA US</displayName>
    <minDate>1923-08-01</minDate>
    <maxDate>2007-12-31</maxDate>
    <latitude>47.8964</latitude>
    <longitude>-117.9933</longitude>
    <elevation>759</elevation>
    <locationLabels>
      <type>CNTRY</type>
      <id>FIPS:US</id>
      <displayName>United States</displayName>
    </locationLabels>
    <coverage>0.8765</coverage>
  </station>
  <station>
    <id>GHCND:US1MEYK0022</id>
    <displayName>WELLS 2.1 NE, ME US</displayName>
    <minDate>2009-12-20</minDate>
    <maxDate>2013-01-16</maxDate>
    <latitude>43.3468</latitude>
    <longitude>-70.5572</longitude>
    <elevation>11</elevation>
    <locationLabels>
      <type>CNTRY</type>
      <id>FIPS:US</id>
      <displayName>United States</displayName>
    </locationLabels>
    <coverage>0.9226</coverage>
  </station>
  <station>
    <id>GHCND:US1MEYK0018</id>
    <displayName>WELLS 3.5 SW, ME US</displayName>
    <minDate>2009-12-01</minDate>
    <maxDate>2012-12-30</maxDate>
    <latitude>43.3014</latitude>
    <longitude>-70.6447</longitude>
    <elevation>61.9</elevation>
    <locationLabels>
      <type>CNTRY</type>
      <id>FIPS:US</id>
      <displayName>United States</displayName>
    </locationLabels>
    <coverage>0.3632</coverage>
  </station>
  <station>
    <id>GHCND:US1MEYK0032</id>
    <displayName>WELLS 5.7 W, ME US</displayName>
    <minDate>2010-05-04</minDate>
    <maxDate>2012-12-15</maxDate>
    <latitude>43.3317</latitude>
    <longitude>-70.7181</longitude>
    <elevation>60.7</elevation>
    <locationLabels>
      <type>CNTRY</type>
      <id>FIPS:US</id>
      <displayName>United States</displayName>
    </locationLabels>
    <coverage>0.6897</coverage>
  </station>
  <station>
    <id>GHCND:US1TXTV0090</id>
    <displayName>WELLS BRANCH 0.5 NNW, TX US</displayName>
    <minDate>2009-05-01</minDate>
    <maxDate>2013-01-15</maxDate>
    <latitude>30.4521</latitude>
    <longitude>-97.6819</longitude>
    <elevation>262.1</elevation>
    <locationLabels>
      <type>CNTRY</type>
      <id>FIPS:US</id>
      <displayName>United States</displayName>
    </locationLabels>
    <coverage>0.9764</coverage>
  </station>
  <station>
    <id>GHCND:US1TXTV0041</id>
    <displayName>WELLS BRANCH 1.2 NNW, TX US</displayName>
    <minDate>2007-11-16</minDate>
    <maxDate>2010-09-01</maxDate>
    <latitude>30.4606</latitude>
    <longitude>-97.6882</longitude>
    <elevation>278</elevation>
    <locationLabels>
      <type>CNTRY</type>
      <id>FIPS:US</id>
      <displayName>United States</displayName>
    </locationLabels>
    <coverage>0.9912</coverage>
  </station>
  <station>
    <id>GHCND:US1TXTV0078</id>
    <displayName>WELLS BRANCH 1.4 SW, TX US</displayName>
    <minDate>2009-04-02</minDate>
    <maxDate>2011-07-20</maxDate>
    <latitude>30.4311</latitude>
    <longitude>-97.6942</longitude>
    <elevation>246</elevation>
    <locationLabels>
      <type>CNTRY</type>
      <id>FIPS:US</id>
      <displayName>United States</displayName>
    </locationLabels>
    <coverage>0.1905</coverage>
  </station>
  <station>
    <id>GHCND:US1TXTV0129</id>
    <displayName>WELLS BRANCH 1.8 WSW, TX US</displayName>
    <minDate>2010-10-17</minDate>
    <maxDate>2013-01-15</maxDate>
    <latitude>30.4333</latitude>
    <longitude>-97.7047</longitude>
    <elevation>234.1</elevation>
    <locationLabels>
      <type>CNTRY</type>
      <id>FIPS:US</id>
      <displayName>United States</displayName>
    </locationLabels>
    <coverage>0.3881</coverage>
  </station>
  <station>
    <id>GHCND:US1TXTV0049</id>
    <displayName>WELLS BRANCH 4.2 S, TX US</displayName>
    <minDate>2008-02-25</minDate>
    <maxDate>2013-01-16</maxDate>
    <latitude>30.3852</latitude>
    <longitude>-97.6788</longitude>
    <elevation>210.9</elevation>
    <locationLabels>
      <type>CNTRY</type>
      <id>FIPS:US</id>
      <displayName>United States</displayName>
    </locationLabels>
    <coverage>0.7461</coverage>
  </station>
  <station>
    <id>GHCND:USS0021A31S</id>
    <displayName>WELLS CREEK, WA US</displayName>
    <minDate>1995-10-01</minDate>
    <maxDate>2013-01-13</maxDate>
    <latitude>48.85</latitude>
    <longitude>-121.7833</longitude>
    <elevation>1280.2</elevation>
    <locationLabels>
      <type>CNTRY</type>
      <id>FIPS:US</id>
      <displayName>United States</displayName>
    </locationLabels>
    <coverage>0.9639</coverage>
  </station>
  <station>
    <id>GHCND:USC00218808</id>
    <displayName>WELLS, MN US</displayName>
    <minDate>1942-01-01</minDate>
    <maxDate>2013-01-16</maxDate>
    <latitude>43.7462</latitude>
    <longitude>-93.7364</longitude>
    <elevation>364.8</elevation>
    <locationLabels>
      <type>CNTRY</type>
      <id>FIPS:US</id>
      <displayName>United States</displayName>
    </locationLabels>
    <coverage>0.9396</coverage>
  </station>
  <station>
    <id>GHCND:USC00268988</id>
    <displayName>WELLS, NV US</displayName>
    <minDate>1895-04-05</minDate>
    <maxDate>2004-06-30</maxDate>
    <latitude>41.1006</latitude>
    <longitude>-114.9736</longitude>
    <elevation>1737.4</elevation>
    <locationLabels>
      <type>CNTRY</type>
      <id>FIPS:US</id>
      <displayName>United States</displayName>
    </locationLabels>
    <coverage>0.7954</coverage>
  </station>
  <station>
    <id>GHCND:USC00438905</id>
    <displayName>WELLS, VT US</displayName>
    <minDate>1893-01-01</minDate>
    <maxDate>1919-04-30</maxDate>
    <latitude>43.416667</latitude>
    <longitude>-73.2</longitude>
    <elevation>274.3</elevation>
    <locationLabels>
      <type>CNTRY</type>
      <id>FIPS:US</id>
      <displayName>United States</displayName>
    </locationLabels>
    <coverage>0.9913</coverage>
  </station>
  <station>
    <id>GHCND:USC00369412</id>
    <displayName>WELLSBORO 2 E, PA US</displayName>
    <minDate>1948-05-01</minDate>
    <maxDate>1951-09-30</maxDate>
    <latitude>41.75</latitude>
    <longitude>-77.26667</longitude>
    <elevation>473</elevation>
    <locationLabels>
      <type>CNTRY</type>
      <id>FIPS:US</id>
      <displayName>United States</displayName>
    </locationLabels>
    <coverage>0.9407</coverage>
  </station>
  <station>
    <id>GHCND:USC00369408</id>
    <displayName>WELLSBORO 4 SW, PA US</displayName>
    <minDate>1926-01-01</minDate>
    <maxDate>2013-01-16</maxDate>
    <latitude>41.7003</latitude>
    <longitude>-77.3894</longitude>
    <elevation>554.1</elevation>
    <locationLabels>
      <type>CNTRY</type>
      <id>FIPS:US</id>
      <displayName>United States</displayName>
    </locationLabels>
    <coverage>0.915</coverage>
  </station>
  <station>
    <id>GHCND:US1PATG0001</id>
    <displayName>WELLSBORO 6.5 W, PA US</displayName>
    <minDate>2007-08-28</minDate>
    <maxDate>2012-09-28</maxDate>
    <latitude>41.7468</latitude>
    <longitude>-77.4298</longitude>
    <elevation>346.9</elevation>
    <locationLabels>
      <type>CNTRY</type>
      <id>FIPS:US</id>
      <displayName>United States</displayName>
    </locationLabels>
    <coverage>0.7843</coverage>
  </station>
  <station>
    <id>GHCND:USC00369407</id>
    <displayName>WELLSBORO, PA US</displayName>
    <minDate>1893-01-01</minDate>
    <maxDate>1999-04-30</maxDate>
    <latitude>41.74167</latitude>
    <longitude>-77.31222</longitude>
    <elevation>420.6</elevation>
    <locationLabels>
      <type>CNTRY</type>
      <id>FIPS:US</id>
      <displayName>United States</displayName>
    </locationLabels>
    <coverage>0.3774</coverage>
  </station>
  <station>
    <id>GHCND:US1WVBK0001</id>
    <displayName>WELLSBURG 1.2 SE, WV US</displayName>
    <minDate>2010-04-10</minDate>
    <maxDate>2011-06-19</maxDate>
    <latitude>40.268</latitude>
    <longitude>-80.5966</longitude>
    <elevation>303.3</elevation>
    <locationLabels>
      <type>CNTRY</type>
      <id>FIPS:US</id>
      <displayName>United States</displayName>
    </locationLabels>
    <coverage>0.9541</coverage>
  </station>
  <station>
    <id>GHCND:USC00469368</id>
    <displayName>WELLSBURG WATER TREATMENT P, WV US</displayName>
    <minDate>1878-02-01</minDate>
    <maxDate>2004-04-30</maxDate>
    <latitude>40.27528</latitude>
    <longitude>-80.61194</longitude>
    <elevation>201.2</elevation>
    <locationLabels>
      <type>CNTRY</type>
      <id>FIPS:US</id>
      <displayName>United States</displayName>
    </locationLabels>
    <coverage>0.7381</coverage>
  </station>
  <station>
    <id>GHCND:USC00208774</id>
    <displayName>WELLSTON 1 N, MI US</displayName>
    <minDate>1999-05-01</minDate>
    <maxDate>2013-01-16</maxDate>
    <latitude>44.2294</latitude>
    <longitude>-85.9572</longitude>
    <elevation>235.6</elevation>
    <locationLabels>
      <type>CNTRY</type>
      <id>FIPS:US</id>
      <displayName>United States</displayName>
    </locationLabels>
    <coverage>0.6419</coverage>
  </station>
  <station>
    <id>GHCND:US1MIMN0006</id>
    <displayName>WELLSTON 3.9 WNW, MI US</displayName>
    <minDate>2012-03-30</minDate>
    <maxDate>2013-01-16</maxDate>
    <latitude>44.2337</latitude>
    <longitude>-86.0358</longitude>
    <elevation>222.5</elevation>
    <locationLabels>
      <type>CNTRY</type>
      <id>FIPS:US</id>
      <displayName>United States</displayName>
    </locationLabels>
    <coverage>0.8908</coverage>
  </station>
  <station>
    <id>GHCND:USC00208772</id>
    <displayName>WELLSTON TIPPY DAM, MI US</displayName>
    <minDate>1917-04-01</minDate>
    <maxDate>2013-01-16</maxDate>
    <latitude>44.2586</latitude>
    <longitude>-85.9394</longitude>
    <elevation>198.1</elevation>
    <locationLabels>
      <type>CNTRY</type>
      <id>FIPS:US</id>
      <displayName>United States</displayName>
    </locationLabels>
    <coverage>0.9525</coverage>
  </station>
  <station>
    <id>GHCND:US1MOMY0001</id>
    <displayName>WELLSVILLE 2.4 NE, MO US</displayName>
    <minDate>2007-03-29</minDate>
    <maxDate>2007-10-03</maxDate>
    <latitude>39.0934</latitude>
    <longitude>-91.5306</longitude>
    <elevation>246</elevation>
    <locationLabels>
      <type>CNTRY</type>
      <id>FIPS:US</id>
      <displayName>United States</displayName>
    </locationLabels>
    <coverage>0.9153</coverage>
  </station>
  <station>
    <id>GHCND:US1KSDG0026</id>
    <displayName>WELLSVILLE 3.6 NNW, KS US</displayName>
    <minDate>2009-05-04</minDate>
    <maxDate>2012-12-29</maxDate>
    <latitude>38.7678</latitude>
    <longitude>-95.0985</longitude>
    <elevation>328</elevation>
    <locationLabels>
      <type>CNTRY</type>
      <id>FIPS:US</id>
      <displayName>United States</displayName>
    </locationLabels>
    <coverage>0.7216</coverage>
  </station>
  <station>
    <id>GHCND:USC00309076</id>
    <displayName>WELLSVILLE 4 NNW, NY US</displayName>
    <minDate>1975-09-01</minDate>
    <maxDate>1998-02-28</maxDate>
    <latitude>42.16667</latitude>
    <longitude>-77.98333</longitude>
    <elevation>445</elevation>
    <locationLabels>
      <type>CNTRY</type>
      <id>FIPS:US</id>
      <displayName>United States</displayName>
    </locationLabels>
    <coverage>0.9701</coverage>
  </station>
  <station>
    <id>GHCND:USC00307557</id>
    <displayName>WELLSVILLE 4 NNW, NY US</displayName>
    <minDate>1948-05-01</minDate>
    <maxDate>1975-08-31</maxDate>
    <latitude>42.16667</latitude>
    <longitude>-77.98333</longitude>
    <elevation>445</elevation>
    <locationLabels>
      <type>CNTRY</type>
      <id>FIPS:US</id>
      <displayName>United States</displayName>
    </locationLabels>
    <coverage>0.9497</coverage>
  </station>
  <station>
    <id>GHCND:USW00054757</id>
    <displayName>WELLSVILLE MUNICIPAL AIRPORT, NY US</displayName>
    <minDate>2000-02-02</minDate>
    <maxDate>2013-01-14</maxDate>
    <latitude>42.10944</latitude>
    <longitude>-77.99194</longitude>
    <elevation>647.4</elevation>
    <locationLabels>
      <type>CNTRY</type>
      <id>FIPS:US</id>
      <displayName>United States</displayName>
    </locationLabels>
    <coverage>0.9871</coverage>
  </station>
  <station>
    <id>GHCND:USC00309072</id>
    <displayName>WELLSVILLE, NY US</displayName>
    <minDate>1956-06-20</minDate>
    <maxDate>2013-01-16</maxDate>
    <latitude>42.1173</latitude>
    <longitude>-77.9475</longitude>
    <elevation>460.2</elevation>
    <locationLabels>
      <type>CNTRY</type>
      <id>FIPS:US</id>
      <displayName>United States</displayName>
    </locationLabels>
    <coverage>0.957</coverage>
  </station>
  <station>
    <id>GHCND:USC00369420</id>
    <displayName>WELLSVILLE, PA US</displayName>
    <minDate>1946-09-01</minDate>
    <maxDate>1958-05-31</maxDate>
    <latitude>40.05</latitude>
    <longitude>-76.95</longitude>
    <elevation>153</elevation>
    <locationLabels>
      <type>CNTRY</type>
      <id>FIPS:US</id>
      <displayName>United States</displayName>
    </locationLabels>
    <coverage>0.9963</coverage>
  </station>
  <station>
    <id>GHCND:USC00029215</id>
    <displayName>WELLTON 6 NE, AZ US</displayName>
    <minDate>1950-02-16</minDate>
    <maxDate>1951-10-31</maxDate>
    <latitude>32.71667</latitude>
    <longitude>-114.05</longitude>
    <elevation>73.2</elevation>
    <locationLabels>
      <type>CNTRY</type>
      <id>FIPS:US</id>
      <displayName>United States</displayName>
    </locationLabels>
    <coverage>1</coverage>
  </station>
  <station>
    <id>GHCND:USC00029211</id>
    <displayName>WELLTON, AZ US</displayName>
    <minDate>1922-03-18</minDate>
    <maxDate>1980-12-31</maxDate>
    <latitude>32.66667</latitude>
    <longitude>-114.13333</longitude>
    <elevation>78.9</elevation>
    <locationLabels>
      <type>CNTRY</type>
      <id>FIPS:US</id>
      <displayName>United States</displayName>
    </locationLabels>
    <coverage>0.9334</coverage>
  </station>
  <station>
    <id>GHCND:US1LAJD0002</id>
    <displayName>WELSH 0.7 W, LA US</displayName>
    <minDate>2008-02-03</minDate>
    <maxDate>2013-01-16</maxDate>
    <latitude>30.236</latitude>
    <longitude>-92.823</longitude>
    <elevation>3.7</elevation>
    <locationLabels>
      <type>CNTRY</type>
      <id>FIPS:US</id>
      <displayName>United States</displayName>
    </locationLabels>
    <coverage>0.8657</coverage>
  </station>
  <station>
    <id>GHCND:USC00349479</id>
    <displayName>WELTY, OK US</displayName>
    <minDate>1983-08-01</minDate>
    <maxDate>2001-12-31</maxDate>
    <latitude>35.5827</latitude>
    <longitude>-96.3958</longitude>
    <elevation>256.9</elevation>
    <locationLabels>
      <type>CNTRY</type>
      <id>FIPS:US</id>
      <displayName>United States</displayName>
    </locationLabels>
    <coverage>0.9999</coverage>
  </station>
  <station>
    <id>GHCND:US1WACH0007</id>
    <displayName>WENATCHEE 0.4 S, WA US</displayName>
    <minDate>2008-09-27</minDate>
    <maxDate>2013-01-14</maxDate>
    <latitude>47.4201</latitude>
    <longitude>-120.326</longitude>
    <elevation>242.6</elevation>
    <locationLabels>
      <type>CNTRY</type>
      <id>FIPS:US</id>
      <displayName>United States</displayName>
    </locationLabels>
    <coverage>0.8542</coverage>
  </station>
  <station>
    <id>GHCND:US1WACH0011</id>
    <displayName>WENATCHEE 0.6 N, WA US</displayName>
    <minDate>2008-09-25</minDate>
    <maxDate>2013-01-16</maxDate>
    <latitude>47.4344</latitude>
    <longitude>-120.3269</longitude>
    <elevation>214.9</elevation>
    <locationLabels>
      <type>CNTRY</type>
      <id>FIPS:US</id>
      <displayName>United States</displayName>
    </locationLabels>
    <coverage>0.9225</coverage>
  </station>
  <station>
    <id>GHCND:US1WACH0013</id>
    <displayName>WENATCHEE 1.0 WSW, WA US</displayName>
    <minDate>2008-10-27</minDate>
    <maxDate>2013-01-16</maxDate>
    <latitude>47.4192</latitude>
    <longitude>-120.3445</longitude>
    <elevation>274.3</elevation>
    <locationLabels>
      <type>CNTRY</type>
      <id>FIPS:US</id>
      <displayName>United States</displayName>
    </locationLabels>
    <coverage>0.9203</coverage>
  </station>
  <station>
    <id>GHCND:US1WACH0019</id>
    <displayName>WENATCHEE 1.5 S, WA US</displayName>
    <minDate>2008-10-14</minDate>
    <maxDate>2012-05-09</maxDate>
    <latitude>47.4043</latitude>
    <longitude>-120.3288</longitude>
    <elevation>276.1</elevation>
    <locationLabels>
      <type>CNTRY</type>
      <id>FIPS:US</id>
      <displayName>United States</displayName>
    </locationLabels>
    <coverage>0.9908</coverage>
  </station>
  <station>
    <id>GHCND:US1WACH0010</id>
    <displayName>WENATCHEE 2.5 SE, WA US</displayName>
    <minDate>2008-09-20</minDate>
    <maxDate>2013-01-16</maxDate>
    <latitude>47.3934</latitude>
    <longitude>-120.3018</longitude>
    <elevation>230.1</elevation>
    <locationLabels>
      <type>CNTRY</type>
      <id>FIPS:US</id>
      <displayName>United States</displayName>
    </locationLabels>
    <coverage>0.9044</coverage>
  </station>
  <station>
    <id>GHCND:US1WACH0009</id>
    <displayName>WENATCHEE 2.7 WSW, WA US</displayName>
    <minDate>2008-09-19</minDate>
    <maxDate>2012-10-24</maxDate>
    <latitude>47.4086</latitude>
    <longitude>-120.3764</longitude>
    <elevation>392.9</elevation>
    <locationLabels>
      <type>CNTRY</type>
      <id>FIPS:US</id>
      <displayName>United States</displayName>
    </locationLabels>
    <coverage>0.3046</coverage>
  </station>
  <station>
    <id>GHCND:US1WACH0014</id>
    <displayName>WENATCHEE 4.0 NNW, WA US</displayName>
    <minDate>2008-11-01</minDate>
    <maxDate>2012-01-01</maxDate>
    <latitude>47.4824</latitude>
    <longitude>-120.3446</longitude>
    <elevation>322.8</elevation>
    <locationLabels>
      <type>CNTRY</type>
      <id>FIPS:US</id>
      <displayName>United States</displayName>
    </locationLabels>
    <coverage>0.1478</coverage>
  </station>
  <station>
    <id>GHCND:US1WACH0031</id>
    <displayName>WENATCHEE 4.5 S, WA US</displayName>
    <minDate>2008-12-13</minDate>
    <maxDate>2012-12-24</maxDate>
    <latitude>47.36</latitude>
    <longitude>-120.3266</longitude>
    <elevation>431.9</elevation>
    <locationLabels>
      <type>CNTRY</type>
      <id>FIPS:US</id>
      <displayName>United States</displayName>
    </locationLabels>
    <coverage>0.9009</coverage>
  </station>
  <station>
    <id>GHCND:USC00459077</id>
    <displayName>WENATCHEE 6 SW, WA US</displayName>
    <minDate>1899-04-01</minDate>
    <maxDate>1937-03-31</maxDate>
    <latitude>47.36667</latitude>
    <longitude>-120.36667</longitude>
    <elevation>670.9</elevation>
    <locationLabels>
      <type>CNTRY</type>
      <id>FIPS:US</id>
      <displayName>United States</displayName>
    </locationLabels>
    <coverage>0.9945</coverage>
  </station>
  <station>
    <id>GHCND:USC00459079</id>
    <displayName>WENATCHEE EXPERIMENTAL STATION, WA US</displayName>
    <minDate>1950-03-02</minDate>
    <maxDate>1997-09-30</maxDate>
    <latitude>47.43333</latitude>
    <longitude>-120.35</longitude>
    <elevation>243.8</elevation>
    <locationLabels>
      <type>CNTRY</type>
      <id>FIPS:US</id>
      <displayName>United States</displayName>
    </locationLabels>
    <coverage>0.581</coverage>
  </station>
  <station>
    <id>GHCND:USW00094239</id>
    <displayName>WENATCHEE PANGBORN AIRPORT, WA US</displayName>
    <minDate>1959-11-17</minDate>
    <maxDate>2013-01-14</maxDate>
    <latitude>47.3977</latitude>
    <longitude>-120.2013</longitude>
    <elevation>374.6</elevation>
    <locationLabels>
      <type>CNTRY</type>
      <id>FIPS:US</id>
      <displayName>United States</displayName>
    </locationLabels>
    <coverage>0.9996</coverage>
  </station>
  <station>
    <id>GHCND:USC00459074</id>
    <displayName>WENATCHEE, WA US</displayName>
    <minDate>1931-01-04</minDate>
    <maxDate>2013-01-15</maxDate>
    <latitude>47.429</latitude>
    <longitude>-120.31</longitude>
    <elevation>190.8</elevation>
    <locationLabels>
      <type>CNTRY</type>
      <id>FIPS:US</id>
      <displayName>United States</displayName>
    </locationLabels>
    <coverage>0.988</coverage>
  </station>
  <station>
    <id>GHCND:USC00049526</id>
    <displayName>WENDEL 10 SE, CA US</displayName>
    <minDate>1959-05-01</minDate>
    <maxDate>1977-06-30</maxDate>
    <latitude>40.26667</latitude>
    <longitude>-120.06667</longitude>
    <elevation>1232</elevation>
    <locationLabels>
      <type>CNTRY</type>
      <id>FIPS:US</id>
      <displayName>United States</displayName>
    </locationLabels>
    <coverage>0.7126</coverage>
  </station>
  <station>
    <id>GHCND:USC00319204</id>
    <displayName>WENDELL 6 SW, NC US</displayName>
    <minDate>1948-09-01</minDate>
    <maxDate>1953-08-31</maxDate>
    <latitude>35.71667</latitude>
    <longitude>-78.45</longitude>
    <elevation>92</elevation>
    <locationLabels>
      <type>CNTRY</type>
      <id>FIPS:US</id>
      <displayName>United States</displayName>
    </locationLabels>
    <coverage>0.9704</coverage>
  </station>
  <station>
    <id>GHCND:US1NCJH0015</id>
    <displayName>WENDELL 6.5 S, NC US</displayName>
    <minDate>2007-09-23</minDate>
    <maxDate>2013-01-16</maxDate>
    <latitude>35.6892</latitude>
    <longitude>-78.3482</longitude>
    <elevation>83.8</elevation>
    <locationLabels>
      <type>CNTRY</type>
      <id>FIPS:US</id>
      <displayName>United States</displayName>
    </locationLabels>
    <coverage>0.9928</coverage>
  </station>
  <station>
    <id>GHCND:USC00109658</id>
    <displayName>WENDELL, ID US</displayName>
    <minDate>1908-03-01</minDate>
    <maxDate>1927-11-30</maxDate>
    <latitude>42.75</latitude>
    <longitude>-114.666667</longitude>
    <locationLabels>
      <type>CNTRY</type>
      <id>FIPS:US</id>
      <displayName>United States</displayName>
    </locationLabels>
    <coverage>0.9282</coverage>
  </station>
  <station>
    <id>GHCND:USC00279074</id>
    <displayName>WENDELL, NH US</displayName>
    <minDate>1948-06-01</minDate>
    <maxDate>1951-09-30</maxDate>
    <latitude>43.36667</latitude>
    <longitude>-72.11667</longitude>
    <elevation>287.1</elevation>
    <locationLabels>
      <type>CNTRY</type>
      <id>FIPS:US</id>
      <displayName>United States</displayName>
    </locationLabels>
    <coverage>0.8776</coverage>
  </station>
  <station>
    <id>GHCND:USC00029223</id>
    <displayName>WENDEN, AZ US</displayName>
    <minDate>1973-03-01</minDate>
    <maxDate>1973-11-30</maxDate>
    <latitude>33.81667</latitude>
    <longitude>-113.53333</longitude>
    <elevation>566.9</elevation>
    <locationLabels>
      <type>CNTRY</type>
      <id>FIPS:US</id>
      <displayName>United States</displayName>
    </locationLabels>
    <coverage>0.6691</coverage>
  </station>
  <station>
    <id>GHCND:USW00024111</id>
    <displayName>WENDOVER DARBY AFB, UT US</displayName>
    <minDate>1948-08-26</minDate>
    <maxDate>1957-10-22</maxDate>
    <latitude>40.73333</latitude>
    <longitude>-114.03333</longitude>
    <elevation>1293</elevation>
    <locationLabels>
      <type>CNTRY</type>
      <id>FIPS:US</id>
      <displayName>United States</displayName>
    </locationLabels>
    <coverage>0.194</coverage>
  </station>
  <station>
    <id>GHCND:USW00024193</id>
    <displayName>WENDOVER USAF AUXILIARY FIELD, UT US</displayName>
    <minDate>1911-05-25</minDate>
    <maxDate>2013-01-15</maxDate>
    <latitude>40.7206</latitude>
    <longitude>-114.0358</longitude>
    <elevation>1291.4</elevation>
    <locationLabels>
      <type>CNTRY</type>
      <id>FIPS:US</id>
      <displayName>United States</displayName>
    </locationLabels>
    <coverage>0.9628</coverage>
  </station>
  <station>
    <id>GHCND:USC00119090</id>
    <displayName>WENONA, IL US</displayName>
    <minDate>1948-07-01</minDate>
    <maxDate>1951-09-30</maxDate>
    <latitude>41.06667</latitude>
    <longitude>-89.06667</longitude>
    <elevation>210.3</elevation>
    <locationLabels>
      <type>CNTRY</type>
      <id>FIPS:US</id>
      <displayName>United States</displayName>
    </locationLabels>
    <coverage>0.9697</coverage>
  </station>
  <station>
    <id>GHCND:USC00319225</id>
    <displayName>WENONA, NC US</displayName>
    <minDate>1914-10-14</minDate>
    <maxDate>1945-01-31</maxDate>
    <latitude>35.716667</latitude>
    <longitude>-76.633333</longitude>
    <elevation>6.4</elevation>
    <locationLabels>
      <type>CNTRY</type>
      <id>FIPS:US</id>
      <displayName>United States</displayName>
    </locationLabels>
    <coverage>0.9824</coverage>
  </station>
  <station>
    <id>GHCND:USC00399042</id>
    <displayName>WENTWORTH 2 WNW, SD US</displayName>
    <minDate>1893-01-01</minDate>
    <maxDate>2006-09-30</maxDate>
    <latitude>44.0083</latitude>
    <longitude>-97.0041</longitude>
    <elevation>524.9</elevation>
    <locationLabels>
      <type>CNTRY</type>
      <id>FIPS:US</id>
      <displayName>United States</displayName>
    </locationLabels>
    <coverage>0.9654</coverage>
  </station>
  <station>
    <id>GHCND:USC00279091</id>
    <displayName>WENTWORTH, NH US</displayName>
    <minDate>1944-09-01</minDate>
    <maxDate>2013-01-02</maxDate>
    <latitude>43.9522</latitude>
    <longitude>-71.9155</longitude>
    <elevation>189</elevation>
    <locationLabels>
      <type>CNTRY</type>
      <id>FIPS:US</id>
      <displayName>United States</displayName>
    </locationLabels>
    <coverage>0.3331</coverage>
  </station>
  <station>
    <id>GHCND:US1MOSS0022</id>
    <displayName>WENTZVILLE 1.6 NW, MO US</displayName>
    <minDate>2012-01-28</minDate>
    <maxDate>2013-01-11</maxDate>
    <latitude>38.8326</latitude>
    <longitude>-90.8766</longitude>
    <elevation>167.9</elevation>
    <locationLabels>
      <type>CNTRY</type>
      <id>FIPS:US</id>
      <displayName>United States</displayName>
    </locationLabels>
    <coverage>0.86</coverage>
  </station>
  <station>
    <id>GHCND:USC00069007</id>
    <displayName>WEPAWAUG RESERVOIR, CT US</displayName>
    <minDate>1948-06-01</minDate>
    <maxDate>1975-09-30</maxDate>
    <latitude>41.3</latitude>
    <longitude>-73.03333</longitude>
    <elevation>57.9</elevation>
    <locationLabels>
      <type>CNTRY</type>
      <id>FIPS:US</id>
      <displayName>United States</displayName>
    </locationLabels>
    <coverage>0.9373</coverage>
  </station>
  <station>
    <id>GHCND:US1PABR0009</id>
    <displayName>WERNERSVILLE 0.5 ESE, PA US</displayName>
    <minDate>2007-09-01</minDate>
    <maxDate>2012-06-30</maxDate>
    <latitude>40.3284</latitude>
    <longitude>-76.0747</longitude>
    <elevation>125</elevation>
    <locationLabels>
      <type>CNTRY</type>
      <id>FIPS:US</id>
      <displayName>United States</displayName>
    </locationLabels>
    <coverage>0.7337</coverage>
  </station>
  <station>
    <id>GHCND:USC00369430</id>
    <displayName>WERNERSVILLE, PA US</displayName>
    <minDate>1937-12-01</minDate>
    <maxDate>1959-06-30</maxDate>
    <latitude>40.33333</latitude>
    <longitude>-76.1</longitude>
    <elevation>125</elevation>
    <locationLabels>
      <type>CNTRY</type>
      <id>FIPS:US</id>
      <displayName>United States</displayName>
    </locationLabels>
    <coverage>0.9423</coverage>
  </station>
  <station>
    <id>GHCND:USC00289363</id>
    <displayName>WERTSVILLE 4 NE, NJ US</displayName>
    <minDate>1956-11-01</minDate>
    <maxDate>2013-01-16</maxDate>
    <latitude>40.4528</latitude>
    <longitude>-74.808</longitude>
    <elevation>73.2</elevation>
    <locationLabels>
      <type>CNTRY</type>
      <id>FIPS:US</id>
      <displayName>United States</displayName>
    </locationLabels>
    <coverage>0.863</coverage>
  </station>
  <station>
    <id>GHCND:US1TXGD0015</id>
    <displayName>WESER 1.9 NW, TX US</displayName>
    <minDate>2009-03-18</minDate>
    <maxDate>2013-01-16</maxDate>
    <latitude>28.8915</latitude>
    <longitude>-97.3821</longitude>
    <elevation>67.1</elevation>
    <locationLabels>
      <type>CNTRY</type>
      <id>FIPS:US</id>
      <displayName>United States</displayName>
    </locationLabels>
    <coverage>0.9322</coverage>
  </station>
  <station>
    <id>GHCND:USC00419588</id>
    <displayName>WESLACO, TX US</displayName>
    <minDate>1914-02-01</minDate>
    <maxDate>2013-01-16</maxDate>
    <latitude>26.178</latitude>
    <longitude>-97.9708</longitude>
    <elevation>22.9</elevation>
    <locationLabels>
      <type>CNTRY</type>
      <id>FIPS:US</id>
      <displayName>United States</displayName>
    </locationLabels>
    <coverage>0.9508</coverage>
  </station>
  <station>
    <id>GHCND:USC00037653</id>
    <displayName>WESLEY 3 N, AR US</displayName>
    <minDate>2006-05-01</minDate>
    <maxDate>2013-01-15</maxDate>
    <latitude>36.0744</latitude>
    <longitude>-93.9136</longitude>
    <elevation>446.5</elevation>
    <locationLabels>
      <type>CNTRY</type>
      <id>FIPS:US</id>
      <displayName>United States</displayName>
    </locationLabels>
    <coverage>0.7834</coverage>
  </station>
  <station>
    <id>GHCND:USC00179294</id>
    <displayName>WESLEY, ME US</displayName>
    <minDate>1998-10-01</minDate>
    <maxDate>2012-12-18</maxDate>
    <latitude>44.9511</latitude>
    <longitude>-67.6664</longitude>
    <elevation>125</elevation>
    <locationLabels>
      <type>CNTRY</type>
      <id>FIPS:US</id>
      <displayName>United States</displayName>
    </locationLabels>
    <coverage>0.9917</coverage>
  </station>
  <station>
    <id>GHCND:USS0005P08S</id>
    <displayName>WESNER SPRINGS, NM US</displayName>
    <minDate>1989-10-01</minDate>
    <maxDate>2013-01-13</maxDate>
    <latitude>35.7667</latitude>
    <longitude>-105.5333</longitude>
    <elevation>3389.4</elevation>
    <locationLabels>
      <type>CNTRY</type>
      <id>FIPS:US</id>
      <displayName>United States</displayName>
    </locationLabels>
    <coverage>0.9683</coverage>
  </station>
  <station>
    <id>GHCND:USC00399064</id>
    <displayName>WESSINGTON 2 SE, SD US</displayName>
    <minDate>1929-07-14</minDate>
    <maxDate>2012-11-30</maxDate>
    <latitude>44.4255</latitude>
    <longitude>-98.6819</longitude>
    <elevation>435.9</elevation>
    <locationLabels>
      <type>CNTRY</type>
      <id>FIPS:US</id>
      <displayName>United States</displayName>
    </locationLabels>
    <coverage>0.7426</coverage>
  </station>
  <station>
    <id>GHCND:US1SDHD0002</id>
    <displayName>WESSINGTON 3.3 WNW, SD US</displayName>
    <minDate>2008-05-06</minDate>
    <maxDate>2012-10-30</maxDate>
    <latitude>44.4657</latitude>
    <longitude>-98.7618</longitude>
    <elevation>445.9</elevation>
    <locationLabels>
      <type>CNTRY</type>
      <id>FIPS:US</id>
      <displayName>United States</displayName>
    </locationLabels>
    <coverage>0.2703</coverage>
  </station>
  <station>
    <id>GHCND:USC00399077</id>
    <displayName>WESSINGTON SPRGS 7 SW, SD US</displayName>
    <minDate>1948-01-02</minDate>
    <maxDate>1998-11-30</maxDate>
    <latitude>44.04333</latitude>
    <longitude>-98.70889</longitude>
    <elevation>542.5</elevation>
    <locationLabels>
      <type>CNTRY</type>
      <id>FIPS:US</id>
      <displayName>United States</displayName>
    </locationLabels>
    <coverage>0.9896</coverage>
  </station>
  <station>
    <id>GHCND:US1SDJR0001</id>
    <displayName>WESSINGTON SPRINGS 0.3 N, SD US</displayName>
    <minDate>2007-09-08</minDate>
    <maxDate>2012-12-28</maxDate>
    <latitude>44.085</latitude>
    <longitude>-98.571</longitude>
    <elevation>494.4</elevation>
    <locationLabels>
      <type>CNTRY</type>
      <id>FIPS:US</id>
      <displayName>United States</displayName>
    </locationLabels>
    <coverage>0.1377</coverage>
  </station>
  <station>
    <id>GHCND:USC00399070</id>
    <displayName>WESSINGTON SPRINGS, SD US</displayName>
    <minDate>1893-01-01</minDate>
    <maxDate>2013-01-16</maxDate>
    <latitude>44.0761</latitude>
    <longitude>-98.5705</longitude>
    <elevation>515.1</elevation>
    <locationLabels>
      <type>CNTRY</type>
      <id>FIPS:US</id>
      <displayName>United States</displayName>
    </locationLabels>
    <coverage>0.6055</coverage>
  </station>
  <station>
    <id>GHCND:USC00419594</id>
    <displayName>WEST 1, TX US</displayName>
    <minDate>1940-05-15</minDate>
    <maxDate>1942-06-30</maxDate>
    <latitude>31.8</latitude>
    <longitude>-97.083333</longitude>
    <locationLabels>
      <type>CNTRY</type>
      <id>FIPS:US</id>
      <displayName>United States</displayName>
    </locationLabels>
    <coverage>0.9562</coverage>
  </station>
  <station>
    <id>GHCND:US1MSAT0001</id>
    <displayName>WEST 4.3 SSE, MS US</displayName>
    <minDate>2008-07-19</minDate>
    <maxDate>2012-11-14</maxDate>
    <latitude>33.141</latitude>
    <longitude>-89.7531</longitude>
    <elevation>98.5</elevation>
    <locationLabels>
      <type>CNTRY</type>
      <id>FIPS:US</id>
      <displayName>United States</displayName>
    </locationLabels>
    <coverage>0.6196</coverage>
  </station>
  <station>
    <id>GHCND:US1WIMW0018</id>
    <displayName>WEST ALLIS 0.7 SSE, WI US</displayName>
    <minDate>2008-10-22</minDate>
    <maxDate>2013-01-16</maxDate>
    <latitude>42.998</latitude>
    <longitude>-88.0238</longitude>
    <elevation>234.1</elevation>
    <locationLabels>
      <type>CNTRY</type>
      <id>FIPS:US</id>
      <displayName>United States</displayName>
    </locationLabels>
    <coverage>0.8637</coverage>
  </station>
  <station>
    <id>GHCND:USC00479046</id>
    <displayName>WEST ALLIS, WI US</displayName>
    <minDate>1951-10-01</minDate>
    <maxDate>2011-12-31</maxDate>
    <latitude>43.0175</latitude>
    <longitude>-88.0017</longitude>
    <elevation>220.4</elevation>
    <locationLabels>
      <type>CNTRY</type>
      <id>FIPS:US</id>
      <displayName>United States</displayName>
    </locationLabels>
    <coverage>0.809</coverage>
  </station>
  <station>
    <id>GHCND:USC00475469</id>
    <displayName>WEST ALLIS, WI US</displayName>
    <minDate>1948-06-01</minDate>
    <maxDate>1951-01-31</maxDate>
    <latitude>43.0175</latitude>
    <longitude>-88.0017</longitude>
    <elevation>220.4</elevation>
    <locationLabels>
      <type>CNTRY</type>
      <id>FIPS:US</id>
      <displayName>United States</displayName>
    </locationLabels>
    <coverage>0.4338</coverage>
  </station>
  <station>
    <id>GHCND:USC00309088</id>
    <displayName>WEST ALMOND 3 W, NY US</displayName>
    <minDate>1950-01-01</minDate>
    <maxDate>1951-09-30</maxDate>
    <latitude>42.28333</latitude>
    <longitude>-77.93333</longitude>
    <elevation>531</elevation>
    <locationLabels>
      <type>CNTRY</type>
      <id>FIPS:US</id>
      <displayName>United States</displayName>
    </locationLabels>
    <coverage>0.2053</coverage>
  </station>
  <station>
    <id>GHCND:US1NYAL0002</id>
    <displayName>WEST ALMOND 3.6 SW, NY US</displayName>
    <minDate>2009-07-08</minDate>
    <maxDate>2013-01-16</maxDate>
    <latitude>42.2705</latitude>
    <longitude>-77.9419</longitude>
    <elevation>555.7</elevation>
    <locationLabels>
      <type>CNTRY</type>
      <id>FIPS:US</id>
      <displayName>United States</displayName>
    </locationLabels>
    <coverage>0.9201</coverage>
  </station>
  <station>
    <id>GHCND:USC00309087</id>
    <displayName>WEST ALMOND, NY US</displayName>
    <minDate>1948-05-01</minDate>
    <maxDate>1949-12-31</maxDate>
    <latitude>42.3</latitude>
    <longitude>-77.88333</longitude>
    <elevation>598</elevation>
    <locationLabels>
      <type>CNTRY</type>
      <id>FIPS:US</id>
      <displayName>United States</displayName>
    </locationLabels>
    <coverage>0.8967</coverage>
  </station>
  <station>
    <id>GHCND:USC00279104</id>
    <displayName>WEST ALTON, NH US</displayName>
    <minDate>1950-07-01</minDate>
    <maxDate>1951-10-31</maxDate>
    <latitude>43.55</latitude>
    <longitude>-71.31667</longitude>
    <elevation>156.1</elevation>
    <locationLabels>
      <type>CNTRY</type>
      <id>FIPS:US</id>
      <displayName>United States</displayName>
    </locationLabels>
    <coverage>0.5656</coverage>
  </station>
  <station>
    <id>GHCND:US1GARC0003</id>
    <displayName>WEST AUGUSTA 0.9 SW, GA US</displayName>
    <minDate>2011-08-05</minDate>
    <maxDate>2012-10-15</maxDate>
    <latitude>33.4771</latitude>
    <longitude>-82.0696</longitude>
    <elevation>104.5</elevation>
    <locationLabels>
      <type>CNTRY</type>
      <id>FIPS:US</id>
      <displayName>United States</displayName>
    </locationLabels>
    <coverage>0.2671</coverage>
  </station>
  <station>
    <id>GHCND:USC00448975</id>
    <displayName>WEST AUGUSTA, VA US</displayName>
    <minDate>1981-04-01</minDate>
    <maxDate>1988-10-31</maxDate>
    <latitude>38.26667</latitude>
    <longitude>-79.31667</longitude>
    <elevation>576.1</elevation>
    <locationLabels>
      <type>CNTRY</type>
      <id>FIPS:US</id>
      <displayName>United States</displayName>
    </locationLabels>
    <coverage>0.8881</coverage>
  </station>
</stationCollection>
