<?xml version="1.0" encoding="UTF-8" standalone="yes"?>
<stationCollection totalCount="46020" pageCount="461" pageSize="100" page="445">
  <station>
    <id>GHCND:US1COAD0107</id>
    <displayName>WESTMINSTER 0.5 ENE, CO US</displayName>
    <minDate>2007-01-07</minDate>
    <maxDate>2011-07-09</maxDate>
    <latitude>39.8835</latitude>
    <longitude>-105.042</longitude>
    <elevation>1667</elevation>
    <locationLabels>
      <type>CNTRY</type>
      <id>FIPS:US</id>
      <displayName>United States</displayName>
    </locationLabels>
    <coverage>0.4188</coverage>
  </station>
  <station>
    <id>GHCND:US1MDCR0009</id>
    <displayName>WESTMINSTER 0.5 ENE, MD US</displayName>
    <minDate>2008-10-01</minDate>
    <maxDate>2010-06-06</maxDate>
    <latitude>39.5816</latitude>
    <longitude>-76.9993</longitude>
    <elevation>231.6</elevation>
    <locationLabels>
      <type>CNTRY</type>
      <id>FIPS:US</id>
      <displayName>United States</displayName>
    </locationLabels>
    <coverage>0.3436</coverage>
  </station>
  <station>
    <id>GHCND:US1COAD0082</id>
    <displayName>WESTMINSTER 0.8 ESE, CO US</displayName>
    <minDate>2005-03-09</minDate>
    <maxDate>2013-01-16</maxDate>
    <latitude>39.8782</latitude>
    <longitude>-105.0364</longitude>
    <elevation>1688</elevation>
    <locationLabels>
      <type>CNTRY</type>
      <id>FIPS:US</id>
      <displayName>United States</displayName>
    </locationLabels>
    <coverage>0.9815</coverage>
  </station>
  <station>
    <id>GHCND:US1MDCR0007</id>
    <displayName>WESTMINSTER 1.0 W, MD US</displayName>
    <minDate>2000-02-06</minDate>
    <maxDate>2012-12-30</maxDate>
    <latitude>39.577</latitude>
    <longitude>-77.026</longitude>
    <elevation>202.1</elevation>
    <locationLabels>
      <type>CNTRY</type>
      <id>FIPS:US</id>
      <displayName>United States</displayName>
    </locationLabels>
    <coverage>0.4455</coverage>
  </station>
  <station>
    <id>GHCND:US1COAD0138</id>
    <displayName>WESTMINSTER 1.2 NNE, CO US</displayName>
    <minDate>2011-09-16</minDate>
    <maxDate>2012-12-17</maxDate>
    <latitude>39.8981</latitude>
    <longitude>-105.0452</longitude>
    <elevation>1605.4</elevation>
    <locationLabels>
      <type>CNTRY</type>
      <id>FIPS:US</id>
      <displayName>United States</displayName>
    </locationLabels>
    <coverage>0.3551</coverage>
  </station>
  <station>
    <id>GHCND:US1COAD0011</id>
    <displayName>WESTMINSTER 1.8 NNE, CO US</displayName>
    <minDate>2002-02-28</minDate>
    <maxDate>2008-10-23</maxDate>
    <latitude>39.9056</latitude>
    <longitude>-105.0291</longitude>
    <elevation>1606.9</elevation>
    <locationLabels>
      <type>CNTRY</type>
      <id>FIPS:US</id>
      <displayName>United States</displayName>
    </locationLabels>
    <coverage>0.9996</coverage>
  </station>
  <station>
    <id>GHCND:US1COJF0185</id>
    <displayName>WESTMINSTER 1.9 WSW, CO US</displayName>
    <minDate>2004-06-17</minDate>
    <maxDate>2008-11-03</maxDate>
    <latitude>39.8281</latitude>
    <longitude>-105.0712</longitude>
    <elevation>1662.1</elevation>
    <locationLabels>
      <type>CNTRY</type>
      <id>FIPS:US</id>
      <displayName>United States</displayName>
    </locationLabels>
    <coverage>0.6352</coverage>
  </station>
  <station>
    <id>GHCND:USC00189435</id>
    <displayName>WESTMINSTER 2 SSE, MD US</displayName>
    <minDate>1893-01-01</minDate>
    <maxDate>1979-01-31</maxDate>
    <latitude>39.55</latitude>
    <longitude>-76.98333</longitude>
    <elevation>262.1</elevation>
    <locationLabels>
      <type>CNTRY</type>
      <id>FIPS:US</id>
      <displayName>United States</displayName>
    </locationLabels>
    <coverage>0.7356</coverage>
  </station>
  <station>
    <id>GHCND:US1COJF0155</id>
    <displayName>WESTMINSTER 2.6 NW, CO US</displayName>
    <minDate>2003-09-21</minDate>
    <maxDate>2005-04-28</maxDate>
    <latitude>39.8672</latitude>
    <longitude>-105.0661</longitude>
    <elevation>1663.9</elevation>
    <locationLabels>
      <type>CNTRY</type>
      <id>FIPS:US</id>
      <displayName>United States</displayName>
    </locationLabels>
    <coverage>0.5273</coverage>
  </station>
  <station>
    <id>GHCND:US1COJF0321</id>
    <displayName>WESTMINSTER 3.0 W, CO US</displayName>
    <minDate>2008-11-06</minDate>
    <maxDate>2012-10-11</maxDate>
    <latitude>39.8784</latitude>
    <longitude>-105.1073</longitude>
    <elevation>1658.4</elevation>
    <locationLabels>
      <type>CNTRY</type>
      <id>FIPS:US</id>
      <displayName>United States</displayName>
    </locationLabels>
    <coverage>0.1205</coverage>
  </station>
  <station>
    <id>GHCND:US1COJF0296</id>
    <displayName>WESTMINSTER 3.6 WNW, CO US</displayName>
    <minDate>2007-05-15</minDate>
    <maxDate>2012-09-25</maxDate>
    <latitude>39.892</latitude>
    <longitude>-105.1182</longitude>
    <elevation>1666</elevation>
    <locationLabels>
      <type>CNTRY</type>
      <id>FIPS:US</id>
      <displayName>United States</displayName>
    </locationLabels>
    <coverage>0.7481</coverage>
  </station>
  <station>
    <id>GHCND:US1COAD0094</id>
    <displayName>WESTMINSTER 3.9 S, CO US</displayName>
    <minDate>2005-06-24</minDate>
    <maxDate>2013-01-16</maxDate>
    <latitude>39.8261</latitude>
    <longitude>-105.0414</longitude>
    <elevation>1609</elevation>
    <locationLabels>
      <type>CNTRY</type>
      <id>FIPS:US</id>
      <displayName>United States</displayName>
    </locationLabels>
    <coverage>0.9588</coverage>
  </station>
  <station>
    <id>GHCND:US1COJF0320</id>
    <displayName>WESTMINSTER 4.1 W, CO US</displayName>
    <minDate>2008-10-24</minDate>
    <maxDate>2010-09-22</maxDate>
    <latitude>39.8877</latitude>
    <longitude>-105.128</longitude>
    <elevation>1679.4</elevation>
    <locationLabels>
      <type>CNTRY</type>
      <id>FIPS:US</id>
      <displayName>United States</displayName>
    </locationLabels>
    <coverage>0.2918</coverage>
  </station>
  <station>
    <id>GHCND:US1COAD0139</id>
    <displayName>WESTMINSTER 4.5 NNE, CO US</displayName>
    <minDate>2011-10-06</minDate>
    <maxDate>2012-11-03</maxDate>
    <latitude>39.9381</latitude>
    <longitude>-105.0103</longitude>
    <elevation>1587.1</elevation>
    <locationLabels>
      <type>CNTRY</type>
      <id>FIPS:US</id>
      <displayName>United States</displayName>
    </locationLabels>
    <coverage>0.3899</coverage>
  </station>
  <station>
    <id>GHCND:US1COJF0237</id>
    <displayName>WESTMINSTER 4.6 NW, CO US</displayName>
    <minDate>2004-10-30</minDate>
    <maxDate>2008-01-10</maxDate>
    <latitude>39.8822</latitude>
    <longitude>-105.1018</longitude>
    <elevation>1644.1</elevation>
    <locationLabels>
      <type>CNTRY</type>
      <id>FIPS:US</id>
      <displayName>United States</displayName>
    </locationLabels>
    <coverage>0.881</coverage>
  </station>
  <station>
    <id>GHCND:US1COAD0134</id>
    <displayName>WESTMINSTER 4.8 NNE, CO US</displayName>
    <minDate>2011-04-23</minDate>
    <maxDate>2012-07-25</maxDate>
    <latitude>39.9421</latitude>
    <longitude>-105.0078</longitude>
    <elevation>1586.2</elevation>
    <locationLabels>
      <type>CNTRY</type>
      <id>FIPS:US</id>
      <displayName>United States</displayName>
    </locationLabels>
    <coverage>0.4087</coverage>
  </station>
  <station>
    <id>GHCND:US1COJF0180</id>
    <displayName>WESTMINSTER 4.9 NNW, CO US</displayName>
    <minDate>2004-06-01</minDate>
    <maxDate>2013-01-14</maxDate>
    <latitude>39.906</latitude>
    <longitude>-105.0571</longitude>
    <elevation>1615.1</elevation>
    <locationLabels>
      <type>CNTRY</type>
      <id>FIPS:US</id>
      <displayName>United States</displayName>
    </locationLabels>
    <coverage>0.3314</coverage>
  </station>
  <station>
    <id>GHCND:US1COJF0176</id>
    <displayName>WESTMINSTER 5.3 NW, CO US</displayName>
    <minDate>2006-07-09</minDate>
    <maxDate>2009-09-24</maxDate>
    <latitude>39.8812</latitude>
    <longitude>-105.1219</longitude>
    <elevation>1686.2</elevation>
    <locationLabels>
      <type>CNTRY</type>
      <id>FIPS:US</id>
      <displayName>United States</displayName>
    </locationLabels>
    <coverage>0.2581</coverage>
  </station>
  <station>
    <id>GHCND:US1SCOC0005</id>
    <displayName>WESTMINSTER 9.8 SE, SC US</displayName>
    <minDate>2008-02-02</minDate>
    <maxDate>2009-03-16</maxDate>
    <latitude>34.5548</latitude>
    <longitude>-82.9848</longitude>
    <elevation>252.1</elevation>
    <locationLabels>
      <type>CNTRY</type>
      <id>FIPS:US</id>
      <displayName>United States</displayName>
    </locationLabels>
    <coverage>0.956</coverage>
  </station>
  <station>
    <id>GHCND:US1VTWH0006</id>
    <displayName>WESTMINSTER WEST 0.9 E, VT US</displayName>
    <minDate>2009-04-17</minDate>
    <maxDate>2013-01-16</maxDate>
    <latitude>43.0658</latitude>
    <longitude>-72.5232</longitude>
    <elevation>278.6</elevation>
    <locationLabels>
      <type>CNTRY</type>
      <id>FIPS:US</id>
      <displayName>United States</displayName>
    </locationLabels>
    <coverage>0.8446</coverage>
  </station>
  <station>
    <id>GHCND:USC00189440</id>
    <displayName>WESTMINSTER, MD US</displayName>
    <minDate>1979-08-01</minDate>
    <maxDate>2013-01-16</maxDate>
    <latitude>39.5736</latitude>
    <longitude>-76.9883</longitude>
    <elevation>228.6</elevation>
    <locationLabels>
      <type>CNTRY</type>
      <id>FIPS:US</id>
      <displayName>United States</displayName>
    </locationLabels>
    <coverage>0.6795</coverage>
  </station>
  <station>
    <id>GHCND:US1PACM0001</id>
    <displayName>WESTMONT 1.1 W, PA US</displayName>
    <minDate>2005-08-01</minDate>
    <maxDate>2013-01-16</maxDate>
    <latitude>40.317</latitude>
    <longitude>-78.9723</longitude>
    <elevation>584.9</elevation>
    <locationLabels>
      <type>CNTRY</type>
      <id>FIPS:US</id>
      <displayName>United States</displayName>
    </locationLabels>
    <coverage>0.9831</coverage>
  </station>
  <station>
    <id>GHCND:US1ILDP0014</id>
    <displayName>WESTMONT 1.2 SSE, IL US</displayName>
    <minDate>2007-11-01</minDate>
    <maxDate>2013-01-16</maxDate>
    <latitude>41.7811</latitude>
    <longitude>-87.9641</longitude>
    <elevation>228.9</elevation>
    <locationLabels>
      <type>CNTRY</type>
      <id>FIPS:US</id>
      <displayName>United States</displayName>
    </locationLabels>
    <coverage>0.9543</coverage>
  </station>
  <station>
    <id>GHCND:US1KSPT0008</id>
    <displayName>WESTMORELAND 2.5 SSW, KS US</displayName>
    <minDate>2008-11-01</minDate>
    <maxDate>2010-01-07</maxDate>
    <latitude>39.3597</latitude>
    <longitude>-96.428</longitude>
    <elevation>344.7</elevation>
    <locationLabels>
      <type>CNTRY</type>
      <id>FIPS:US</id>
      <displayName>United States</displayName>
    </locationLabels>
    <coverage>0.963</coverage>
  </station>
  <station>
    <id>GHCND:US1TNSR0013</id>
    <displayName>WESTMORELAND 3.8 WSW, TN US</displayName>
    <minDate>2007-06-03</minDate>
    <maxDate>2013-01-16</maxDate>
    <latitude>36.5492</latitude>
    <longitude>-86.3129</longitude>
    <elevation>264</elevation>
    <locationLabels>
      <type>CNTRY</type>
      <id>FIPS:US</id>
      <displayName>United States</displayName>
    </locationLabels>
    <coverage>0.4399</coverage>
  </station>
  <station>
    <id>GHCND:US1TNMC0003</id>
    <displayName>WESTMORELAND 3.9 E, TN US</displayName>
    <minDate>2007-07-23</minDate>
    <maxDate>2011-01-07</maxDate>
    <latitude>36.5681</latitude>
    <longitude>-86.1771</longitude>
    <elevation>284.1</elevation>
    <locationLabels>
      <type>CNTRY</type>
      <id>FIPS:US</id>
      <displayName>United States</displayName>
    </locationLabels>
    <coverage>0.4063</coverage>
  </station>
  <station>
    <id>GHCND:USC00309248</id>
    <displayName>WESTMORELAND 4 N, NY US</displayName>
    <minDate>2008-09-26</minDate>
    <maxDate>2013-01-16</maxDate>
    <latitude>43.15944</latitude>
    <longitude>-75.46111</longitude>
    <elevation>172.2</elevation>
    <locationLabels>
      <type>CNTRY</type>
      <id>FIPS:US</id>
      <displayName>United States</displayName>
    </locationLabels>
    <coverage>0.9841</coverage>
  </station>
  <station>
    <id>GHCND:US1KSPT0013</id>
    <displayName>WESTMORELAND 4.3 NNW, KS US</displayName>
    <minDate>2008-09-21</minDate>
    <maxDate>2011-10-17</maxDate>
    <latitude>39.45</latitude>
    <longitude>-96.4505</longitude>
    <elevation>418.5</elevation>
    <locationLabels>
      <type>CNTRY</type>
      <id>FIPS:US</id>
      <displayName>United States</displayName>
    </locationLabels>
    <coverage>0.6729</coverage>
  </station>
  <station>
    <id>GHCND:US1TNSR0023</id>
    <displayName>WESTMORELAND 5.2 N, TN US</displayName>
    <minDate>2007-07-22</minDate>
    <maxDate>2013-01-16</maxDate>
    <latitude>36.6396</latitude>
    <longitude>-86.2518</longitude>
    <elevation>245.1</elevation>
    <locationLabels>
      <type>CNTRY</type>
      <id>FIPS:US</id>
      <displayName>United States</displayName>
    </locationLabels>
    <coverage>0.8928</coverage>
  </station>
  <station>
    <id>GHCND:US1TNSR0032</id>
    <displayName>WESTMORELAND 5.4 NNE, TN US</displayName>
    <minDate>2007-07-01</minDate>
    <maxDate>2013-01-15</maxDate>
    <latitude>36.6368</latitude>
    <longitude>-86.2125</longitude>
    <elevation>252.1</elevation>
    <locationLabels>
      <type>CNTRY</type>
      <id>FIPS:US</id>
      <displayName>United States</displayName>
    </locationLabels>
    <coverage>0.9743</coverage>
  </station>
  <station>
    <id>GHCND:US1KSPT0012</id>
    <displayName>WESTMORELAND 5.7 SSW, KS US</displayName>
    <minDate>2008-12-01</minDate>
    <maxDate>2013-01-02</maxDate>
    <latitude>39.3144</latitude>
    <longitude>-96.4362</longitude>
    <elevation>340.8</elevation>
    <locationLabels>
      <type>CNTRY</type>
      <id>FIPS:US</id>
      <displayName>United States</displayName>
    </locationLabels>
    <coverage>0.3461</coverage>
  </station>
  <station>
    <id>GHCND:USC00148719</id>
    <displayName>WESTMORELAND, KS US</displayName>
    <minDate>1894-08-12</minDate>
    <maxDate>2011-01-19</maxDate>
    <latitude>39.3995</latitude>
    <longitude>-96.4105</longitude>
    <elevation>368.5</elevation>
    <locationLabels>
      <type>CNTRY</type>
      <id>FIPS:US</id>
      <displayName>United States</displayName>
    </locationLabels>
    <coverage>0.3275</coverage>
  </station>
  <station>
    <id>GHCND:USC00489580</id>
    <displayName>WESTON 1 E, WY US</displayName>
    <minDate>1951-04-17</minDate>
    <maxDate>2012-11-30</maxDate>
    <latitude>44.6406</latitude>
    <longitude>-105.3053</longitude>
    <elevation>1074.4</elevation>
    <locationLabels>
      <type>CNTRY</type>
      <id>FIPS:US</id>
      <displayName>United States</displayName>
    </locationLabels>
    <coverage>0.9244</coverage>
  </station>
  <station>
    <id>GHCND:USC00439477</id>
    <displayName>WESTON 1 S, VT US</displayName>
    <minDate>1940-10-01</minDate>
    <maxDate>1955-10-31</maxDate>
    <latitude>43.28333</latitude>
    <longitude>-72.78333</longitude>
    <elevation>433.1</elevation>
    <locationLabels>
      <type>CNTRY</type>
      <id>FIPS:US</id>
      <displayName>United States</displayName>
    </locationLabels>
    <coverage>0.825</coverage>
  </station>
  <station>
    <id>GHCND:USC00439476</id>
    <displayName>WESTON 1 S, VT US</displayName>
    <minDate>1948-06-01</minDate>
    <maxDate>1950-09-30</maxDate>
    <latitude>43.28333</latitude>
    <longitude>-72.78333</longitude>
    <elevation>433.1</elevation>
    <locationLabels>
      <type>CNTRY</type>
      <id>FIPS:US</id>
      <displayName>United States</displayName>
    </locationLabels>
    <coverage>0.7453</coverage>
  </station>
  <station>
    <id>GHCND:US1MAMD0005</id>
    <displayName>WESTON 1.6 W, MA US</displayName>
    <minDate>2009-06-01</minDate>
    <maxDate>2011-01-17</maxDate>
    <latitude>42.37</latitude>
    <longitude>-71.2986</longitude>
    <elevation>68.9</elevation>
    <locationLabels>
      <type>CNTRY</type>
      <id>FIPS:US</id>
      <displayName>United States</displayName>
    </locationLabels>
    <coverage>0.495</coverage>
  </station>
  <station>
    <id>GHCND:US1COLA0009</id>
    <displayName>WESTON 10.5 W, CO US</displayName>
    <minDate>2003-08-02</minDate>
    <maxDate>2009-11-13</maxDate>
    <latitude>37.1503</latitude>
    <longitude>-105.0386</longitude>
    <elevation>2417.1</elevation>
    <locationLabels>
      <type>CNTRY</type>
      <id>FIPS:US</id>
      <displayName>United States</displayName>
    </locationLabels>
    <coverage>0.6925</coverage>
  </station>
  <station>
    <id>GHCND:USC00359216</id>
    <displayName>WESTON 2 SE, OR US</displayName>
    <minDate>1893-02-01</minDate>
    <maxDate>1954-12-22</maxDate>
    <latitude>45.8</latitude>
    <longitude>-118.4</longitude>
    <elevation>641</elevation>
    <locationLabels>
      <type>CNTRY</type>
      <id>FIPS:US</id>
      <displayName>United States</displayName>
    </locationLabels>
    <coverage>0.9345</coverage>
  </station>
  <station>
    <id>GHCND:USC00259193</id>
    <displayName>WESTON 3 NW, NE US</displayName>
    <minDate>2004-03-01</minDate>
    <maxDate>2013-01-15</maxDate>
    <latitude>41.2211</latitude>
    <longitude>-96.7775</longitude>
    <elevation>406.9</elevation>
    <locationLabels>
      <type>CNTRY</type>
      <id>FIPS:US</id>
      <displayName>United States</displayName>
    </locationLabels>
    <coverage>0.9975</coverage>
  </station>
  <station>
    <id>GHCND:USC00359219</id>
    <displayName>WESTON 5 ESE, OR US</displayName>
    <minDate>1955-03-26</minDate>
    <maxDate>1982-10-31</maxDate>
    <latitude>45.8</latitude>
    <longitude>-118.33333</longitude>
    <elevation>976</elevation>
    <locationLabels>
      <type>CNTRY</type>
      <id>FIPS:US</id>
      <displayName>United States</displayName>
    </locationLabels>
    <coverage>0.9919</coverage>
  </station>
  <station>
    <id>GHCND:US1COLA0050</id>
    <displayName>WESTON 6.5 NNE, CO US</displayName>
    <minDate>2011-07-20</minDate>
    <maxDate>2012-05-24</maxDate>
    <latitude>37.2192</latitude>
    <longitude>-104.8034</longitude>
    <elevation>2273.8</elevation>
    <locationLabels>
      <type>CNTRY</type>
      <id>FIPS:US</id>
      <displayName>United States</displayName>
    </locationLabels>
    <coverage>0.3355</coverage>
  </station>
  <station>
    <id>GHCND:US1WYCM0002</id>
    <displayName>WESTON 8 ENE, WY US</displayName>
    <minDate>2005-03-01</minDate>
    <maxDate>2007-06-13</maxDate>
    <latitude>44.6914</latitude>
    <longitude>-105.1842</longitude>
    <elevation>1282.9</elevation>
    <locationLabels>
      <type>CNTRY</type>
      <id>FIPS:US</id>
      <displayName>United States</displayName>
    </locationLabels>
    <coverage>0.3521</coverage>
  </station>
  <station>
    <id>GHCND:USC00089511</id>
    <displayName>WESTON, FL US</displayName>
    <minDate>2002-03-01</minDate>
    <maxDate>2010-02-28</maxDate>
    <latitude>26.09333</latitude>
    <longitude>-80.39528</longitude>
    <elevation>3</elevation>
    <locationLabels>
      <type>CNTRY</type>
      <id>FIPS:US</id>
      <displayName>United States</displayName>
    </locationLabels>
    <coverage>0.9894</coverage>
  </station>
  <station>
    <id>GHCND:USC00109698</id>
    <displayName>WESTON, ID US</displayName>
    <minDate>1898-03-01</minDate>
    <maxDate>2010-03-31</maxDate>
    <latitude>42.0358</latitude>
    <longitude>-111.9616</longitude>
    <elevation>1451.5</elevation>
    <locationLabels>
      <type>CNTRY</type>
      <id>FIPS:US</id>
      <displayName>United States</displayName>
    </locationLabels>
    <coverage>0.1921</coverage>
  </station>
  <station>
    <id>GHCND:USC00199360</id>
    <displayName>WESTON, MA US</displayName>
    <minDate>1896-08-01</minDate>
    <maxDate>1968-06-30</maxDate>
    <latitude>42.38333</latitude>
    <longitude>-71.31667</longitude>
    <elevation>67.1</elevation>
    <locationLabels>
      <type>CNTRY</type>
      <id>FIPS:US</id>
      <displayName>United States</displayName>
    </locationLabels>
    <coverage>0.6833</coverage>
  </station>
  <station>
    <id>GHCND:USC00259190</id>
    <displayName>WESTON, NE US</displayName>
    <minDate>1895-02-01</minDate>
    <maxDate>1895-11-30</maxDate>
    <latitude>41.194171</latitude>
    <longitude>-96.742803</longitude>
    <elevation>381</elevation>
    <locationLabels>
      <type>CNTRY</type>
      <id>FIPS:US</id>
      <displayName>United States</displayName>
    </locationLabels>
    <coverage>0.901</coverage>
  </station>
  <station>
    <id>GHCND:USC00479111</id>
    <displayName>WESTON, WI US</displayName>
    <minDate>1893-01-03</minDate>
    <maxDate>1895-01-31</maxDate>
    <latitude>44.8</latitude>
    <longitude>-92.016667</longitude>
    <locationLabels>
      <type>CNTRY</type>
      <id>FIPS:US</id>
      <displayName>United States</displayName>
    </locationLabels>
    <coverage>0.5889</coverage>
  </station>
  <station>
    <id>GHCND:USC00469436</id>
    <displayName>WESTON, WV US</displayName>
    <minDate>1890-01-01</minDate>
    <maxDate>2012-03-30</maxDate>
    <latitude>39.044</latitude>
    <longitude>-80.4725</longitude>
    <elevation>311.8</elevation>
    <locationLabels>
      <type>CNTRY</type>
      <id>FIPS:US</id>
      <displayName>United States</displayName>
    </locationLabels>
    <coverage>0.8969</coverage>
  </station>
  <station>
    <id>GHCND:US1TXTN0038</id>
    <displayName>WESTOVER HILLS 1.5 SE, TX US</displayName>
    <minDate>2008-06-29</minDate>
    <maxDate>2009-11-05</maxDate>
    <latitude>32.7304</latitude>
    <longitude>-97.3927</longitude>
    <elevation>210.6</elevation>
    <locationLabels>
      <type>CNTRY</type>
      <id>FIPS:US</id>
      <displayName>United States</displayName>
    </locationLabels>
    <coverage>0.9455</coverage>
  </station>
  <station>
    <id>GHCND:USC00419632</id>
    <displayName>WESTPHALIA NEAR SOIL CONSERVATION SERVICE, TX US</displayName>
    <minDate>1941-09-01</minDate>
    <maxDate>1943-07-29</maxDate>
    <latitude>31.11667</latitude>
    <longitude>-97.13333</longitude>
    <locationLabels>
      <type>CNTRY</type>
      <id>FIPS:US</id>
      <displayName>United States</displayName>
    </locationLabels>
    <coverage>0.4075</coverage>
  </station>
  <station>
    <id>GHCND:USC00238882</id>
    <displayName>WESTPHALIA, MO US</displayName>
    <minDate>1949-04-06</minDate>
    <maxDate>1949-12-02</maxDate>
    <latitude>38.45</latitude>
    <longitude>-92</longitude>
    <elevation>182.9</elevation>
    <locationLabels>
      <type>CNTRY</type>
      <id>FIPS:US</id>
      <displayName>United States</displayName>
    </locationLabels>
    <coverage>0.7925</coverage>
  </station>
  <station>
    <id>GHCND:USC00399132</id>
    <displayName>WESTPORT 1 ESE, SD US</displayName>
    <minDate>1951-06-01</minDate>
    <maxDate>1957-09-30</maxDate>
    <latitude>45.63333</latitude>
    <longitude>-98.48333</longitude>
    <elevation>417.9</elevation>
    <locationLabels>
      <type>CNTRY</type>
      <id>FIPS:US</id>
      <displayName>United States</displayName>
    </locationLabels>
    <coverage>0.9326</coverage>
  </station>
  <station>
    <id>GHCND:USC00399136</id>
    <displayName>WESTPORT 1 N, SD US</displayName>
    <minDate>1980-08-01</minDate>
    <maxDate>2013-01-15</maxDate>
    <latitude>45.65611</latitude>
    <longitude>-98.49667</longitude>
    <elevation>404.8</elevation>
    <locationLabels>
      <type>CNTRY</type>
      <id>FIPS:US</id>
      <displayName>United States</displayName>
    </locationLabels>
    <coverage>0.2888</coverage>
  </station>
  <station>
    <id>GHCND:USC00459112</id>
    <displayName>WESTPORT 2 S, WA US</displayName>
    <minDate>1950-04-02</minDate>
    <maxDate>1951-09-28</maxDate>
    <latitude>46.87083</latitude>
    <longitude>-124.10833</longitude>
    <elevation>6.1</elevation>
    <locationLabels>
      <type>CNTRY</type>
      <id>FIPS:US</id>
      <displayName>United States</displayName>
    </locationLabels>
    <coverage>0.9596</coverage>
  </station>
  <station>
    <id>GHCND:US1CTFR0020</id>
    <displayName>WESTPORT 2.5 ENE, CT US</displayName>
    <minDate>2011-10-19</minDate>
    <maxDate>2013-01-16</maxDate>
    <latitude>41.1328</latitude>
    <longitude>-73.3003</longitude>
    <elevation>9.4</elevation>
    <locationLabels>
      <type>CNTRY</type>
      <id>FIPS:US</id>
      <displayName>United States</displayName>
    </locationLabels>
    <coverage>0.9583</coverage>
  </station>
  <station>
    <id>GHCND:US1MELN0012</id>
    <displayName>WESTPORT ISLAND 2.9 NE, ME US</displayName>
    <minDate>2009-12-09</minDate>
    <maxDate>2013-01-16</maxDate>
    <latitude>43.9701</latitude>
    <longitude>-69.6694</longitude>
    <elevation>39</elevation>
    <locationLabels>
      <type>CNTRY</type>
      <id>FIPS:US</id>
      <displayName>United States</displayName>
    </locationLabels>
    <coverage>0.548</coverage>
  </station>
  <station>
    <id>GHCND:USC00179547</id>
    <displayName>WESTPORT ISLAND, ME US</displayName>
    <minDate>2002-09-01</minDate>
    <maxDate>2013-01-16</maxDate>
    <latitude>43.888</latitude>
    <longitude>-69.7088</longitude>
    <elevation>27.4</elevation>
    <locationLabels>
      <type>CNTRY</type>
      <id>FIPS:US</id>
      <displayName>United States</displayName>
    </locationLabels>
    <coverage>0.9989</coverage>
  </station>
  <station>
    <id>GHCND:USC00158567</id>
    <displayName>WESTPORT, KY US</displayName>
    <minDate>1950-12-01</minDate>
    <maxDate>1956-03-31</maxDate>
    <latitude>38.48333</latitude>
    <longitude>-85.48333</longitude>
    <elevation>146</elevation>
    <locationLabels>
      <type>CNTRY</type>
      <id>FIPS:US</id>
      <displayName>United States</displayName>
    </locationLabels>
    <coverage>0.9964</coverage>
  </station>
  <station>
    <id>GHCND:USC00399138</id>
    <displayName>WESTPORT, SD US</displayName>
    <minDate>1990-05-01</minDate>
    <maxDate>2012-12-28</maxDate>
    <latitude>45.6766</latitude>
    <longitude>-98.5298</longitude>
    <elevation>420.6</elevation>
    <locationLabels>
      <type>CNTRY</type>
      <id>FIPS:US</id>
      <displayName>United States</displayName>
    </locationLabels>
    <coverage>0.5942</coverage>
  </station>
  <station>
    <id>GHCND:USC00369500</id>
    <displayName>WESTTOWN, PA US</displayName>
    <minDate>1893-01-01</minDate>
    <maxDate>1902-11-30</maxDate>
    <latitude>39.933333</latitude>
    <longitude>-75.55</longitude>
    <elevation>106.7</elevation>
    <locationLabels>
      <type>CNTRY</type>
      <id>FIPS:US</id>
      <displayName>United States</displayName>
    </locationLabels>
    <coverage>0.653</coverage>
  </station>
  <station>
    <id>GHCND:US1OKAD0003</id>
    <displayName>WESTVILLE 0.2 ENE, OK US</displayName>
    <minDate>2011-01-12</minDate>
    <maxDate>2013-01-16</maxDate>
    <latitude>35.9902</latitude>
    <longitude>-94.5716</longitude>
    <elevation>345</elevation>
    <locationLabels>
      <type>CNTRY</type>
      <id>FIPS:US</id>
      <displayName>United States</displayName>
    </locationLabels>
    <coverage>0.9891</coverage>
  </station>
  <station>
    <id>GHCND:US1ILVR0003</id>
    <displayName>WESTVILLE 0.4 NNW, IL US</displayName>
    <minDate>2006-12-31</minDate>
    <maxDate>2008-11-19</maxDate>
    <latitude>40.0496</latitude>
    <longitude>-87.6404</longitude>
    <elevation>207.9</elevation>
    <locationLabels>
      <type>CNTRY</type>
      <id>FIPS:US</id>
      <displayName>United States</displayName>
    </locationLabels>
    <coverage>0.5217</coverage>
  </station>
  <station>
    <id>GHCND:US1ILVR0020</id>
    <displayName>WESTVILLE 0.6 SSW, IL US</displayName>
    <minDate>2012-05-06</minDate>
    <maxDate>2013-01-16</maxDate>
    <latitude>40.0366</latitude>
    <longitude>-87.6412</longitude>
    <elevation>206</elevation>
    <locationLabels>
      <type>CNTRY</type>
      <id>FIPS:US</id>
      <displayName>United States</displayName>
    </locationLabels>
    <coverage>0.9766</coverage>
  </station>
  <station>
    <id>GHCND:US1INLP0018</id>
    <displayName>WESTVILLE 4.7 ESE, IN US</displayName>
    <minDate>2007-05-04</minDate>
    <maxDate>2013-01-16</maxDate>
    <latitude>41.5064</latitude>
    <longitude>-86.8271</longitude>
    <elevation>237.1</elevation>
    <locationLabels>
      <type>CNTRY</type>
      <id>FIPS:US</id>
      <displayName>United States</displayName>
    </locationLabels>
    <coverage>0.9458</coverage>
  </station>
  <station>
    <id>GHCND:USC00419646</id>
    <displayName>WESTWAY, TX US</displayName>
    <minDate>1947-09-01</minDate>
    <maxDate>1948-08-13</maxDate>
    <latitude>34.81667</latitude>
    <longitude>-102.56667</longitude>
    <locationLabels>
      <type>CNTRY</type>
      <id>FIPS:US</id>
      <displayName>United States</displayName>
    </locationLabels>
    <coverage>0.658</coverage>
  </station>
  <station>
    <id>GHCND:USC00419643</id>
    <displayName>WESTWAY, TX US</displayName>
    <minDate>1941-03-01</minDate>
    <maxDate>1948-08-12</maxDate>
    <latitude>34.816667</latitude>
    <longitude>-102.566667</longitude>
    <locationLabels>
      <type>CNTRY</type>
      <id>FIPS:US</id>
      <displayName>United States</displayName>
    </locationLabels>
    <coverage>0.7719</coverage>
  </station>
  <station>
    <id>GHCND:US1NJBG0005</id>
    <displayName>WESTWOOD 0.8 ESE, NJ US</displayName>
    <minDate>2008-02-21</minDate>
    <maxDate>2011-07-27</maxDate>
    <latitude>40.983</latitude>
    <longitude>-74.0159</longitude>
    <elevation>15.8</elevation>
    <locationLabels>
      <type>CNTRY</type>
      <id>FIPS:US</id>
      <displayName>United States</displayName>
    </locationLabels>
    <coverage>0.2027</coverage>
  </station>
  <station>
    <id>GHCND:USC00049600</id>
    <displayName>WESTWOOD 3 WSW, CA US</displayName>
    <minDate>1953-04-16</minDate>
    <maxDate>1957-06-30</maxDate>
    <latitude>40.3</latitude>
    <longitude>-121.05</longitude>
    <elevation>1521.9</elevation>
    <locationLabels>
      <type>CNTRY</type>
      <id>FIPS:US</id>
      <displayName>United States</displayName>
    </locationLabels>
    <coverage>1</coverage>
  </station>
  <station>
    <id>GHCND:USR0000CWES</id>
    <displayName>WESTWOOD CALIFORNIA, CA US</displayName>
    <minDate>1990-05-02</minDate>
    <maxDate>2012-08-30</maxDate>
    <latitude>40.3067</latitude>
    <longitude>-120.9</longitude>
    <elevation>1767.8</elevation>
    <locationLabels>
      <type>CNTRY</type>
      <id>FIPS:US</id>
      <displayName>United States</displayName>
    </locationLabels>
    <coverage>0.9344</coverage>
  </station>
  <station>
    <id>GHCND:USC00049599</id>
    <displayName>WESTWOOD, CA US</displayName>
    <minDate>1921-01-12</minDate>
    <maxDate>1953-04-12</maxDate>
    <latitude>40.3</latitude>
    <longitude>-121</longitude>
    <elevation>1545.9</elevation>
    <locationLabels>
      <type>CNTRY</type>
      <id>FIPS:US</id>
      <displayName>United States</displayName>
    </locationLabels>
    <coverage>0.8967</coverage>
  </station>
  <station>
    <id>GHCND:US1CTHR0006</id>
    <displayName>WETHERSFIELD 1.2 WSW, CT US</displayName>
    <minDate>2009-07-28</minDate>
    <maxDate>2013-01-16</maxDate>
    <latitude>41.6926</latitude>
    <longitude>-72.6909</longitude>
    <elevation>57.9</elevation>
    <locationLabels>
      <type>CNTRY</type>
      <id>FIPS:US</id>
      <displayName>United States</displayName>
    </locationLabels>
    <coverage>0.9393</coverage>
  </station>
  <station>
    <id>GHCND:US1COCU0007</id>
    <displayName>WETMORE 1.6 S, CO US</displayName>
    <minDate>2005-01-06</minDate>
    <maxDate>2008-11-10</maxDate>
    <latitude>38.2144</latitude>
    <longitude>-105.0883</longitude>
    <elevation>1962</elevation>
    <locationLabels>
      <type>CNTRY</type>
      <id>FIPS:US</id>
      <displayName>United States</displayName>
    </locationLabels>
    <coverage>0.9879</coverage>
  </station>
  <station>
    <id>GHCND:USC00058986</id>
    <displayName>WETMORE 2 S, CO US</displayName>
    <minDate>1947-06-11</minDate>
    <maxDate>1968-04-30</maxDate>
    <latitude>38.21667</latitude>
    <longitude>-105.1</longitude>
    <elevation>2007.1</elevation>
    <locationLabels>
      <type>CNTRY</type>
      <id>FIPS:US</id>
      <displayName>United States</displayName>
    </locationLabels>
    <coverage>0.9307</coverage>
  </station>
  <station>
    <id>GHCND:USC00058988</id>
    <displayName>WETMORE 8 SW, CO US</displayName>
    <minDate>1949-11-01</minDate>
    <maxDate>1953-06-30</maxDate>
    <latitude>38.13333</latitude>
    <longitude>-105.2</longitude>
    <elevation>2377.4</elevation>
    <locationLabels>
      <type>CNTRY</type>
      <id>FIPS:US</id>
      <displayName>United States</displayName>
    </locationLabels>
    <coverage>0.9843</coverage>
  </station>
  <station>
    <id>GHCND:USC00058990</id>
    <displayName>WETMORE 9 S, CO US</displayName>
    <minDate>1968-09-01</minDate>
    <maxDate>1976-02-29</maxDate>
    <latitude>38.13333</latitude>
    <longitude>-105.08333</longitude>
    <elevation>2244.9</elevation>
    <locationLabels>
      <type>CNTRY</type>
      <id>FIPS:US</id>
      <displayName>United States</displayName>
    </locationLabels>
    <coverage>0.7977</coverage>
  </station>
  <station>
    <id>GHCND:USC00148764</id>
    <displayName>WETMORE, KS US</displayName>
    <minDate>1975-03-01</minDate>
    <maxDate>2010-12-31</maxDate>
    <latitude>39.6341</latitude>
    <longitude>-95.8132</longitude>
    <elevation>345</elevation>
    <locationLabels>
      <type>CNTRY</type>
      <id>FIPS:US</id>
      <displayName>United States</displayName>
    </locationLabels>
    <coverage>0.3394</coverage>
  </station>
  <station>
    <id>GHCND:USC00148757</id>
    <displayName>WETMORE, KS US</displayName>
    <minDate>1939-07-01</minDate>
    <maxDate>1942-12-31</maxDate>
    <latitude>39.716667</latitude>
    <longitude>-95.783333</longitude>
    <elevation>331.9</elevation>
    <locationLabels>
      <type>CNTRY</type>
      <id>FIPS:US</id>
      <displayName>United States</displayName>
    </locationLabels>
    <coverage>0.9742</coverage>
  </station>
  <station>
    <id>GHCND:USC00208851</id>
    <displayName>WETMORE, MI US</displayName>
    <minDate>1896-09-01</minDate>
    <maxDate>1911-05-31</maxDate>
    <latitude>46.38333</latitude>
    <longitude>-86.61667</longitude>
    <elevation>267.6</elevation>
    <locationLabels>
      <type>CNTRY</type>
      <id>FIPS:US</id>
      <displayName>United States</displayName>
    </locationLabels>
    <coverage>0.924</coverage>
  </station>
  <station>
    <id>GHCND:USC00399178</id>
    <displayName>WETONKA 7 S, SD US</displayName>
    <minDate>1974-09-01</minDate>
    <maxDate>1977-05-31</maxDate>
    <latitude>45.53333</latitude>
    <longitude>-98.76667</longitude>
    <elevation>424</elevation>
    <locationLabels>
      <type>CNTRY</type>
      <id>FIPS:US</id>
      <displayName>United States</displayName>
    </locationLabels>
    <coverage>0.8088</coverage>
  </station>
  <station>
    <id>GHCND:USC00399176</id>
    <displayName>WETONKA, SD US</displayName>
    <minDate>1951-06-01</minDate>
    <maxDate>1974-10-31</maxDate>
    <latitude>45.61667</latitude>
    <longitude>-98.76667</longitude>
    <elevation>438.9</elevation>
    <locationLabels>
      <type>CNTRY</type>
      <id>FIPS:US</id>
      <displayName>United States</displayName>
    </locationLabels>
    <coverage>0.693</coverage>
  </station>
  <station>
    <id>GHCND:USC00349571</id>
    <displayName>WETUMKA 3 NE, OK US</displayName>
    <minDate>1945-01-01</minDate>
    <maxDate>2006-09-30</maxDate>
    <latitude>35.26139</latitude>
    <longitude>-96.20806</longitude>
    <elevation>213.4</elevation>
    <locationLabels>
      <type>CNTRY</type>
      <id>FIPS:US</id>
      <displayName>United States</displayName>
    </locationLabels>
    <coverage>0.9967</coverage>
  </station>
  <station>
    <id>GHCND:USC00349566</id>
    <displayName>WETUMKA SOIL CONSERVATION SERVICE, OK US</displayName>
    <minDate>1949-02-26</minDate>
    <maxDate>1950-11-30</maxDate>
    <latitude>35.23333</latitude>
    <longitude>-96.23333</longitude>
    <elevation>232</elevation>
    <locationLabels>
      <type>CNTRY</type>
      <id>FIPS:US</id>
      <displayName>United States</displayName>
    </locationLabels>
    <coverage>1</coverage>
  </station>
  <station>
    <id>GHCND:US1ALEL0010</id>
    <displayName>WETUMPKA 4.7 SSE, AL US</displayName>
    <minDate>2008-05-12</minDate>
    <maxDate>2013-01-16</maxDate>
    <latitude>32.4785</latitude>
    <longitude>-86.1786</longitude>
    <elevation>91.4</elevation>
    <locationLabels>
      <type>CNTRY</type>
      <id>FIPS:US</id>
      <displayName>United States</displayName>
    </locationLabels>
    <coverage>0.9363</coverage>
  </station>
  <station>
    <id>GHCND:US1ALEL0007</id>
    <displayName>WETUMPKA 5.0 SE, AL US</displayName>
    <minDate>2007-11-27</minDate>
    <maxDate>2009-05-08</maxDate>
    <latitude>32.4895</latitude>
    <longitude>-86.1468</longitude>
    <elevation>149</elevation>
    <locationLabels>
      <type>CNTRY</type>
      <id>FIPS:US</id>
      <displayName>United States</displayName>
    </locationLabels>
    <coverage>0.603</coverage>
  </station>
  <station>
    <id>GHCND:US1ALEL0022</id>
    <displayName>WETUMPKA 5.4 WNW, AL US</displayName>
    <minDate>2009-12-02</minDate>
    <maxDate>2013-01-16</maxDate>
    <latitude>32.5741</latitude>
    <longitude>-86.2877</longitude>
    <elevation>58.8</elevation>
    <locationLabels>
      <type>CNTRY</type>
      <id>FIPS:US</id>
      <displayName>United States</displayName>
    </locationLabels>
    <coverage>0.9851</coverage>
  </station>
  <station>
    <id>GHCND:US1ALEL0012</id>
    <displayName>WETUMPKA 7.2 NE, AL US</displayName>
    <minDate>2008-05-01</minDate>
    <maxDate>2012-05-22</maxDate>
    <latitude>32.6267</latitude>
    <longitude>-86.1276</longitude>
    <elevation>145.7</elevation>
    <locationLabels>
      <type>CNTRY</type>
      <id>FIPS:US</id>
      <displayName>United States</displayName>
    </locationLabels>
    <coverage>0.1578</coverage>
  </station>
  <station>
    <id>GHCND:USC00018862</id>
    <displayName>WETUMPKA 8 SE, AL US</displayName>
    <minDate>1999-01-01</minDate>
    <maxDate>2003-05-31</maxDate>
    <latitude>32.44639</latitude>
    <longitude>-86.14167</longitude>
    <elevation>53.3</elevation>
    <locationLabels>
      <type>CNTRY</type>
      <id>FIPS:US</id>
      <displayName>United States</displayName>
    </locationLabels>
    <coverage>0.9857</coverage>
  </station>
  <station>
    <id>GHCND:US1ALEL0018</id>
    <displayName>WETUMPKA 9.9 NNE, AL US</displayName>
    <minDate>2008-05-26</minDate>
    <maxDate>2013-01-16</maxDate>
    <latitude>32.6784</latitude>
    <longitude>-86.1402</longitude>
    <elevation>171.6</elevation>
    <locationLabels>
      <type>CNTRY</type>
      <id>FIPS:US</id>
      <displayName>United States</displayName>
    </locationLabels>
    <coverage>0.9894</coverage>
  </station>
  <station>
    <id>GHCND:USC00018859</id>
    <displayName>WETUMPKA, AL US</displayName>
    <minDate>1893-01-01</minDate>
    <maxDate>2011-07-14</maxDate>
    <latitude>32.59056</latitude>
    <longitude>-86.21028</longitude>
    <elevation>78.3</elevation>
    <locationLabels>
      <type>CNTRY</type>
      <id>FIPS:US</id>
      <displayName>United States</displayName>
    </locationLabels>
    <coverage>0.9549</coverage>
  </station>
  <station>
    <id>GHCND:US1FLGF0002</id>
    <displayName>WEWAHITCHKA 1.6 SW, FL US</displayName>
    <minDate>2008-04-19</minDate>
    <maxDate>2012-02-16</maxDate>
    <latitude>30.0989</latitude>
    <longitude>-85.2171</longitude>
    <elevation>10.1</elevation>
    <locationLabels>
      <type>CNTRY</type>
      <id>FIPS:US</id>
      <displayName>United States</displayName>
    </locationLabels>
    <coverage>0.9385</coverage>
  </station>
  <station>
    <id>GHCND:USC00089566</id>
    <displayName>WEWAHITCHKA, FL US</displayName>
    <minDate>1901-03-01</minDate>
    <maxDate>2013-01-16</maxDate>
    <latitude>30.1191</latitude>
    <longitude>-85.2041</longitude>
    <elevation>12.8</elevation>
    <locationLabels>
      <type>CNTRY</type>
      <id>FIPS:US</id>
      <displayName>United States</displayName>
    </locationLabels>
    <coverage>0.5129</coverage>
  </station>
  <station>
    <id>GHCND:USC00399187</id>
    <displayName>WEWELA, SD US</displayName>
    <minDate>1951-08-01</minDate>
    <maxDate>1977-10-31</maxDate>
    <latitude>43.01667</latitude>
    <longitude>-99.78333</longitude>
    <elevation>659</elevation>
    <locationLabels>
      <type>CNTRY</type>
      <id>FIPS:US</id>
      <displayName>United States</displayName>
    </locationLabels>
    <coverage>0.9719</coverage>
  </station>
  <station>
    <id>GHCND:USC00349575</id>
    <displayName>WEWOKA 3 SW, OK US</displayName>
    <minDate>1937-04-01</minDate>
    <maxDate>2012-11-30</maxDate>
    <latitude>35.1313</latitude>
    <longitude>-96.5389</longitude>
    <elevation>280.4</elevation>
    <locationLabels>
      <type>CNTRY</type>
      <id>FIPS:US</id>
      <displayName>United States</displayName>
    </locationLabels>
    <coverage>0.9227</coverage>
  </station>
  <station>
    <id>GHCND:USC00169661</id>
    <displayName>WEYANOKE 2 SW, LA US</displayName>
    <minDate>1944-08-08</minDate>
    <maxDate>1951-09-30</maxDate>
    <latitude>30.91667</latitude>
    <longitude>-91.46667</longitude>
    <elevation>73.2</elevation>
    <locationLabels>
      <type>CNTRY</type>
      <id>FIPS:US</id>
      <displayName>United States</displayName>
    </locationLabels>
    <coverage>0.382</coverage>
  </station>
  <station>
    <id>GHCND:US1WIWP0001</id>
    <displayName>WEYAUWEGA 0.1 S, WI US</displayName>
    <minDate>2007-06-09</minDate>
    <maxDate>2013-01-16</maxDate>
    <latitude>44.3213</latitude>
    <longitude>-88.9286</longitude>
    <elevation>245.1</elevation>
    <locationLabels>
      <type>CNTRY</type>
      <id>FIPS:US</id>
      <displayName>United States</displayName>
    </locationLabels>
    <coverage>0.9863</coverage>
  </station>
  <station>
    <id>GHCND:USC00479144</id>
    <displayName>WEYERHAEUSER 1 N, WI US</displayName>
    <minDate>1906-10-01</minDate>
    <maxDate>2008-02-08</maxDate>
    <latitude>45.4426</latitude>
    <longitude>-91.4181</longitude>
    <elevation>364.2</elevation>
    <locationLabels>
      <type>CNTRY</type>
      <id>FIPS:US</id>
      <displayName>United States</displayName>
    </locationLabels>
    <coverage>0.9287</coverage>
  </station>
  <station>
    <id>GHCND:USC00479145</id>
    <displayName>WEYERHAEUSER 2, WI US</displayName>
    <minDate>2011-07-18</minDate>
    <maxDate>2012-11-30</maxDate>
    <latitude>45.4283</latitude>
    <longitude>-91.4204</longitude>
    <elevation>361.2</elevation>
    <locationLabels>
      <type>CNTRY</type>
      <id>FIPS:US</id>
      <displayName>United States</displayName>
    </locationLabels>
    <coverage>0.988</coverage>
  </station>
  <station>
    <id>GHCND:US1MANF0005</id>
    <displayName>WEYMOUTH 0.5 NW, MA US</displayName>
    <minDate>2010-07-10</minDate>
    <maxDate>2013-01-16</maxDate>
    <latitude>42.2115</latitude>
    <longitude>-70.9506</longitude>
    <elevation>30.2</elevation>
    <locationLabels>
      <type>CNTRY</type>
      <id>FIPS:US</id>
      <displayName>United States</displayName>
    </locationLabels>
    <coverage>0.9859</coverage>
  </station>
  <station>
    <id>GHCND:US1MNFM0005</id>
    <displayName>WHALAN 3.3 SSE, MN US</displayName>
    <minDate>2011-03-21</minDate>
    <maxDate>2012-11-17</maxDate>
    <latitude>43.6886</latitude>
    <longitude>-91.9037</longitude>
    <elevation>295</elevation>
    <locationLabels>
      <type>CNTRY</type>
      <id>FIPS:US</id>
      <displayName>United States</displayName>
    </locationLabels>
    <coverage>0.6234</coverage>
  </station>
  <station>
    <id>GHCND:USC00509782</id>
    <displayName>WHALE ISLAND, US</displayName>
    <minDate>1923-09-01</minDate>
    <maxDate>1939-02-28</maxDate>
    <latitude>57.96667</latitude>
    <longitude>-152.76667</longitude>
    <locationLabels>
      <type>CNTRY</type>
      <id>FIPS:US</id>
      <displayName>United States</displayName>
    </locationLabels>
    <coverage>0.9549</coverage>
  </station>
</stationCollection>
