<?xml version="1.0" encoding="UTF-8" standalone="yes"?>
<stationCollection totalCount="46020" pageCount="461" pageSize="100" page="286">
  <station>
    <id>GHCND:USC00335535</id>
    <displayName>MOUNT GILEAD LAKES P, OH US</displayName>
    <minDate>1952-05-25</minDate>
    <maxDate>1995-12-31</maxDate>
    <latitude>40.55</latitude>
    <longitude>-82.81667</longitude>
    <elevation>332.2</elevation>
    <locationLabels>
      <type>CNTRY</type>
      <id>FIPS:US</id>
      <displayName>United States</displayName>
    </locationLabels>
    <coverage>0.9399</coverage>
  </station>
  <station>
    <id>GHCND:USC00366028</id>
    <displayName>MOUNT GRETNA 2 SE, PA US</displayName>
    <minDate>1951-06-01</minDate>
    <maxDate>1972-01-31</maxDate>
    <latitude>40.23333</latitude>
    <longitude>-76.43333</longitude>
    <elevation>203.9</elevation>
    <locationLabels>
      <type>CNTRY</type>
      <id>FIPS:US</id>
      <displayName>United States</displayName>
    </locationLabels>
    <coverage>0.9747</coverage>
  </station>
  <station>
    <id>GHCND:USC00045933</id>
    <displayName>MOUNT HAMILTON, CA US</displayName>
    <minDate>1948-07-01</minDate>
    <maxDate>2013-01-13</maxDate>
    <latitude>37.3436</latitude>
    <longitude>-121.6425</longitude>
    <elevation>1282</elevation>
    <locationLabels>
      <type>CNTRY</type>
      <id>FIPS:US</id>
      <displayName>United States</displayName>
    </locationLabels>
    <coverage>0.9731</coverage>
  </station>
  <station>
    <id>GHCND:USC00335543</id>
    <displayName>MOUNT HEALTHY EXPERIMENTAL FA, OH US</displayName>
    <minDate>1914-03-01</minDate>
    <maxDate>1955-11-30</maxDate>
    <latitude>39.28333</latitude>
    <longitude>-84.56667</longitude>
    <elevation>259.1</elevation>
    <locationLabels>
      <type>CNTRY</type>
      <id>FIPS:US</id>
      <displayName>United States</displayName>
    </locationLabels>
    <coverage>0.9863</coverage>
  </station>
  <station>
    <id>GHCND:USC00045940</id>
    <displayName>MOUNT HEBRON 11 ESE, CA US</displayName>
    <minDate>1952-05-01</minDate>
    <maxDate>1960-12-31</maxDate>
    <latitude>41.73333</latitude>
    <longitude>-121.8</longitude>
    <elevation>1335.9</elevation>
    <locationLabels>
      <type>CNTRY</type>
      <id>FIPS:US</id>
      <displayName>United States</displayName>
    </locationLabels>
    <coverage>0.8986</coverage>
  </station>
  <station>
    <id>GHCND:USC00045941</id>
    <displayName>MOUNT HEBRON RNG STATION, CA US</displayName>
    <minDate>1907-01-01</minDate>
    <maxDate>2013-01-13</maxDate>
    <latitude>41.7836</latitude>
    <longitude>-122.0447</longitude>
    <elevation>1295.4</elevation>
    <locationLabels>
      <type>CNTRY</type>
      <id>FIPS:US</id>
      <displayName>United States</displayName>
    </locationLabels>
    <coverage>0.6044</coverage>
  </station>
  <station>
    <id>GHCND:USC00166466</id>
    <displayName>MOUNT HERMON 2 W, LA US</displayName>
    <minDate>1995-03-01</minDate>
    <maxDate>2013-01-15</maxDate>
    <latitude>30.9502</latitude>
    <longitude>-90.3061</longitude>
    <elevation>97.5</elevation>
    <locationLabels>
      <type>CNTRY</type>
      <id>FIPS:US</id>
      <displayName>United States</displayName>
    </locationLabels>
    <coverage>0.9732</coverage>
  </station>
  <station>
    <id>GHCND:USC00155613</id>
    <displayName>MOUNT HERMON, KY US</displayName>
    <minDate>1897-05-26</minDate>
    <maxDate>1900-09-30</maxDate>
    <latitude>36.81667</latitude>
    <longitude>-85.83333</longitude>
    <elevation>152.4</elevation>
    <locationLabels>
      <type>CNTRY</type>
      <id>FIPS:US</id>
      <displayName>United States</displayName>
    </locationLabels>
    <coverage>1</coverage>
  </station>
  <station>
    <id>GHCND:USC00315913</id>
    <displayName>MOUNT HOLLY 4 NE, NC US</displayName>
    <minDate>1892-10-01</minDate>
    <maxDate>2013-01-16</maxDate>
    <latitude>35.3336</latitude>
    <longitude>-80.9872</longitude>
    <elevation>185.9</elevation>
    <locationLabels>
      <type>CNTRY</type>
      <id>FIPS:US</id>
      <displayName>United States</displayName>
    </locationLabels>
    <coverage>0.7249</coverage>
  </station>
  <station>
    <id>GHCND:US1NCMK0015</id>
    <displayName>MOUNT HOLLY 4.4 ENE, NC US</displayName>
    <minDate>2008-09-10</minDate>
    <maxDate>2013-01-16</maxDate>
    <latitude>35.3302</latitude>
    <longitude>-80.96</longitude>
    <elevation>222.2</elevation>
    <locationLabels>
      <type>CNTRY</type>
      <id>FIPS:US</id>
      <displayName>United States</displayName>
    </locationLabels>
    <coverage>0.9572</coverage>
  </station>
  <station>
    <id>GHCND:USW00093780</id>
    <displayName>MOUNT HOLLY SOUTH JERSEY REGIONAL AIRPORT, NJ US</displayName>
    <minDate>1997-12-01</minDate>
    <maxDate>2013-01-14</maxDate>
    <latitude>39.94917</latitude>
    <longitude>-74.84167</longitude>
    <elevation>16.2</elevation>
    <locationLabels>
      <type>CNTRY</type>
      <id>FIPS:US</id>
      <displayName>United States</displayName>
    </locationLabels>
    <coverage>0.968</coverage>
  </station>
  <station>
    <id>GHCND:USC00285055</id>
    <displayName>MOUNT HOLLY, NJ US</displayName>
    <minDate>1922-07-01</minDate>
    <maxDate>2005-07-29</maxDate>
    <latitude>39.9883</latitude>
    <longitude>-74.8047</longitude>
    <elevation>3</elevation>
    <locationLabels>
      <type>CNTRY</type>
      <id>FIPS:US</id>
      <displayName>United States</displayName>
    </locationLabels>
    <coverage>0.0527</coverage>
  </station>
  <station>
    <id>GHCND:USS0021D08S</id>
    <displayName>MOUNT HOOD TEST SITE, OR US</displayName>
    <minDate>1980-10-01</minDate>
    <maxDate>2013-01-13</maxDate>
    <latitude>45.3333</latitude>
    <longitude>-121.7167</longitude>
    <elevation>1645.9</elevation>
    <locationLabels>
      <type>CNTRY</type>
      <id>FIPS:US</id>
      <displayName>United States</displayName>
    </locationLabels>
    <coverage>0.9501</coverage>
  </station>
  <station>
    <id>GHCND:USC00145539</id>
    <displayName>MOUNT HOPE, KS US</displayName>
    <minDate>1893-03-01</minDate>
    <maxDate>2013-01-11</maxDate>
    <latitude>37.8658</latitude>
    <longitude>-97.6648</longitude>
    <elevation>438.9</elevation>
    <locationLabels>
      <type>CNTRY</type>
      <id>FIPS:US</id>
      <displayName>United States</displayName>
    </locationLabels>
    <coverage>0.9789</coverage>
  </station>
  <station>
    <id>GHCND:USC00305540</id>
    <displayName>MOUNT HOPE, NY US</displayName>
    <minDate>1896-11-01</minDate>
    <maxDate>1929-07-31</maxDate>
    <latitude>40.983333</latitude>
    <longitude>-73.866667</longitude>
    <elevation>243.8</elevation>
    <locationLabels>
      <type>CNTRY</type>
      <id>FIPS:US</id>
      <displayName>United States</displayName>
    </locationLabels>
    <coverage>0.9801</coverage>
  </station>
  <station>
    <id>GHCND:USC00475677</id>
    <displayName>MOUNT HOREB 1 WSW, WI US</displayName>
    <minDate>1904-01-01</minDate>
    <maxDate>1962-01-31</maxDate>
    <latitude>43</latitude>
    <longitude>-89.76667</longitude>
    <elevation>371.9</elevation>
    <locationLabels>
      <type>CNTRY</type>
      <id>FIPS:US</id>
      <displayName>United States</displayName>
    </locationLabels>
    <coverage>0.4313</coverage>
  </station>
  <station>
    <id>GHCND:US1WIDA0010</id>
    <displayName>MOUNT HOREB 3.6 SSW, WI US</displayName>
    <minDate>2008-04-12</minDate>
    <maxDate>2012-11-01</maxDate>
    <latitude>42.9616</latitude>
    <longitude>-89.7642</longitude>
    <elevation>354.2</elevation>
    <locationLabels>
      <type>CNTRY</type>
      <id>FIPS:US</id>
      <displayName>United States</displayName>
    </locationLabels>
    <coverage>0.6378</coverage>
  </station>
  <station>
    <id>GHCND:USC00475674</id>
    <displayName>MOUNT HOREB, WI US</displayName>
    <minDate>2007-02-01</minDate>
    <maxDate>2013-01-15</maxDate>
    <latitude>42.988</latitude>
    <longitude>-89.7419</longitude>
    <elevation>314.2</elevation>
    <locationLabels>
      <type>CNTRY</type>
      <id>FIPS:US</id>
      <displayName>United States</displayName>
    </locationLabels>
    <coverage>0.9959</coverage>
  </station>
  <station>
    <id>GHCND:USS0017D18S</id>
    <displayName>MOUNT HOWARD, OR US</displayName>
    <minDate>1980-10-01</minDate>
    <maxDate>2013-01-13</maxDate>
    <latitude>45.2667</latitude>
    <longitude>-117.1667</longitude>
    <elevation>2411</elevation>
    <locationLabels>
      <type>CNTRY</type>
      <id>FIPS:US</id>
      <displayName>United States</displayName>
    </locationLabels>
    <coverage>0.9197</coverage>
  </station>
  <station>
    <id>GHCND:US1ARMT0005</id>
    <displayName>MOUNT IDA 1.1 NNE, AR US</displayName>
    <minDate>2012-05-16</minDate>
    <maxDate>2012-11-08</maxDate>
    <latitude>34.5664</latitude>
    <longitude>-93.6225</longitude>
    <elevation>198.1</elevation>
    <locationLabels>
      <type>CNTRY</type>
      <id>FIPS:US</id>
      <displayName>United States</displayName>
    </locationLabels>
    <coverage>0.9661</coverage>
  </station>
  <station>
    <id>GHCND:US1ARMT0003</id>
    <displayName>MOUNT IDA 2.8 WSW, AR US</displayName>
    <minDate>2010-12-31</minDate>
    <maxDate>2013-01-16</maxDate>
    <latitude>34.5352</latitude>
    <longitude>-93.6753</longitude>
    <elevation>223.4</elevation>
    <locationLabels>
      <type>CNTRY</type>
      <id>FIPS:US</id>
      <displayName>United States</displayName>
    </locationLabels>
    <coverage>0.8075</coverage>
  </station>
  <station>
    <id>GHCND:USC00034989</id>
    <displayName>MOUNT IDA 5 SE, AR US</displayName>
    <minDate>2011-01-01</minDate>
    <maxDate>2013-01-16</maxDate>
    <latitude>34.5335</latitude>
    <longitude>-93.5391</longitude>
    <elevation>201.2</elevation>
    <locationLabels>
      <type>CNTRY</type>
      <id>FIPS:US</id>
      <displayName>United States</displayName>
    </locationLabels>
    <coverage>0.9545</coverage>
  </station>
  <station>
    <id>GHCND:USW00053921</id>
    <displayName>MOUNT IDA ASOS, AR US</displayName>
    <minDate>1999-03-01</minDate>
    <maxDate>2013-01-14</maxDate>
    <latitude>34.5467</latitude>
    <longitude>-93.57806</longitude>
    <elevation>214</elevation>
    <locationLabels>
      <type>CNTRY</type>
      <id>FIPS:US</id>
      <displayName>United States</displayName>
    </locationLabels>
    <coverage>0.9783</coverage>
  </station>
  <station>
    <id>GHCND:USC00034988</id>
    <displayName>MOUNT IDA, AR US</displayName>
    <minDate>1872-02-01</minDate>
    <maxDate>2010-01-31</maxDate>
    <latitude>34.5408</latitude>
    <longitude>-93.5878</longitude>
    <elevation>212.4</elevation>
    <locationLabels>
      <type>CNTRY</type>
      <id>FIPS:US</id>
      <displayName>United States</displayName>
    </locationLabels>
    <coverage>0.7646</coverage>
  </station>
  <station>
    <id>GHCND:USC00215677</id>
    <displayName>MOUNT IRON, MN US</displayName>
    <minDate>1895-06-01</minDate>
    <maxDate>1910-08-31</maxDate>
    <latitude>47.533333</latitude>
    <longitude>-92.6</longitude>
    <elevation>460.2</elevation>
    <locationLabels>
      <type>CNTRY</type>
      <id>FIPS:US</id>
      <displayName>United States</displayName>
    </locationLabels>
    <coverage>0.9878</coverage>
  </station>
  <station>
    <id>GHCND:USR0000NMTI</id>
    <displayName>MOUNT ISLAND LAKE NORTH CAROLINA, NC US</displayName>
    <minDate>2003-01-06</minDate>
    <maxDate>2012-08-31</maxDate>
    <latitude>35.3789</latitude>
    <longitude>-80.9925</longitude>
    <elevation>152.4</elevation>
    <locationLabels>
      <type>CNTRY</type>
      <id>FIPS:US</id>
      <displayName>United States</displayName>
    </locationLabels>
    <coverage>0.8883</coverage>
  </station>
  <station>
    <id>GHCND:USC00445822</id>
    <displayName>MOUNT JACKSON, VA US</displayName>
    <minDate>1946-01-01</minDate>
    <maxDate>1951-09-30</maxDate>
    <latitude>38.83333</latitude>
    <longitude>-78.65</longitude>
    <elevation>320</elevation>
    <locationLabels>
      <type>CNTRY</type>
      <id>FIPS:US</id>
      <displayName>United States</displayName>
    </locationLabels>
    <coverage>0.9891</coverage>
  </station>
  <station>
    <id>GHCND:US1TNWN0045</id>
    <displayName>MOUNT JULIET 0.4 NW, TN US</displayName>
    <minDate>2007-08-25</minDate>
    <maxDate>2012-11-01</maxDate>
    <latitude>36.2099</latitude>
    <longitude>-86.527</longitude>
    <elevation>177.1</elevation>
    <locationLabels>
      <type>CNTRY</type>
      <id>FIPS:US</id>
      <displayName>United States</displayName>
    </locationLabels>
    <coverage>0.5775</coverage>
  </station>
  <station>
    <id>GHCND:US1TNWN0013</id>
    <displayName>MOUNT JULIET 1.0 W, TN US</displayName>
    <minDate>2007-04-01</minDate>
    <maxDate>2010-11-06</maxDate>
    <latitude>36.2052</latitude>
    <longitude>-86.5408</longitude>
    <elevation>153.6</elevation>
    <locationLabels>
      <type>CNTRY</type>
      <id>FIPS:US</id>
      <displayName>United States</displayName>
    </locationLabels>
    <coverage>0.9992</coverage>
  </station>
  <station>
    <id>GHCND:US1TNWN0055</id>
    <displayName>MOUNT JULIET 1.1 E, TN US</displayName>
    <minDate>2008-01-01</minDate>
    <maxDate>2011-08-03</maxDate>
    <latitude>36.2049</latitude>
    <longitude>-86.5021</longitude>
    <elevation>160</elevation>
    <locationLabels>
      <type>CNTRY</type>
      <id>FIPS:US</id>
      <displayName>United States</displayName>
    </locationLabels>
    <coverage>0.9825</coverage>
  </station>
  <station>
    <id>GHCND:US1TNWN0041</id>
    <displayName>MOUNT JULIET 2.0 ENE, TN US</displayName>
    <minDate>2007-07-13</minDate>
    <maxDate>2011-01-10</maxDate>
    <latitude>36.2213</latitude>
    <longitude>-86.4924</longitude>
    <elevation>170.1</elevation>
    <locationLabels>
      <type>CNTRY</type>
      <id>FIPS:US</id>
      <displayName>United States</displayName>
    </locationLabels>
    <coverage>0.6369</coverage>
  </station>
  <station>
    <id>GHCND:US1TNWN0042</id>
    <displayName>MOUNT JULIET 2.9 WSW, TN US</displayName>
    <minDate>2007-07-13</minDate>
    <maxDate>2013-01-14</maxDate>
    <latitude>36.1897</latitude>
    <longitude>-86.5713</longitude>
    <elevation>146</elevation>
    <locationLabels>
      <type>CNTRY</type>
      <id>FIPS:US</id>
      <displayName>United States</displayName>
    </locationLabels>
    <coverage>0.9737</coverage>
  </station>
  <station>
    <id>GHCND:US1TNWN0026</id>
    <displayName>MOUNT JULIET 3.2 E, TN US</displayName>
    <minDate>2007-07-07</minDate>
    <maxDate>2012-09-29</maxDate>
    <latitude>36.213</latitude>
    <longitude>-86.4653</longitude>
    <elevation>185</elevation>
    <locationLabels>
      <type>CNTRY</type>
      <id>FIPS:US</id>
      <displayName>United States</displayName>
    </locationLabels>
    <coverage>0.4843</coverage>
  </station>
  <station>
    <id>GHCND:US1TNWN0009</id>
    <displayName>MOUNT JULIET 3.5 NE, TN US</displayName>
    <minDate>2007-09-15</minDate>
    <maxDate>2009-02-27</maxDate>
    <latitude>36.2422</latitude>
    <longitude>-86.4779</longitude>
    <elevation>173.1</elevation>
    <locationLabels>
      <type>CNTRY</type>
      <id>FIPS:US</id>
      <displayName>United States</displayName>
    </locationLabels>
    <coverage>0.8214</coverage>
  </station>
  <station>
    <id>GHCND:US1TNWN0007</id>
    <displayName>MOUNT JULIET 4.2 NNE, TN US</displayName>
    <minDate>2010-01-19</minDate>
    <maxDate>2012-07-20</maxDate>
    <latitude>36.2641</latitude>
    <longitude>-86.5003</longitude>
    <elevation>143</elevation>
    <locationLabels>
      <type>CNTRY</type>
      <id>FIPS:US</id>
      <displayName>United States</displayName>
    </locationLabels>
    <coverage>0.9103</coverage>
  </station>
  <station>
    <id>GHCND:US1TNWN0004</id>
    <displayName>MOUNT JULIET 4.6 NNE, TN US</displayName>
    <minDate>2007-04-26</minDate>
    <maxDate>2009-10-27</maxDate>
    <latitude>36.2703</latitude>
    <longitude>-86.4982</longitude>
    <elevation>146.9</elevation>
    <locationLabels>
      <type>CNTRY</type>
      <id>FIPS:US</id>
      <displayName>United States</displayName>
    </locationLabels>
    <coverage>0.75</coverage>
  </station>
  <station>
    <id>GHCND:US1TNWN0002</id>
    <displayName>MOUNT JULIET 5.1 NNW, TN US</displayName>
    <minDate>2007-04-01</minDate>
    <maxDate>2010-12-22</maxDate>
    <latitude>36.276</latitude>
    <longitude>-86.5518</longitude>
    <elevation>166.1</elevation>
    <locationLabels>
      <type>CNTRY</type>
      <id>FIPS:US</id>
      <displayName>United States</displayName>
    </locationLabels>
    <coverage>0.3965</coverage>
  </station>
  <station>
    <id>GHCND:US1TNDV0079</id>
    <displayName>MOUNT JULIET 5.2 SSW, TN US</displayName>
    <minDate>2007-07-02</minDate>
    <maxDate>2013-01-16</maxDate>
    <latitude>36.1388</latitude>
    <longitude>-86.5657</longitude>
    <elevation>158.5</elevation>
    <locationLabels>
      <type>CNTRY</type>
      <id>FIPS:US</id>
      <displayName>United States</displayName>
    </locationLabels>
    <coverage>0.9901</coverage>
  </station>
  <station>
    <id>GHCND:US1TNWN0030</id>
    <displayName>MOUNT JULIET 5.8 S, TN US</displayName>
    <minDate>2007-08-07</minDate>
    <maxDate>2009-03-27</maxDate>
    <latitude>36.1221</latitude>
    <longitude>-86.5211</longitude>
    <elevation>173.1</elevation>
    <locationLabels>
      <type>CNTRY</type>
      <id>FIPS:US</id>
      <displayName>United States</displayName>
    </locationLabels>
    <coverage>0.3072</coverage>
  </station>
  <station>
    <id>GHCND:US1TNWN0024</id>
    <displayName>MOUNT JULIET 6.0 NE, TN US</displayName>
    <minDate>2007-07-07</minDate>
    <maxDate>2009-02-12</maxDate>
    <latitude>36.2769</latitude>
    <longitude>-86.4584</longitude>
    <elevation>145.1</elevation>
    <locationLabels>
      <type>CNTRY</type>
      <id>FIPS:US</id>
      <displayName>United States</displayName>
    </locationLabels>
    <coverage>0.4072</coverage>
  </station>
  <station>
    <id>GHCND:US1TNDV0076</id>
    <displayName>MOUNT JULIET 6.1 SSW, TN US</displayName>
    <minDate>2007-07-11</minDate>
    <maxDate>2013-01-14</maxDate>
    <latitude>36.1196</latitude>
    <longitude>-86.5461</longitude>
    <elevation>174</elevation>
    <locationLabels>
      <type>CNTRY</type>
      <id>FIPS:US</id>
      <displayName>United States</displayName>
    </locationLabels>
    <coverage>0.9945</coverage>
  </station>
  <station>
    <id>GHCND:US1TNWN0001</id>
    <displayName>MOUNT JULIET 6.4 S, TN US</displayName>
    <minDate>2007-04-01</minDate>
    <maxDate>2008-09-02</maxDate>
    <latitude>36.1139</latitude>
    <longitude>-86.5074</longitude>
    <elevation>181.1</elevation>
    <locationLabels>
      <type>CNTRY</type>
      <id>FIPS:US</id>
      <displayName>United States</displayName>
    </locationLabels>
    <coverage>1</coverage>
  </station>
  <station>
    <id>GHCND:US1TNWN0053</id>
    <displayName>MOUNT JULIET 8.0 NNE, TN US</displayName>
    <minDate>1998-06-17</minDate>
    <maxDate>2011-09-16</maxDate>
    <latitude>36.3044</latitude>
    <longitude>-86.4462</longitude>
    <elevation>150</elevation>
    <locationLabels>
      <type>CNTRY</type>
      <id>FIPS:US</id>
      <displayName>United States</displayName>
    </locationLabels>
    <coverage>0.0622</coverage>
  </station>
  <station>
    <id>GHCND:US1TNWN0075</id>
    <displayName>MOUNT JULIET 8.2 E, TN US</displayName>
    <minDate>2010-12-12</minDate>
    <maxDate>2012-07-17</maxDate>
    <latitude>36.1901</latitude>
    <longitude>-86.3771</longitude>
    <elevation>201.2</elevation>
    <locationLabels>
      <type>CNTRY</type>
      <id>FIPS:US</id>
      <displayName>United States</displayName>
    </locationLabels>
    <coverage>0.3151</coverage>
  </station>
  <station>
    <id>GHCND:USW00023178</id>
    <displayName>MOUNT LAGUNA CAA AIRPORT, CA US</displayName>
    <minDate>1948-07-01</minDate>
    <maxDate>1949-11-20</maxDate>
    <latitude>32.86667</latitude>
    <longitude>-116.41667</longitude>
    <elevation>1893.1</elevation>
    <locationLabels>
      <type>CNTRY</type>
      <id>FIPS:US</id>
      <displayName>United States</displayName>
    </locationLabels>
    <coverage>1</coverage>
  </station>
  <station>
    <id>GHCND:USR0000CLAG</id>
    <displayName>MOUNT LAGUNA CALIFORNIA, CA US</displayName>
    <minDate>1996-02-15</minDate>
    <maxDate>2012-08-30</maxDate>
    <latitude>32.8797</latitude>
    <longitude>-116.4203</longitude>
    <elevation>1755.6</elevation>
    <locationLabels>
      <type>CNTRY</type>
      <id>FIPS:US</id>
      <displayName>United States</displayName>
    </locationLabels>
    <coverage>0.9333</coverage>
  </station>
  <station>
    <id>GHCND:USC00045968</id>
    <displayName>MOUNT LAGUNA NUMBER 3, CA US</displayName>
    <minDate>2003-11-01</minDate>
    <maxDate>2013-01-15</maxDate>
    <latitude>32.8672</latitude>
    <longitude>-116.4194</longitude>
    <elevation>1804.4</elevation>
    <locationLabels>
      <type>CNTRY</type>
      <id>FIPS:US</id>
      <displayName>United States</displayName>
    </locationLabels>
    <coverage>0.8585</coverage>
  </station>
  <station>
    <id>GHCND:USC00445828</id>
    <displayName>MOUNT LAKE BIOL STATION, VA US</displayName>
    <minDate>1971-11-16</minDate>
    <maxDate>1998-01-31</maxDate>
    <latitude>37.38333</latitude>
    <longitude>-80.53333</longitude>
    <elevation>1179.6</elevation>
    <locationLabels>
      <type>CNTRY</type>
      <id>FIPS:US</id>
      <displayName>United States</displayName>
    </locationLabels>
    <coverage>0.9277</coverage>
  </station>
  <station>
    <id>GHCND:US1NJBT0027</id>
    <displayName>MOUNT LAUREL TWP 0.5 WSW, NJ US</displayName>
    <minDate>2010-11-30</minDate>
    <maxDate>2012-03-14</maxDate>
    <latitude>39.9448</latitude>
    <longitude>-74.9128</longitude>
    <elevation>9.8</elevation>
    <locationLabels>
      <type>CNTRY</type>
      <id>FIPS:US</id>
      <displayName>United States</displayName>
    </locationLabels>
    <coverage>0.7983</coverage>
  </station>
  <station>
    <id>GHCND:US1NJBT0019</id>
    <displayName>MOUNT LAUREL TWP 0.8 SSW, NJ US</displayName>
    <minDate>2010-08-18</minDate>
    <maxDate>2011-07-28</maxDate>
    <latitude>39.9368</latitude>
    <longitude>-74.9084</longitude>
    <elevation>12.2</elevation>
    <locationLabels>
      <type>CNTRY</type>
      <id>FIPS:US</id>
      <displayName>United States</displayName>
    </locationLabels>
    <coverage>0.9101</coverage>
  </station>
  <station>
    <id>GHCND:US1NJBT0041</id>
    <displayName>MOUNT LAUREL TWP 1.9 SE, NJ US</displayName>
    <minDate>2011-07-24</minDate>
    <maxDate>2012-09-27</maxDate>
    <latitude>39.9296</latitude>
    <longitude>-74.8779</longitude>
    <elevation>23.8</elevation>
    <locationLabels>
      <type>CNTRY</type>
      <id>FIPS:US</id>
      <displayName>United States</displayName>
    </locationLabels>
    <coverage>0.3611</coverage>
  </station>
  <station>
    <id>GHCND:US1NJBT0004</id>
    <displayName>MOUNT LAUREL TWP 2.5 ENE, NJ US</displayName>
    <minDate>2008-02-19</minDate>
    <maxDate>2013-01-16</maxDate>
    <latitude>39.9684</latitude>
    <longitude>-74.8648</longitude>
    <elevation>10.1</elevation>
    <locationLabels>
      <type>CNTRY</type>
      <id>FIPS:US</id>
      <displayName>United States</displayName>
    </locationLabels>
    <coverage>0.9387</coverage>
  </station>
  <station>
    <id>GHCND:USC00406326</id>
    <displayName>MOUNT LE CONTE, TN US</displayName>
    <minDate>1949-02-01</minDate>
    <maxDate>1970-12-31</maxDate>
    <latitude>35.65</latitude>
    <longitude>-83.43333</longitude>
    <elevation>1937</elevation>
    <locationLabels>
      <type>CNTRY</type>
      <id>FIPS:US</id>
      <displayName>United States</displayName>
    </locationLabels>
    <coverage>0.693</coverage>
  </station>
  <station>
    <id>GHCND:USC00305560</id>
    <displayName>MOUNT LEBANON, NY US</displayName>
    <minDate>1944-04-01</minDate>
    <maxDate>1970-03-31</maxDate>
    <latitude>42.46667</latitude>
    <longitude>-73.4</longitude>
    <elevation>219.5</elevation>
    <locationLabels>
      <type>CNTRY</type>
      <id>FIPS:US</id>
      <displayName>United States</displayName>
    </locationLabels>
    <coverage>0.9109</coverage>
  </station>
  <station>
    <id>GHCND:USC00366037</id>
    <displayName>MOUNT LEBANON, PA US</displayName>
    <minDate>1925-12-01</minDate>
    <maxDate>1945-12-31</maxDate>
    <latitude>40.383333</latitude>
    <longitude>-80.05</longitude>
    <elevation>365.8</elevation>
    <locationLabels>
      <type>CNTRY</type>
      <id>FIPS:US</id>
      <displayName>United States</displayName>
    </locationLabels>
    <coverage>0.9802</coverage>
  </station>
  <station>
    <id>GHCND:USC00406328</id>
    <displayName>MOUNT LECONTE, TN US</displayName>
    <minDate>1988-01-01</minDate>
    <maxDate>2013-01-16</maxDate>
    <latitude>35.655</latitude>
    <longitude>-83.4411</longitude>
    <elevation>1979.1</elevation>
    <locationLabels>
      <type>CNTRY</type>
      <id>FIPS:US</id>
      <displayName>United States</displayName>
    </locationLabels>
    <coverage>0.9863</coverage>
  </station>
  <station>
    <id>GHCND:USC00025735</id>
    <displayName>MOUNT LEMMON SKI VALLEY, AZ US</displayName>
    <minDate>2011-01-01</minDate>
    <maxDate>2011-12-20</maxDate>
    <latitude>32.44861</latitude>
    <longitude>-110.78028</longitude>
    <elevation>2502.4</elevation>
    <locationLabels>
      <type>CNTRY</type>
      <id>FIPS:US</id>
      <displayName>United States</displayName>
    </locationLabels>
    <coverage>0.0508</coverage>
  </station>
  <station>
    <id>GHCND:USC00025734</id>
    <displayName>MOUNT LEMMON SUMMIT, AZ US</displayName>
    <minDate>1957-08-01</minDate>
    <maxDate>1958-08-31</maxDate>
    <latitude>32.45</latitude>
    <longitude>-110.78333</longitude>
    <elevation>2788</elevation>
    <locationLabels>
      <type>CNTRY</type>
      <id>FIPS:US</id>
      <displayName>United States</displayName>
    </locationLabels>
    <coverage>0.7904</coverage>
  </station>
  <station>
    <id>GHCND:USC00025733</id>
    <displayName>MOUNT LEMMON, AZ US</displayName>
    <minDate>1950-05-06</minDate>
    <maxDate>1956-12-31</maxDate>
    <latitude>32.41667</latitude>
    <longitude>-110.71667</longitude>
    <elevation>2345.1</elevation>
    <locationLabels>
      <type>CNTRY</type>
      <id>FIPS:US</id>
      <displayName>United States</displayName>
    </locationLabels>
    <coverage>0.8849</coverage>
  </station>
  <station>
    <id>GHCND:USC00025732</id>
    <displayName>MOUNT LEMMON, AZ US</displayName>
    <minDate>1958-09-13</minDate>
    <maxDate>2010-01-31</maxDate>
    <latitude>32.44889</latitude>
    <longitude>-110.75389</longitude>
    <elevation>2412.2</elevation>
    <locationLabels>
      <type>CNTRY</type>
      <id>FIPS:US</id>
      <displayName>United States</displayName>
    </locationLabels>
    <coverage>0.1644</coverage>
  </station>
  <station>
    <id>GHCND:USC00416104</id>
    <displayName>MOUNT LOCKE, TX US</displayName>
    <minDate>1935-02-01</minDate>
    <maxDate>2013-01-16</maxDate>
    <latitude>30.7053</latitude>
    <longitude>-104.0232</longitude>
    <elevation>2069.6</elevation>
    <locationLabels>
      <type>CNTRY</type>
      <id>FIPS:US</id>
      <displayName>United States</displayName>
    </locationLabels>
    <coverage>0.9928</coverage>
  </station>
  <station>
    <id>GHCND:USS0012B12S</id>
    <displayName>MOUNT LOCKHART, MT US</displayName>
    <minDate>1970-01-01</minDate>
    <maxDate>2013-01-13</maxDate>
    <latitude>47.9167</latitude>
    <longitude>-112.8167</longitude>
    <elevation>1950.7</elevation>
    <locationLabels>
      <type>CNTRY</type>
      <id>FIPS:US</id>
      <displayName>United States</displayName>
    </locationLabels>
    <coverage>0.8825</coverage>
  </station>
  <station>
    <id>GHCND:USR0000AMTL</id>
    <displayName>MOUNT LOGAN ARIZONA, AZ US</displayName>
    <minDate>1985-01-23</minDate>
    <maxDate>2012-08-30</maxDate>
    <latitude>36.3472</latitude>
    <longitude>-113.1989</longitude>
    <elevation>2194.6</elevation>
    <locationLabels>
      <type>CNTRY</type>
      <id>FIPS:US</id>
      <displayName>United States</displayName>
    </locationLabels>
    <coverage>0.949</coverage>
  </station>
  <station>
    <id>GHCND:USC00045973</id>
    <displayName>MOUNT MADONNA, CA US</displayName>
    <minDate>1948-07-01</minDate>
    <maxDate>1951-09-30</maxDate>
    <latitude>37.01667</latitude>
    <longitude>-121.71667</longitude>
    <elevation>548.9</elevation>
    <locationLabels>
      <type>CNTRY</type>
      <id>FIPS:US</id>
      <displayName>United States</displayName>
    </locationLabels>
    <coverage>0.9899</coverage>
  </station>
  <station>
    <id>GHCND:USC00035010</id>
    <displayName>MOUNT MAGAZINE, AR US</displayName>
    <minDate>1948-08-20</minDate>
    <maxDate>1966-11-30</maxDate>
    <latitude>35.16667</latitude>
    <longitude>-93.68333</longitude>
    <elevation>854</elevation>
    <locationLabels>
      <type>CNTRY</type>
      <id>FIPS:US</id>
      <displayName>United States</displayName>
    </locationLabels>
    <coverage>0.8541</coverage>
  </station>
  <station>
    <id>GHCND:USC00506086</id>
    <displayName>MOUNT MAGNIFICENT, AK US</displayName>
    <minDate>1974-01-06</minDate>
    <maxDate>1978-07-31</maxDate>
    <latitude>61.3</latitude>
    <longitude>-149.43333</longitude>
    <elevation>305.1</elevation>
    <locationLabels>
      <type>CNTRY</type>
      <id>FIPS:US</id>
      <displayName>United States</displayName>
    </locationLabels>
    <coverage>0.8441</coverage>
  </station>
  <station>
    <id>GHCND:USC00435416</id>
    <displayName>MOUNT MANSFIELD, VT US</displayName>
    <minDate>1954-11-11</minDate>
    <maxDate>2013-01-15</maxDate>
    <latitude>44.5248</latitude>
    <longitude>-72.8154</longitude>
    <elevation>1204</elevation>
    <locationLabels>
      <type>CNTRY</type>
      <id>FIPS:US</id>
      <displayName>United States</displayName>
    </locationLabels>
    <coverage>0.9844</coverage>
  </station>
  <station>
    <id>GHCND:USC00305580</id>
    <displayName>MOUNT MCGREGOR, NY US</displayName>
    <minDate>1912-08-12</minDate>
    <maxDate>1945-06-30</maxDate>
    <latitude>43.2</latitude>
    <longitude>-73.75</longitude>
    <elevation>323.1</elevation>
    <locationLabels>
      <type>CNTRY</type>
      <id>FIPS:US</id>
      <displayName>United States</displayName>
    </locationLabels>
    <coverage>0.9006</coverage>
  </station>
  <station>
    <id>GHCND:USC00506093</id>
    <displayName>MOUNT MCKINLEY NATIONAL PARK AIRPORT, AK US</displayName>
    <minDate>1975-11-08</minDate>
    <maxDate>1976-04-30</maxDate>
    <latitude>63.65</latitude>
    <longitude>-148.8</longitude>
    <elevation>625.1</elevation>
    <locationLabels>
      <type>CNTRY</type>
      <id>FIPS:US</id>
      <displayName>United States</displayName>
    </locationLabels>
    <coverage>1</coverage>
  </station>
  <station>
    <id>GHCND:USC00315922</id>
    <displayName>MOUNT MITCHELL 2 SSW, NC US</displayName>
    <minDate>1953-10-01</minDate>
    <maxDate>1965-06-30</maxDate>
    <latitude>35.73333</latitude>
    <longitude>-82.28333</longitude>
    <elevation>1991.9</elevation>
    <locationLabels>
      <type>CNTRY</type>
      <id>FIPS:US</id>
      <displayName>United States</displayName>
    </locationLabels>
    <coverage>0.9842</coverage>
  </station>
  <station>
    <id>GHCND:USC00315921</id>
    <displayName>MOUNT MITCHELL TVA, NC US</displayName>
    <minDate>1925-06-01</minDate>
    <maxDate>1962-03-31</maxDate>
    <latitude>35.76667</latitude>
    <longitude>-82.26667</longitude>
    <elevation>2023.9</elevation>
    <locationLabels>
      <type>CNTRY</type>
      <id>FIPS:US</id>
      <displayName>United States</displayName>
    </locationLabels>
    <coverage>0.9261</coverage>
  </station>
  <station>
    <id>GHCND:USC00315923</id>
    <displayName>MOUNT MITCHELL, NC US</displayName>
    <minDate>1980-01-01</minDate>
    <maxDate>2013-01-16</maxDate>
    <latitude>35.7586</latitude>
    <longitude>-82.2711</longitude>
    <elevation>1902</elevation>
    <locationLabels>
      <type>CNTRY</type>
      <id>FIPS:US</id>
      <displayName>United States</displayName>
    </locationLabels>
    <coverage>0.9894</coverage>
  </station>
  <station>
    <id>GHCND:USC00406330</id>
    <displayName>MOUNT MORIAH BIRDSONG, TN US</displayName>
    <minDate>2004-10-01</minDate>
    <maxDate>2013-01-15</maxDate>
    <latitude>35.9675</latitude>
    <longitude>-88.04583</longitude>
    <elevation>115.8</elevation>
    <locationLabels>
      <type>CNTRY</type>
      <id>FIPS:US</id>
      <displayName>United States</displayName>
    </locationLabels>
    <coverage>0.8577</coverage>
  </station>
  <station>
    <id>GHCND:USC00305597</id>
    <displayName>MOUNT MORRIS 2 W, NY US</displayName>
    <minDate>1893-01-02</minDate>
    <maxDate>2013-01-16</maxDate>
    <latitude>42.7313</latitude>
    <longitude>-77.9054</longitude>
    <elevation>268.2</elevation>
    <locationLabels>
      <type>CNTRY</type>
      <id>FIPS:US</id>
      <displayName>United States</displayName>
    </locationLabels>
    <coverage>0.566</coverage>
  </station>
  <station>
    <id>GHCND:US1MIGN0008</id>
    <displayName>MOUNT MORRIS 3.1 WSW, MI US</displayName>
    <minDate>2009-02-01</minDate>
    <maxDate>2012-10-30</maxDate>
    <latitude>43.1057</latitude>
    <longitude>-83.758</longitude>
    <elevation>227.7</elevation>
    <locationLabels>
      <type>CNTRY</type>
      <id>FIPS:US</id>
      <displayName>United States</displayName>
    </locationLabels>
    <coverage>0.0782</coverage>
  </station>
  <station>
    <id>GHCND:USC00466284</id>
    <displayName>MOUNT NEBO 1 S, WV US</displayName>
    <minDate>1998-09-01</minDate>
    <maxDate>2013-01-15</maxDate>
    <latitude>38.1879</latitude>
    <longitude>-80.8484</longitude>
    <elevation>594.4</elevation>
    <locationLabels>
      <type>CNTRY</type>
      <id>FIPS:US</id>
      <displayName>United States</displayName>
    </locationLabels>
    <coverage>0.9901</coverage>
  </station>
  <station>
    <id>GHCND:USC00195050</id>
    <displayName>MOUNT NONOTUCK, MA US</displayName>
    <minDate>1886-02-01</minDate>
    <maxDate>1898-04-30</maxDate>
    <latitude>42.266667</latitude>
    <longitude>-72.616667</longitude>
    <elevation>268.2</elevation>
    <locationLabels>
      <type>CNTRY</type>
      <id>FIPS:US</id>
      <displayName>United States</displayName>
    </locationLabels>
    <coverage>0.7703</coverage>
  </station>
  <station>
    <id>GHCND:US1NCWY0008</id>
    <displayName>MOUNT OLIVE 0.2 NW, NC US</displayName>
    <minDate>2008-03-28</minDate>
    <maxDate>2009-05-04</maxDate>
    <latitude>35.1983</latitude>
    <longitude>-78.0704</longitude>
    <elevation>56.4</elevation>
    <locationLabels>
      <type>CNTRY</type>
      <id>FIPS:US</id>
      <displayName>United States</displayName>
    </locationLabels>
    <coverage>0.5831</coverage>
  </station>
  <station>
    <id>GHCND:US1ILMP0010</id>
    <displayName>MOUNT OLIVE 0.4 S, IL US</displayName>
    <minDate>2010-03-08</minDate>
    <maxDate>2013-01-13</maxDate>
    <latitude>39.0664</latitude>
    <longitude>-89.7281</longitude>
    <elevation>207</elevation>
    <locationLabels>
      <type>CNTRY</type>
      <id>FIPS:US</id>
      <displayName>United States</displayName>
    </locationLabels>
    <coverage>0.9847</coverage>
  </station>
  <station>
    <id>GHCND:USC00115917</id>
    <displayName>MOUNT OLIVE 1 E, IL US</displayName>
    <minDate>1940-10-01</minDate>
    <maxDate>2013-01-12</maxDate>
    <latitude>39.0719</latitude>
    <longitude>-89.7008</longitude>
    <elevation>210.3</elevation>
    <locationLabels>
      <type>CNTRY</type>
      <id>FIPS:US</id>
      <displayName>United States</displayName>
    </locationLabels>
    <coverage>0.9766</coverage>
  </station>
  <station>
    <id>GHCND:US1NCDP0003</id>
    <displayName>MOUNT OLIVE 2.4 SW, NC US</displayName>
    <minDate>2007-10-23</minDate>
    <maxDate>2013-01-16</maxDate>
    <latitude>35.1763</latitude>
    <longitude>-78.1018</longitude>
    <elevation>48.2</elevation>
    <locationLabels>
      <type>CNTRY</type>
      <id>FIPS:US</id>
      <displayName>United States</displayName>
    </locationLabels>
    <coverage>0.9885</coverage>
  </station>
  <station>
    <id>GHCND:USC00315930</id>
    <displayName>MOUNT OLIVE 6 SE, NC US</displayName>
    <minDate>2008-08-13</minDate>
    <maxDate>2013-01-16</maxDate>
    <latitude>35.1376</latitude>
    <longitude>-77.9891</longitude>
    <elevation>49.4</elevation>
    <locationLabels>
      <type>CNTRY</type>
      <id>FIPS:US</id>
      <displayName>United States</displayName>
    </locationLabels>
    <coverage>0.8832</coverage>
  </station>
  <station>
    <id>GHCND:US1NCDP0002</id>
    <displayName>MOUNT OLIVE 9.6 ESE, NC US</displayName>
    <minDate>2007-09-21</minDate>
    <maxDate>2013-01-16</maxDate>
    <latitude>35.142</latitude>
    <longitude>-77.9115</longitude>
    <elevation>45.1</elevation>
    <locationLabels>
      <type>CNTRY</type>
      <id>FIPS:US</id>
      <displayName>United States</displayName>
    </locationLabels>
    <coverage>0.871</coverage>
  </station>
  <station>
    <id>GHCND:US1NJMS0034</id>
    <displayName>MOUNT OLIVE TWP 0.8 SSW, NJ US</displayName>
    <minDate>2009-08-02</minDate>
    <maxDate>2010-10-30</maxDate>
    <latitude>40.8558</latitude>
    <longitude>-74.7476</longitude>
    <elevation>314.9</elevation>
    <locationLabels>
      <type>CNTRY</type>
      <id>FIPS:US</id>
      <displayName>United States</displayName>
    </locationLabels>
    <coverage>0.4923</coverage>
  </station>
  <station>
    <id>GHCND:US1NJMS0022</id>
    <displayName>MOUNT OLIVE TWP 2.1 WNW, NJ US</displayName>
    <minDate>2009-07-28</minDate>
    <maxDate>2012-11-13</maxDate>
    <latitude>40.8763</latitude>
    <longitude>-74.7807</longitude>
    <elevation>348.1</elevation>
    <locationLabels>
      <type>CNTRY</type>
      <id>FIPS:US</id>
      <displayName>United States</displayName>
    </locationLabels>
    <coverage>0.9344</coverage>
  </station>
  <station>
    <id>GHCND:USC00315929</id>
    <displayName>MOUNT OLIVE, NC US</displayName>
    <minDate>1948-09-01</minDate>
    <maxDate>1951-09-30</maxDate>
    <latitude>35.2</latitude>
    <longitude>-78.06667</longitude>
    <elevation>52.1</elevation>
    <locationLabels>
      <type>CNTRY</type>
      <id>FIPS:US</id>
      <displayName>United States</displayName>
    </locationLabels>
    <coverage>0.8622</coverage>
  </station>
  <station>
    <id>GHCND:US1UTSL0006</id>
    <displayName>MOUNT OLYMPUS 0.5 SW, UT US</displayName>
    <minDate>2008-07-01</minDate>
    <maxDate>2013-01-16</maxDate>
    <latitude>40.6803</latitude>
    <longitude>-111.795</longitude>
    <elevation>1535</elevation>
    <locationLabels>
      <type>CNTRY</type>
      <id>FIPS:US</id>
      <displayName>United States</displayName>
    </locationLabels>
    <coverage>0.935</coverage>
  </station>
  <station>
    <id>GHCND:US1OHBR0002</id>
    <displayName>MOUNT ORAB 0.3 SE, OH US</displayName>
    <minDate>2009-02-01</minDate>
    <maxDate>2010-01-26</maxDate>
    <latitude>39.026</latitude>
    <longitude>-83.9189</longitude>
    <elevation>285.9</elevation>
    <locationLabels>
      <type>CNTRY</type>
      <id>FIPS:US</id>
      <displayName>United States</displayName>
    </locationLabels>
    <coverage>0.8111</coverage>
  </station>
  <station>
    <id>GHCND:USC00315937</id>
    <displayName>MOUNT PISGAH, NC US</displayName>
    <minDate>1948-09-01</minDate>
    <maxDate>1962-03-31</maxDate>
    <latitude>35.43333</latitude>
    <longitude>-82.75</longitude>
    <elevation>1574</elevation>
    <locationLabels>
      <type>CNTRY</type>
      <id>FIPS:US</id>
      <displayName>United States</displayName>
    </locationLabels>
    <coverage>0.9734</coverage>
  </station>
  <station>
    <id>GHCND:USC00406340</id>
    <displayName>MOUNT PLEASANT 1 N, TN US</displayName>
    <minDate>1953-01-01</minDate>
    <maxDate>2013-01-16</maxDate>
    <latitude>35.55722</latitude>
    <longitude>-87.20194</longitude>
    <elevation>237.1</elevation>
    <locationLabels>
      <type>CNTRY</type>
      <id>FIPS:US</id>
      <displayName>United States</displayName>
    </locationLabels>
    <coverage>0.9062</coverage>
  </station>
  <station>
    <id>GHCND:USC00135796</id>
    <displayName>MOUNT PLEASANT 1 SSW, IA US</displayName>
    <minDate>1893-01-01</minDate>
    <maxDate>2013-01-16</maxDate>
    <latitude>40.9486</latitude>
    <longitude>-91.5647</longitude>
    <elevation>222.5</elevation>
    <locationLabels>
      <type>CNTRY</type>
      <id>FIPS:US</id>
      <displayName>United States</displayName>
    </locationLabels>
    <coverage>0.9716</coverage>
  </station>
  <station>
    <id>GHCND:US1SCCR0058</id>
    <displayName>MOUNT PLEASANT 1.1 S, SC US</displayName>
    <minDate>2010-07-22</minDate>
    <maxDate>2011-03-20</maxDate>
    <latitude>32.8078</latitude>
    <longitude>-79.8651</longitude>
    <elevation>1.8</elevation>
    <locationLabels>
      <type>CNTRY</type>
      <id>FIPS:US</id>
      <displayName>United States</displayName>
    </locationLabels>
    <coverage>0.9628</coverage>
  </station>
  <station>
    <id>GHCND:US1SCCR0051</id>
    <displayName>MOUNT PLEASANT 1.4 SW, SC US</displayName>
    <minDate>2009-01-01</minDate>
    <maxDate>2013-01-11</maxDate>
    <latitude>32.8064</latitude>
    <longitude>-79.8784</longitude>
    <elevation>2.4</elevation>
    <locationLabels>
      <type>CNTRY</type>
      <id>FIPS:US</id>
      <displayName>United States</displayName>
    </locationLabels>
    <coverage>0.9524</coverage>
  </station>
  <station>
    <id>GHCND:US1SCCR0056</id>
    <displayName>MOUNT PLEASANT 1.6 S, SC US</displayName>
    <minDate>2010-06-01</minDate>
    <maxDate>2013-01-10</maxDate>
    <latitude>32.7999</latitude>
    <longitude>-79.8619</longitude>
    <elevation>0</elevation>
    <locationLabels>
      <type>CNTRY</type>
      <id>FIPS:US</id>
      <displayName>United States</displayName>
    </locationLabels>
    <coverage>0.5141</coverage>
  </station>
  <station>
    <id>GHCND:US1SCCR0002</id>
    <displayName>MOUNT PLEASANT 1.6 WSW, SC US</displayName>
    <minDate>2008-03-01</minDate>
    <maxDate>2013-01-16</maxDate>
    <latitude>32.8129</latitude>
    <longitude>-79.8877</longitude>
    <elevation>2.1</elevation>
    <locationLabels>
      <type>CNTRY</type>
      <id>FIPS:US</id>
      <displayName>United States</displayName>
    </locationLabels>
    <coverage>0.7622</coverage>
  </station>
  <station>
    <id>GHCND:US1SCCR0004</id>
    <displayName>MOUNT PLEASANT 1.9 ESE, SC US</displayName>
    <minDate>2008-03-04</minDate>
    <maxDate>2013-01-11</maxDate>
    <latitude>32.8117</latitude>
    <longitude>-79.8336</longitude>
    <elevation>4</elevation>
    <locationLabels>
      <type>CNTRY</type>
      <id>FIPS:US</id>
      <displayName>United States</displayName>
    </locationLabels>
    <coverage>0.3876</coverage>
  </station>
  <station>
    <id>GHCND:USC00085990</id>
    <displayName>MOUNT PLEASANT 2 W, FL US</displayName>
    <minDate>1905-04-01</minDate>
    <maxDate>1959-07-31</maxDate>
    <latitude>30.66667</latitude>
    <longitude>-84.7</longitude>
    <elevation>92</elevation>
    <locationLabels>
      <type>CNTRY</type>
      <id>FIPS:US</id>
      <displayName>United States</displayName>
    </locationLabels>
    <coverage>0.9188</coverage>
  </station>
  <station>
    <id>GHCND:US1SCCR0016</id>
    <displayName>MOUNT PLEASANT 2.5 SW, SC US</displayName>
    <minDate>2008-03-01</minDate>
    <maxDate>2012-07-25</maxDate>
    <latitude>32.7952</latitude>
    <longitude>-79.8905</longitude>
    <elevation>3</elevation>
    <locationLabels>
      <type>CNTRY</type>
      <id>FIPS:US</id>
      <displayName>United States</displayName>
    </locationLabels>
    <coverage>0.2923</coverage>
  </station>
  <station>
    <id>GHCND:US1IAHY0002</id>
    <displayName>MOUNT PLEASANT 3.4 SSW, IA US</displayName>
    <minDate>2007-10-24</minDate>
    <maxDate>2010-10-08</maxDate>
    <latitude>40.9153</latitude>
    <longitude>-91.5638</longitude>
    <elevation>209.4</elevation>
    <locationLabels>
      <type>CNTRY</type>
      <id>FIPS:US</id>
      <displayName>United States</displayName>
    </locationLabels>
    <coverage>0.9593</coverage>
  </station>
  <station>
    <id>GHCND:USC00226084</id>
    <displayName>MOUNT PLEASANT 4 SW, MS US</displayName>
    <minDate>1942-10-01</minDate>
    <maxDate>2012-11-30</maxDate>
    <latitude>34.9055</latitude>
    <longitude>-89.5619</longitude>
    <elevation>131.1</elevation>
    <locationLabels>
      <type>CNTRY</type>
      <id>FIPS:US</id>
      <displayName>United States</displayName>
    </locationLabels>
    <coverage>0.9842</coverage>
  </station>
</stationCollection>
