<?xml version="1.0" encoding="UTF-8" standalone="yes"?>
<stationCollection totalCount="46020" pageCount="461" pageSize="100" page="312">
  <station>
    <id>GHCND:USC00136273</id>
    <displayName>ORANGE CITY, IA US</displayName>
    <minDate>2010-07-01</minDate>
    <maxDate>2013-01-16</maxDate>
    <latitude>43.00056</latitude>
    <longitude>-96.05389</longitude>
    <elevation>420.6</elevation>
    <locationLabels>
      <type>CNTRY</type>
      <id>FIPS:US</id>
      <displayName>United States</displayName>
    </locationLabels>
    <coverage>0.9699</coverage>
  </station>
  <station>
    <id>GHCND:USC00046473</id>
    <displayName>ORANGE CO RESERVOIR, CA US</displayName>
    <minDate>1948-07-01</minDate>
    <maxDate>1951-09-30</maxDate>
    <latitude>33.9378</latitude>
    <longitude>-117.885</longitude>
    <elevation>201.2</elevation>
    <locationLabels>
      <type>CNTRY</type>
      <id>FIPS:US</id>
      <displayName>United States</displayName>
    </locationLabels>
    <coverage>0.9621</coverage>
  </station>
  <station>
    <id>GHCND:USC00046476</id>
    <displayName>ORANGE COVE, CA US</displayName>
    <minDate>1931-06-01</minDate>
    <maxDate>1990-11-30</maxDate>
    <latitude>36.61667</latitude>
    <longitude>-119.3</longitude>
    <elevation>131.1</elevation>
    <locationLabels>
      <type>CNTRY</type>
      <id>FIPS:US</id>
      <displayName>United States</displayName>
    </locationLabels>
    <coverage>0.9412</coverage>
  </station>
  <station>
    <id>GHCND:USC00416663</id>
    <displayName>ORANGE DUPONT, TX US</displayName>
    <minDate>1948-11-01</minDate>
    <maxDate>1950-10-31</maxDate>
    <latitude>30.06667</latitude>
    <longitude>-93.75</longitude>
    <elevation>3</elevation>
    <locationLabels>
      <type>CNTRY</type>
      <id>FIPS:US</id>
      <displayName>United States</displayName>
    </locationLabels>
    <coverage>0.6603</coverage>
  </station>
  <station>
    <id>GHCND:US1TXJW0004</id>
    <displayName>ORANGE GROVE 2.6 NNW, TX US</displayName>
    <minDate>2010-06-24</minDate>
    <maxDate>2013-01-15</maxDate>
    <latitude>27.9888</latitude>
    <longitude>-97.9604</longitude>
    <elevation>65.8</elevation>
    <locationLabels>
      <type>CNTRY</type>
      <id>FIPS:US</id>
      <displayName>United States</displayName>
    </locationLabels>
    <coverage>0.6105</coverage>
  </station>
  <station>
    <id>GHCND:US1TXJW0006</id>
    <displayName>ORANGE GROVE 3.3 NW, TX US</displayName>
    <minDate>2011-07-30</minDate>
    <maxDate>2013-01-16</maxDate>
    <latitude>27.9927</latitude>
    <longitude>-97.9735</longitude>
    <elevation>64.3</elevation>
    <locationLabels>
      <type>CNTRY</type>
      <id>FIPS:US</id>
      <displayName>United States</displayName>
    </locationLabels>
    <coverage>0.9274</coverage>
  </station>
  <station>
    <id>GHCND:US1TXJW0005</id>
    <displayName>ORANGE GROVE 4.3 SW, TX US</displayName>
    <minDate>2010-12-17</minDate>
    <maxDate>2013-01-15</maxDate>
    <latitude>27.91</latitude>
    <longitude>-97.9875</longitude>
    <elevation>61.6</elevation>
    <locationLabels>
      <type>CNTRY</type>
      <id>FIPS:US</id>
      <displayName>United States</displayName>
    </locationLabels>
    <coverage>0.1551</coverage>
  </station>
  <station>
    <id>GHCND:US1TXNU0012</id>
    <displayName>ORANGE GROVE 4.5 SE, TX US</displayName>
    <minDate>2007-09-01</minDate>
    <maxDate>2013-01-15</maxDate>
    <latitude>27.9081</latitude>
    <longitude>-97.8894</longitude>
    <elevation>36</elevation>
    <locationLabels>
      <type>CNTRY</type>
      <id>FIPS:US</id>
      <displayName>United States</displayName>
    </locationLabels>
    <coverage>0.9302</coverage>
  </station>
  <station>
    <id>GHCND:US1TXJW0003</id>
    <displayName>ORANGE GROVE 8.1 WNW, TX US</displayName>
    <minDate>2007-11-24</minDate>
    <maxDate>2013-01-09</maxDate>
    <latitude>27.9917</latitude>
    <longitude>-98.0653</longitude>
    <elevation>88.1</elevation>
    <locationLabels>
      <type>CNTRY</type>
      <id>FIPS:US</id>
      <displayName>United States</displayName>
    </locationLabels>
    <coverage>0.8015</coverage>
  </station>
  <station>
    <id>GHCND:USW00012974</id>
    <displayName>ORANGE GROVE, TX US</displayName>
    <minDate>1996-09-29</minDate>
    <maxDate>1997-12-20</maxDate>
    <latitude>27.9</latitude>
    <longitude>-98.05</longitude>
    <elevation>78.3</elevation>
    <locationLabels>
      <type>CNTRY</type>
      <id>FIPS:US</id>
      <displayName>United States</displayName>
    </locationLabels>
    <coverage>0.8058</coverage>
  </station>
  <station>
    <id>GHCND:USC00086598</id>
    <displayName>ORANGE HOME, FL US</displayName>
    <minDate>1903-07-01</minDate>
    <maxDate>1906-12-31</maxDate>
    <latitude>28.833333</latitude>
    <longitude>-81.983333</longitude>
    <elevation>22.9</elevation>
    <locationLabels>
      <type>CNTRY</type>
      <id>FIPS:US</id>
      <displayName>United States</displayName>
    </locationLabels>
    <coverage>1</coverage>
  </station>
  <station>
    <id>GHCND:USW00054756</id>
    <displayName>ORANGE MUNICIPAL AIRPORT, MA US</displayName>
    <minDate>1996-07-01</minDate>
    <maxDate>2013-01-14</maxDate>
    <latitude>42.57</latitude>
    <longitude>-72.29111</longitude>
    <elevation>169.2</elevation>
    <locationLabels>
      <type>CNTRY</type>
      <id>FIPS:US</id>
      <displayName>United States</displayName>
    </locationLabels>
    <coverage>0.9926</coverage>
  </station>
  <station>
    <id>GHCND:US1FLCY0008</id>
    <displayName>ORANGE PARK 3.0 WNW, FL US</displayName>
    <minDate>2007-12-08</minDate>
    <maxDate>2013-01-15</maxDate>
    <latitude>30.1802</latitude>
    <longitude>-81.7526</longitude>
    <elevation>14</elevation>
    <locationLabels>
      <type>CNTRY</type>
      <id>FIPS:US</id>
      <displayName>United States</displayName>
    </locationLabels>
    <coverage>0.9148</coverage>
  </station>
  <station>
    <id>GHCND:US1FLCY0025</id>
    <displayName>ORANGE PARK 4.1 WSW, FL US</displayName>
    <minDate>2012-06-22</minDate>
    <maxDate>2013-01-16</maxDate>
    <latitude>30.1448</latitude>
    <longitude>-81.7668</longitude>
    <elevation>24.4</elevation>
    <locationLabels>
      <type>CNTRY</type>
      <id>FIPS:US</id>
      <displayName>United States</displayName>
    </locationLabels>
    <coverage>0.9043</coverage>
  </station>
  <station>
    <id>GHCND:US1FLCY0006</id>
    <displayName>ORANGE PARK 4.7 SW, FL US</displayName>
    <minDate>2007-10-27</minDate>
    <maxDate>2011-02-03</maxDate>
    <latitude>30.13</latitude>
    <longitude>-81.7687</longitude>
    <elevation>21</elevation>
    <locationLabels>
      <type>CNTRY</type>
      <id>FIPS:US</id>
      <displayName>United States</displayName>
    </locationLabels>
    <coverage>0.9808</coverage>
  </station>
  <station>
    <id>GHCND:US1FLCY0002</id>
    <displayName>ORANGE PARK 4.8 SSW, FL US</displayName>
    <minDate>2007-11-03</minDate>
    <maxDate>2013-01-10</maxDate>
    <latitude>30.1044</latitude>
    <longitude>-81.736</longitude>
    <elevation>13.1</elevation>
    <locationLabels>
      <type>CNTRY</type>
      <id>FIPS:US</id>
      <displayName>United States</displayName>
    </locationLabels>
    <coverage>0.991</coverage>
  </station>
  <station>
    <id>GHCND:USC00086612</id>
    <displayName>ORANGE PARK, FL US</displayName>
    <minDate>1894-02-01</minDate>
    <maxDate>1899-04-30</maxDate>
    <latitude>30.166667</latitude>
    <longitude>-81.7</longitude>
    <elevation>7.6</elevation>
    <locationLabels>
      <type>CNTRY</type>
      <id>FIPS:US</id>
      <displayName>United States</displayName>
    </locationLabels>
    <coverage>0.9243</coverage>
  </station>
  <station>
    <id>GHCND:USC00086620</id>
    <displayName>ORANGE SPRINGS 1 E, FL US</displayName>
    <minDate>1943-10-01</minDate>
    <maxDate>1952-12-31</maxDate>
    <latitude>29.5</latitude>
    <longitude>-81.91667</longitude>
    <elevation>9.1</elevation>
    <locationLabels>
      <type>CNTRY</type>
      <id>FIPS:US</id>
      <displayName>United States</displayName>
    </locationLabels>
    <coverage>0.9781</coverage>
  </station>
  <station>
    <id>GHCND:USC00086618</id>
    <displayName>ORANGE SPRINGS 2 SSW, FL US</displayName>
    <minDate>2000-03-01</minDate>
    <maxDate>2013-01-16</maxDate>
    <latitude>29.4794</latitude>
    <longitude>-81.9681</longitude>
    <elevation>15.2</elevation>
    <locationLabels>
      <type>CNTRY</type>
      <id>FIPS:US</id>
      <displayName>United States</displayName>
    </locationLabels>
    <coverage>0.9987</coverage>
  </station>
  <station>
    <id>GHCND:USC00286560</id>
    <displayName>ORANGE, NJ US</displayName>
    <minDate>1940-04-01</minDate>
    <maxDate>1964-04-30</maxDate>
    <latitude>40.78333</latitude>
    <longitude>-74.21667</longitude>
    <elevation>49.1</elevation>
    <locationLabels>
      <type>CNTRY</type>
      <id>FIPS:US</id>
      <displayName>United States</displayName>
    </locationLabels>
    <coverage>0.9532</coverage>
  </station>
  <station>
    <id>GHCND:USC00296430</id>
    <displayName>ORANGE, NM US</displayName>
    <minDate>1906-02-01</minDate>
    <maxDate>1910-09-30</maxDate>
    <latitude>32.01667</latitude>
    <longitude>-105.15</longitude>
    <elevation>1104.9</elevation>
    <locationLabels>
      <type>CNTRY</type>
      <id>FIPS:US</id>
      <displayName>United States</displayName>
    </locationLabels>
    <coverage>0.7499</coverage>
  </station>
  <station>
    <id>GHCND:USC00416664</id>
    <displayName>ORANGE, TX US</displayName>
    <minDate>1897-01-01</minDate>
    <maxDate>2013-01-14</maxDate>
    <latitude>30.0858</latitude>
    <longitude>-93.7416</longitude>
    <elevation>3</elevation>
    <locationLabels>
      <type>CNTRY</type>
      <id>FIPS:US</id>
      <displayName>United States</displayName>
    </locationLabels>
    <coverage>0.6571</coverage>
  </station>
  <station>
    <id>GHCND:USC00386522</id>
    <displayName>ORANGEBURG 2 SE, SC US</displayName>
    <minDate>1916-09-22</minDate>
    <maxDate>1953-04-30</maxDate>
    <latitude>33.46667</latitude>
    <longitude>-80.83333</longitude>
    <elevation>78.9</elevation>
    <locationLabels>
      <type>CNTRY</type>
      <id>FIPS:US</id>
      <displayName>United States</displayName>
    </locationLabels>
    <coverage>0.9752</coverage>
  </station>
  <station>
    <id>GHCND:USC00386527</id>
    <displayName>ORANGEBURG 2, SC US</displayName>
    <minDate>1919-10-01</minDate>
    <maxDate>2013-01-15</maxDate>
    <latitude>33.48861</latitude>
    <longitude>-80.87333</longitude>
    <elevation>54.9</elevation>
    <locationLabels>
      <type>CNTRY</type>
      <id>FIPS:US</id>
      <displayName>United States</displayName>
    </locationLabels>
    <coverage>0.7494</coverage>
  </station>
  <station>
    <id>GHCND:US1SCOR0013</id>
    <displayName>ORANGEBURG 3.9 N, SC US</displayName>
    <minDate>2012-05-16</minDate>
    <maxDate>2013-01-16</maxDate>
    <latitude>33.5504</latitude>
    <longitude>-80.8683</longitude>
    <elevation>64.9</elevation>
    <locationLabels>
      <type>CNTRY</type>
      <id>FIPS:US</id>
      <displayName>United States</displayName>
    </locationLabels>
    <coverage>0.6098</coverage>
  </station>
  <station>
    <id>GHCND:US1SCOR0010</id>
    <displayName>ORANGEBURG 7.2 N, SC US</displayName>
    <minDate>2012-04-03</minDate>
    <maxDate>2012-11-15</maxDate>
    <latitude>33.598</latitude>
    <longitude>-80.8768</longitude>
    <elevation>63.1</elevation>
    <locationLabels>
      <type>CNTRY</type>
      <id>FIPS:US</id>
      <displayName>United States</displayName>
    </locationLabels>
    <coverage>0.7665</coverage>
  </station>
  <station>
    <id>GHCND:USW00053854</id>
    <displayName>ORANGEBURG MUNICIPAL AIRPORT, SC US</displayName>
    <minDate>1997-06-01</minDate>
    <maxDate>2013-01-14</maxDate>
    <latitude>33.46167</latitude>
    <longitude>-80.85806</longitude>
    <elevation>60</elevation>
    <locationLabels>
      <type>CNTRY</type>
      <id>FIPS:US</id>
      <displayName>United States</displayName>
    </locationLabels>
    <coverage>0.9849</coverage>
  </station>
  <station>
    <id>GHCND:US1ILSP0003</id>
    <displayName>ORANGEVILLE 2.8 NW, IL US</displayName>
    <minDate>2007-04-01</minDate>
    <maxDate>2013-01-09</maxDate>
    <latitude>42.4961</latitude>
    <longitude>-89.6843</longitude>
    <elevation>299</elevation>
    <locationLabels>
      <type>CNTRY</type>
      <id>FIPS:US</id>
      <displayName>United States</displayName>
    </locationLabels>
    <coverage>0.7674</coverage>
  </station>
  <station>
    <id>GHCND:USC00336333</id>
    <displayName>ORANGEVILLE, OH US</displayName>
    <minDate>1893-01-01</minDate>
    <maxDate>1909-04-17</maxDate>
    <latitude>41.333333</latitude>
    <longitude>-80.55</longitude>
    <elevation>288</elevation>
    <locationLabels>
      <type>CNTRY</type>
      <id>FIPS:US</id>
      <displayName>United States</displayName>
    </locationLabels>
    <coverage>0.943</coverage>
  </station>
  <station>
    <id>GHCND:USC00506844</id>
    <displayName>ORCA, AK US</displayName>
    <minDate>1899-06-01</minDate>
    <maxDate>1908-03-31</maxDate>
    <latitude>60.5833</latitude>
    <longitude>-145.6833</longitude>
    <locationLabels>
      <type>CNTRY</type>
      <id>FIPS:US</id>
      <displayName>United States</displayName>
    </locationLabels>
    <coverage>0.6683</coverage>
  </station>
  <station>
    <id>GHCND:US1WASJ0003</id>
    <displayName>ORCAS 0.7 NNW, WA US</displayName>
    <minDate>2008-06-10</minDate>
    <maxDate>2013-01-14</maxDate>
    <latitude>48.6079</latitude>
    <longitude>-122.9466</longitude>
    <elevation>51.5</elevation>
    <locationLabels>
      <type>CNTRY</type>
      <id>FIPS:US</id>
      <displayName>United States</displayName>
    </locationLabels>
    <coverage>0.9946</coverage>
  </station>
  <station>
    <id>GHCND:US10ante003</id>
    <displayName>ORCHARD 0.2 ENE, NE US</displayName>
    <minDate>2009-08-19</minDate>
    <maxDate>2013-01-16</maxDate>
    <latitude>42.3374</latitude>
    <longitude>-98.2405</longitude>
    <elevation>0</elevation>
    <locationLabels>
      <type>CNTRY</type>
      <id>FIPS:US</id>
      <displayName>United States</displayName>
    </locationLabels>
    <coverage>0.9391</coverage>
  </station>
  <station>
    <id>GHCND:USC00256325</id>
    <displayName>ORCHARD 1 NW, NE US</displayName>
    <minDate>1987-08-01</minDate>
    <maxDate>2001-08-31</maxDate>
    <latitude>42.34944</latitude>
    <longitude>-98.25389</longitude>
    <elevation>588.3</elevation>
    <locationLabels>
      <type>CNTRY</type>
      <id>FIPS:US</id>
      <displayName>United States</displayName>
    </locationLabels>
    <coverage>0.9001</coverage>
  </station>
  <station>
    <id>GHCND:US10knox015</id>
    <displayName>ORCHARD 15.8 N, NE US</displayName>
    <minDate>2007-05-06</minDate>
    <maxDate>2012-11-07</maxDate>
    <latitude>42.564</latitude>
    <longitude>-98.27</longitude>
    <elevation>548.9</elevation>
    <locationLabels>
      <type>CNTRY</type>
      <id>FIPS:US</id>
      <displayName>United States</displayName>
    </locationLabels>
    <coverage>0.6329</coverage>
  </station>
  <station>
    <id>GHCND:USC00256328</id>
    <displayName>ORCHARD 9 NNE, NE US</displayName>
    <minDate>2002-05-01</minDate>
    <maxDate>2013-01-16</maxDate>
    <latitude>42.4666</latitude>
    <longitude>-98.2194</longitude>
    <elevation>554.7</elevation>
    <locationLabels>
      <type>CNTRY</type>
      <id>FIPS:US</id>
      <displayName>United States</displayName>
    </locationLabels>
    <coverage>0.8173</coverage>
  </station>
  <station>
    <id>GHCND:USC00356308</id>
    <displayName>ORCHARD HOMES, OR US</displayName>
    <minDate>1915-03-29</minDate>
    <maxDate>1918-08-31</maxDate>
    <latitude>42.316667</latitude>
    <longitude>-122.866667</longitude>
    <elevation>438</elevation>
    <locationLabels>
      <type>CNTRY</type>
      <id>FIPS:US</id>
      <displayName>United States</displayName>
    </locationLabels>
    <coverage>0.8522</coverage>
  </station>
  <station>
    <id>GHCND:US1MIOK0046</id>
    <displayName>ORCHARD LAKE VILLAGE 0.9 WSW, MI US</displayName>
    <minDate>2010-10-26</minDate>
    <maxDate>2012-12-27</maxDate>
    <latitude>42.5773</latitude>
    <longitude>-83.3942</longitude>
    <elevation>285.9</elevation>
    <locationLabels>
      <type>CNTRY</type>
      <id>FIPS:US</id>
      <displayName>United States</displayName>
    </locationLabels>
    <coverage>0.4924</coverage>
  </station>
  <station>
    <id>GHCND:US1NYER0094</id>
    <displayName>ORCHARD PARK 0.5 N, NY US</displayName>
    <minDate>2012-06-16</minDate>
    <maxDate>2013-01-10</maxDate>
    <latitude>42.77</latitude>
    <longitude>-78.7443</longitude>
    <elevation>257.3</elevation>
    <locationLabels>
      <type>CNTRY</type>
      <id>FIPS:US</id>
      <displayName>United States</displayName>
    </locationLabels>
    <coverage>0.7416</coverage>
  </station>
  <station>
    <id>GHCND:USS0016F07S</id>
    <displayName>ORCHARD RANGE SITE, ID US</displayName>
    <minDate>1989-01-05</minDate>
    <maxDate>2013-01-13</maxDate>
    <latitude>43.3333</latitude>
    <longitude>-116</longitude>
    <elevation>960.1</elevation>
    <locationLabels>
      <type>CNTRY</type>
      <id>FIPS:US</id>
      <displayName>United States</displayName>
    </locationLabels>
    <coverage>0.9447</coverage>
  </station>
  <station>
    <id>GHCND:US1WACK0003</id>
    <displayName>ORCHARDS 1.0 SE, WA US</displayName>
    <minDate>2008-07-03</minDate>
    <maxDate>2013-01-16</maxDate>
    <latitude>45.653</latitude>
    <longitude>-122.5311</longitude>
    <elevation>77.7</elevation>
    <locationLabels>
      <type>CNTRY</type>
      <id>FIPS:US</id>
      <displayName>United States</displayName>
    </locationLabels>
    <coverage>0.9765</coverage>
  </station>
  <station>
    <id>GHCND:US1WACK0005</id>
    <displayName>ORCHARDS NORTH 0.7 NW, WA US</displayName>
    <minDate>2008-06-24</minDate>
    <maxDate>2013-01-16</maxDate>
    <latitude>45.6914</latitude>
    <longitude>-122.5347</longitude>
    <elevation>83.8</elevation>
    <locationLabels>
      <type>CNTRY</type>
      <id>FIPS:US</id>
      <displayName>United States</displayName>
    </locationLabels>
    <coverage>0.8171</coverage>
  </station>
  <station>
    <id>GHCND:USC00517185</id>
    <displayName>ORCHID LD ESTAT 91.5, HI US</displayName>
    <minDate>1963-05-01</minDate>
    <maxDate>1997-09-30</maxDate>
    <latitude>19.56667</latitude>
    <longitude>-155</longitude>
    <elevation>137.2</elevation>
    <locationLabels>
      <type>CNTRY</type>
      <id>FIPS:US</id>
      <displayName>United States</displayName>
    </locationLabels>
    <coverage>0.9935</coverage>
  </station>
  <station>
    <id>GHCND:US10vall015</id>
    <displayName>ORD 0.4 SSE, NE US</displayName>
    <minDate>2007-03-24</minDate>
    <maxDate>2013-01-16</maxDate>
    <latitude>41.5983</latitude>
    <longitude>-98.9241</longitude>
    <elevation>630</elevation>
    <locationLabels>
      <type>CNTRY</type>
      <id>FIPS:US</id>
      <displayName>United States</displayName>
    </locationLabels>
    <coverage>0.4186</coverage>
  </station>
  <station>
    <id>GHCND:US10vall001</id>
    <displayName>ORD 1.4 NW, NE US</displayName>
    <minDate>2007-03-28</minDate>
    <maxDate>2012-08-02</maxDate>
    <latitude>41.619</latitude>
    <longitude>-98.9433</longitude>
    <elevation>627.9</elevation>
    <locationLabels>
      <type>CNTRY</type>
      <id>FIPS:US</id>
      <displayName>United States</displayName>
    </locationLabels>
    <coverage>0.1494</coverage>
  </station>
  <station>
    <id>GHCND:US10vall017</id>
    <displayName>ORD 10.8 NE, NE US</displayName>
    <minDate>2007-06-17</minDate>
    <maxDate>2007-12-27</maxDate>
    <latitude>41.71</latitude>
    <longitude>-98.7756</longitude>
    <elevation>668.1</elevation>
    <locationLabels>
      <type>CNTRY</type>
      <id>FIPS:US</id>
      <displayName>United States</displayName>
    </locationLabels>
    <coverage>1</coverage>
  </station>
  <station>
    <id>GHCND:US10vall002</id>
    <displayName>ORD 6.8 SSE, NE US</displayName>
    <minDate>2007-01-01</minDate>
    <maxDate>2013-01-16</maxDate>
    <latitude>41.5105</latitude>
    <longitude>-98.883</longitude>
    <elevation>624.8</elevation>
    <locationLabels>
      <type>CNTRY</type>
      <id>FIPS:US</id>
      <displayName>United States</displayName>
    </locationLabels>
    <coverage>0.9719</coverage>
  </station>
  <station>
    <id>GHCND:USC00256337</id>
    <displayName>ORD 9 S, NE US</displayName>
    <minDate>1948-09-01</minDate>
    <maxDate>1975-10-31</maxDate>
    <latitude>41.48333</latitude>
    <longitude>-98.9</longitude>
    <elevation>644</elevation>
    <locationLabels>
      <type>CNTRY</type>
      <id>FIPS:US</id>
      <displayName>United States</displayName>
    </locationLabels>
    <coverage>0.8233</coverage>
  </station>
  <station>
    <id>GHCND:US10vall004</id>
    <displayName>ORD 9.0 NW, NE US</displayName>
    <minDate>2007-01-01</minDate>
    <maxDate>2013-01-16</maxDate>
    <latitude>41.7187</latitude>
    <longitude>-99.0065</longitude>
    <elevation>655.9</elevation>
    <locationLabels>
      <type>CNTRY</type>
      <id>FIPS:US</id>
      <displayName>United States</displayName>
    </locationLabels>
    <coverage>0.9629</coverage>
  </station>
  <station>
    <id>GHCND:US10vall008</id>
    <displayName>ORD 9.1 SSE, NE US</displayName>
    <minDate>2007-03-24</minDate>
    <maxDate>2009-07-30</maxDate>
    <latitude>41.4757</latitude>
    <longitude>-98.8823</longitude>
    <elevation>637.9</elevation>
    <locationLabels>
      <type>CNTRY</type>
      <id>FIPS:US</id>
      <displayName>United States</displayName>
    </locationLabels>
    <coverage>0.5872</coverage>
  </station>
  <station>
    <id>GHCND:USW00094958</id>
    <displayName>ORD EVELYN SHARP FIELD, NE US</displayName>
    <minDate>2000-08-01</minDate>
    <maxDate>2013-01-14</maxDate>
    <latitude>41.62333</latitude>
    <longitude>-98.94833</longitude>
    <elevation>629.1</elevation>
    <locationLabels>
      <type>CNTRY</type>
      <id>FIPS:US</id>
      <displayName>United States</displayName>
    </locationLabels>
    <coverage>0.991</coverage>
  </station>
  <station>
    <id>GHCND:USC00256336</id>
    <displayName>ORD NUMBER 2, NE US</displayName>
    <minDate>1977-08-01</minDate>
    <maxDate>2012-12-28</maxDate>
    <latitude>41.6028</latitude>
    <longitude>-98.9269</longitude>
    <elevation>624.8</elevation>
    <locationLabels>
      <type>CNTRY</type>
      <id>FIPS:US</id>
      <displayName>United States</displayName>
    </locationLabels>
    <coverage>0.9921</coverage>
  </station>
  <station>
    <id>GHCND:USC00256335</id>
    <displayName>ORD, NE US</displayName>
    <minDate>1895-07-01</minDate>
    <maxDate>1977-07-31</maxDate>
    <latitude>41.6</latitude>
    <longitude>-98.93333</longitude>
    <elevation>630.9</elevation>
    <locationLabels>
      <type>CNTRY</type>
      <id>FIPS:US</id>
      <displayName>United States</displayName>
    </locationLabels>
    <coverage>0.9547</coverage>
  </station>
  <station>
    <id>GHCND:USC00426534</id>
    <displayName>ORDERVILLE, UT US</displayName>
    <minDate>1910-03-01</minDate>
    <maxDate>2012-11-30</maxDate>
    <latitude>37.2722</latitude>
    <longitude>-112.6388</longitude>
    <elevation>1664.2</elevation>
    <locationLabels>
      <type>CNTRY</type>
      <id>FIPS:US</id>
      <displayName>United States</displayName>
    </locationLabels>
    <coverage>0.9659</coverage>
  </station>
  <station>
    <id>GHCND:USC00056131</id>
    <displayName>ORDWAY 2 ENE, CO US</displayName>
    <minDate>1915-07-01</minDate>
    <maxDate>2012-11-30</maxDate>
    <latitude>38.2222</latitude>
    <longitude>-103.7219</longitude>
    <elevation>1315.2</elevation>
    <locationLabels>
      <type>CNTRY</type>
      <id>FIPS:US</id>
      <displayName>United States</displayName>
    </locationLabels>
    <coverage>0.9294</coverage>
  </station>
  <station>
    <id>GHCND:USC00056136</id>
    <displayName>ORDWAY 21 N, CO US</displayName>
    <minDate>1980-06-01</minDate>
    <maxDate>2013-01-16</maxDate>
    <latitude>38.5301</latitude>
    <longitude>-103.7059</longitude>
    <elevation>1453</elevation>
    <locationLabels>
      <type>CNTRY</type>
      <id>FIPS:US</id>
      <displayName>United States</displayName>
    </locationLabels>
    <coverage>0.9879</coverage>
  </station>
  <station>
    <id>GHCND:US1PALH0012</id>
    <displayName>OREFIELD 1.8 S, PA US</displayName>
    <minDate>2011-12-28</minDate>
    <maxDate>2013-01-16</maxDate>
    <latitude>40.6091</latitude>
    <longitude>-75.5857</longitude>
    <elevation>182</elevation>
    <locationLabels>
      <type>CNTRY</type>
      <id>FIPS:US</id>
      <displayName>United States</displayName>
    </locationLabels>
    <coverage>0.6269</coverage>
  </station>
  <station>
    <id>GHCND:USC00236359</id>
    <displayName>OREGON 1 ENE, MO US</displayName>
    <minDate>1951-01-01</minDate>
    <maxDate>1951-09-30</maxDate>
    <latitude>39.98333</latitude>
    <longitude>-95.13333</longitude>
    <elevation>317</elevation>
    <locationLabels>
      <type>CNTRY</type>
      <id>FIPS:US</id>
      <displayName>United States</displayName>
    </locationLabels>
    <coverage>0.9853</coverage>
  </station>
  <station>
    <id>GHCND:US1ILOG0005</id>
    <displayName>OREGON 1.3 E, IL US</displayName>
    <minDate>2007-06-08</minDate>
    <maxDate>2008-10-12</maxDate>
    <latitude>42.0137</latitude>
    <longitude>-89.3092</longitude>
    <elevation>248.1</elevation>
    <locationLabels>
      <type>CNTRY</type>
      <id>FIPS:US</id>
      <displayName>United States</displayName>
    </locationLabels>
    <coverage>0.2698</coverage>
  </station>
  <station>
    <id>GHCND:US1OHLS0014</id>
    <displayName>OREGON 2.8 SSW, OH US</displayName>
    <minDate>2009-03-08</minDate>
    <maxDate>2012-12-26</maxDate>
    <latitude>41.6305</latitude>
    <longitude>-83.4411</longitude>
    <elevation>182</elevation>
    <locationLabels>
      <type>CNTRY</type>
      <id>FIPS:US</id>
      <displayName>United States</displayName>
    </locationLabels>
    <coverage>0.9115</coverage>
  </station>
  <station>
    <id>GHCND:US1PAWN0037</id>
    <displayName>OREGON 23, PA US</displayName>
    <minDate>2008-01-01</minDate>
    <maxDate>2013-01-15</maxDate>
    <latitude>41.625</latitude>
    <longitude>-75.222</longitude>
    <elevation>420</elevation>
    <locationLabels>
      <type>CNTRY</type>
      <id>FIPS:US</id>
      <displayName>United States</displayName>
    </locationLabels>
    <coverage>0.4783</coverage>
  </station>
  <station>
    <id>GHCND:USC00116490</id>
    <displayName>OREGON 3 SW, IL US</displayName>
    <minDate>1949-11-01</minDate>
    <maxDate>2012-12-29</maxDate>
    <latitude>41.9783</latitude>
    <longitude>-89.3638</longitude>
    <elevation>213.4</elevation>
    <locationLabels>
      <type>CNTRY</type>
      <id>FIPS:US</id>
      <displayName>United States</displayName>
    </locationLabels>
    <coverage>0.3791</coverage>
  </station>
  <station>
    <id>GHCND:US1WIDA0022</id>
    <displayName>OREGON 5.3 W, WI US</displayName>
    <minDate>2010-09-09</minDate>
    <maxDate>2013-01-16</maxDate>
    <latitude>42.9372</latitude>
    <longitude>-89.4853</longitude>
    <elevation>323.1</elevation>
    <locationLabels>
      <type>CNTRY</type>
      <id>FIPS:US</id>
      <displayName>United States</displayName>
    </locationLabels>
    <coverage>0.8885</coverage>
  </station>
  <station>
    <id>GHCND:US1ORCC0002</id>
    <displayName>OREGON CITY 1.0 NNW, OR US</displayName>
    <minDate>2007-11-29</minDate>
    <maxDate>2008-09-10</maxDate>
    <latitude>45.3411</latitude>
    <longitude>-122.5631</longitude>
    <elevation>118.9</elevation>
    <locationLabels>
      <type>CNTRY</type>
      <id>FIPS:US</id>
      <displayName>United States</displayName>
    </locationLabels>
    <coverage>0.7247</coverage>
  </station>
  <station>
    <id>GHCND:US1ORCC0007</id>
    <displayName>OREGON CITY 2.2 NE, OR US</displayName>
    <minDate>2007-12-09</minDate>
    <maxDate>2011-03-03</maxDate>
    <latitude>45.3706</latitude>
    <longitude>-122.5711</longitude>
    <elevation>79.6</elevation>
    <locationLabels>
      <type>CNTRY</type>
      <id>FIPS:US</id>
      <displayName>United States</displayName>
    </locationLabels>
    <coverage>0.2964</coverage>
  </station>
  <station>
    <id>GHCND:US1ORCC0008</id>
    <displayName>OREGON CITY 5.5 ESE, OR US</displayName>
    <minDate>2007-12-17</minDate>
    <maxDate>2013-01-16</maxDate>
    <latitude>45.3131</latitude>
    <longitude>-122.4928</longitude>
    <elevation>130.1</elevation>
    <locationLabels>
      <type>CNTRY</type>
      <id>FIPS:US</id>
      <displayName>United States</displayName>
    </locationLabels>
    <coverage>0.8821</coverage>
  </station>
  <station>
    <id>GHCND:USC00356334</id>
    <displayName>OREGON CITY, OR US</displayName>
    <minDate>1911-10-01</minDate>
    <maxDate>2012-11-30</maxDate>
    <latitude>45.3558</latitude>
    <longitude>-122.6047</longitude>
    <elevation>50.9</elevation>
    <locationLabels>
      <type>CNTRY</type>
      <id>FIPS:US</id>
      <displayName>United States</displayName>
    </locationLabels>
    <coverage>0.7862</coverage>
  </station>
  <station>
    <id>GHCND:USC00316447</id>
    <displayName>OREGON INLET, NC US</displayName>
    <minDate>1939-08-01</minDate>
    <maxDate>1943-02-28</maxDate>
    <latitude>35.8</latitude>
    <longitude>-75.55</longitude>
    <locationLabels>
      <type>CNTRY</type>
      <id>FIPS:US</id>
      <displayName>United States</displayName>
    </locationLabels>
    <coverage>1</coverage>
  </station>
  <station>
    <id>GHCND:USC00486875</id>
    <displayName>OREGON TRAIL CROSSNG, WY US</displayName>
    <minDate>1948-08-01</minDate>
    <maxDate>1951-09-30</maxDate>
    <latitude>42.5419</latitude>
    <longitude>-108.185</longitude>
    <elevation>1994</elevation>
    <locationLabels>
      <type>CNTRY</type>
      <id>FIPS:US</id>
      <displayName>United States</displayName>
    </locationLabels>
    <coverage>0.8919</coverage>
  </station>
  <station>
    <id>GHCND:USC00116492</id>
    <displayName>OREGON WATERWORKS, IL US</displayName>
    <minDate>1893-01-01</minDate>
    <maxDate>1956-04-30</maxDate>
    <latitude>42.01667</latitude>
    <longitude>-89.33333</longitude>
    <elevation>214</elevation>
    <locationLabels>
      <type>CNTRY</type>
      <id>FIPS:US</id>
      <displayName>United States</displayName>
    </locationLabels>
    <coverage>0.778</coverage>
  </station>
  <station>
    <id>GHCND:USC00236357</id>
    <displayName>OREGON, MO US</displayName>
    <minDate>1893-01-01</minDate>
    <maxDate>2012-11-30</maxDate>
    <latitude>39.9807</latitude>
    <longitude>-95.1465</longitude>
    <elevation>318.5</elevation>
    <locationLabels>
      <type>CNTRY</type>
      <id>FIPS:US</id>
      <displayName>United States</displayName>
    </locationLabels>
    <coverage>0.9051</coverage>
  </station>
  <station>
    <id>GHCND:US1PAMT0040</id>
    <displayName>ORELAND 0.3 WNW, PA US</displayName>
    <minDate>2008-02-15</minDate>
    <maxDate>2010-06-10</maxDate>
    <latitude>40.1162</latitude>
    <longitude>-75.1848</longitude>
    <elevation>63.4</elevation>
    <locationLabels>
      <type>CNTRY</type>
      <id>FIPS:US</id>
      <displayName>United States</displayName>
    </locationLabels>
    <coverage>0.3589</coverage>
  </station>
  <station>
    <id>GHCND:US1UTUT0018</id>
    <displayName>OREM 2.6 S, UT US</displayName>
    <minDate>2009-11-19</minDate>
    <maxDate>2012-06-24</maxDate>
    <latitude>40.2607</latitude>
    <longitude>-111.6889</longitude>
    <elevation>1440.2</elevation>
    <locationLabels>
      <type>CNTRY</type>
      <id>FIPS:US</id>
      <displayName>United States</displayName>
    </locationLabels>
    <coverage>0.9231</coverage>
  </station>
  <station>
    <id>GHCND:USC00426538</id>
    <displayName>OREM TREATMENT PLANT, UT US</displayName>
    <minDate>1982-08-01</minDate>
    <maxDate>2010-05-31</maxDate>
    <latitude>40.2766</latitude>
    <longitude>-111.7369</longitude>
    <elevation>1374.6</elevation>
    <locationLabels>
      <type>CNTRY</type>
      <id>FIPS:US</id>
      <displayName>United States</displayName>
    </locationLabels>
    <coverage>0.9762</coverage>
  </station>
  <station>
    <id>GHCND:US1NHGR0010</id>
    <displayName>ORFORD 0.5 SSW, NH US</displayName>
    <minDate>2009-08-17</minDate>
    <maxDate>2013-01-16</maxDate>
    <latitude>43.8981</latitude>
    <longitude>-72.1377</longitude>
    <elevation>131.1</elevation>
    <locationLabels>
      <type>CNTRY</type>
      <id>FIPS:US</id>
      <displayName>United States</displayName>
    </locationLabels>
    <coverage>0.8151</coverage>
  </station>
  <station>
    <id>GHCND:USC00466725</id>
    <displayName>ORGAN CAVE, WV US</displayName>
    <minDate>1922-11-01</minDate>
    <maxDate>1929-02-28</maxDate>
    <latitude>37.7</latitude>
    <longitude>-80.5</longitude>
    <elevation>678.2</elevation>
    <locationLabels>
      <type>CNTRY</type>
      <id>FIPS:US</id>
      <displayName>United States</displayName>
    </locationLabels>
    <coverage>0.6583</coverage>
  </station>
  <station>
    <id>GHCND:USC00026132</id>
    <displayName>ORGAN PIPE CACTUS NM, AZ US</displayName>
    <minDate>1944-01-01</minDate>
    <maxDate>2013-01-14</maxDate>
    <latitude>31.9555</latitude>
    <longitude>-112.8002</longitude>
    <elevation>511.5</elevation>
    <locationLabels>
      <type>CNTRY</type>
      <id>FIPS:US</id>
      <displayName>United States</displayName>
    </locationLabels>
    <coverage>0.9921</coverage>
  </station>
  <station>
    <id>GHCND:USC00046499</id>
    <displayName>ORICK 10 SE, CA US</displayName>
    <minDate>1959-11-01</minDate>
    <maxDate>1963-05-31</maxDate>
    <latitude>41.18333</latitude>
    <longitude>-123.91667</longitude>
    <elevation>755.9</elevation>
    <locationLabels>
      <type>CNTRY</type>
      <id>FIPS:US</id>
      <displayName>United States</displayName>
    </locationLabels>
    <coverage>0.9274</coverage>
  </station>
  <station>
    <id>GHCND:US1CAHM0003</id>
    <displayName>ORICK 5.9 SSW, CA US</displayName>
    <minDate>2008-10-01</minDate>
    <maxDate>2013-01-16</maxDate>
    <latitude>41.2084</latitude>
    <longitude>-124.1027</longitude>
    <elevation>172.8</elevation>
    <locationLabels>
      <type>CNTRY</type>
      <id>FIPS:US</id>
      <displayName>United States</displayName>
    </locationLabels>
    <coverage>0.9975</coverage>
  </station>
  <station>
    <id>GHCND:USC00046498</id>
    <displayName>ORICK PRAIRIE, CA US</displayName>
    <minDate>1937-05-01</minDate>
    <maxDate>2012-10-31</maxDate>
    <latitude>41.3619</latitude>
    <longitude>-124.0191</longitude>
    <elevation>48.8</elevation>
    <locationLabels>
      <type>CNTRY</type>
      <id>FIPS:US</id>
      <displayName>United States</displayName>
    </locationLabels>
    <coverage>0.9107</coverage>
  </station>
  <station>
    <id>GHCND:USC00456180</id>
    <displayName>ORIENT 1, WA US</displayName>
    <minDate>1919-01-01</minDate>
    <maxDate>1924-02-29</maxDate>
    <latitude>48.85</latitude>
    <longitude>-118.216667</longitude>
    <locationLabels>
      <type>CNTRY</type>
      <id>FIPS:US</id>
      <displayName>United States</displayName>
    </locationLabels>
    <coverage>0.0917</coverage>
  </station>
  <station>
    <id>GHCND:USC00396337</id>
    <displayName>ORIENT 12 SSE, SD US</displayName>
    <minDate>1951-06-01</minDate>
    <maxDate>1951-10-23</maxDate>
    <latitude>44.78333</latitude>
    <longitude>-98.98333</longitude>
    <elevation>445</elevation>
    <locationLabels>
      <type>CNTRY</type>
      <id>FIPS:US</id>
      <displayName>United States</displayName>
    </locationLabels>
    <coverage>0.9931</coverage>
  </station>
  <station>
    <id>GHCND:USC00306275</id>
    <displayName>ORIENT 2 E, NY US</displayName>
    <minDate>1941-06-01</minDate>
    <maxDate>1961-02-28</maxDate>
    <latitude>41.15</latitude>
    <longitude>-72.26667</longitude>
    <elevation>3</elevation>
    <locationLabels>
      <type>CNTRY</type>
      <id>FIPS:US</id>
      <displayName>United States</displayName>
    </locationLabels>
    <coverage>0.9972</coverage>
  </station>
  <station>
    <id>GHCND:USC00396335</id>
    <displayName>ORIENT, SD US</displayName>
    <minDate>1979-07-01</minDate>
    <maxDate>2012-11-30</maxDate>
    <latitude>44.8893</latitude>
    <longitude>-99.0865</longitude>
    <elevation>487.7</elevation>
    <locationLabels>
      <type>CNTRY</type>
      <id>FIPS:US</id>
      <displayName>United States</displayName>
    </locationLabels>
    <coverage>0.9798</coverage>
  </station>
  <station>
    <id>GHCND:USC00346751</id>
    <displayName>ORIENTA, OK US</displayName>
    <minDate>1956-05-01</minDate>
    <maxDate>2013-01-16</maxDate>
    <latitude>36.3487</latitude>
    <longitude>-98.4809</longitude>
    <elevation>383.7</elevation>
    <locationLabels>
      <type>CNTRY</type>
      <id>FIPS:US</id>
      <displayName>United States</displayName>
    </locationLabels>
    <coverage>0.9581</coverage>
  </station>
  <station>
    <id>GHCND:US1NCPM0002</id>
    <displayName>ORIENTAL 2.1 WSW, NC US</displayName>
    <minDate>1998-06-17</minDate>
    <maxDate>2013-01-16</maxDate>
    <latitude>35.0226</latitude>
    <longitude>-76.7182</longitude>
    <elevation>7</elevation>
    <locationLabels>
      <type>CNTRY</type>
      <id>FIPS:US</id>
      <displayName>United States</displayName>
    </locationLabels>
    <coverage>0.3444</coverage>
  </station>
  <station>
    <id>GHCND:US1NCPM0010</id>
    <displayName>ORIENTAL 4.3 NNW, NC US</displayName>
    <minDate>2011-10-01</minDate>
    <maxDate>2013-01-16</maxDate>
    <latitude>35.0905</latitude>
    <longitude>-76.7202</longitude>
    <elevation>2.4</elevation>
    <locationLabels>
      <type>CNTRY</type>
      <id>FIPS:US</id>
      <displayName>United States</displayName>
    </locationLabels>
    <coverage>0.9789</coverage>
  </station>
  <station>
    <id>GHCND:US1NCPM0012</id>
    <displayName>ORIENTAL 5.2 NE, NC US</displayName>
    <minDate>2012-05-16</minDate>
    <maxDate>2013-01-16</maxDate>
    <latitude>35.0929</latitude>
    <longitude>-76.6264</longitude>
    <elevation>1.2</elevation>
    <locationLabels>
      <type>CNTRY</type>
      <id>FIPS:US</id>
      <displayName>United States</displayName>
    </locationLabels>
    <coverage>0.5813</coverage>
  </station>
  <station>
    <id>GHCND:USR0000NORI</id>
    <displayName>ORIENTAL WASH NEVADA, NV US</displayName>
    <minDate>1986-09-18</minDate>
    <maxDate>2012-08-31</maxDate>
    <latitude>37.2353</latitude>
    <longitude>-117.4964</longitude>
    <elevation>1249.7</elevation>
    <locationLabels>
      <type>CNTRY</type>
      <id>FIPS:US</id>
      <displayName>United States</displayName>
    </locationLabels>
    <coverage>0.9715</coverage>
  </station>
  <station>
    <id>GHCND:USC00316452</id>
    <displayName>ORIENTAL, NC US</displayName>
    <minDate>1952-04-18</minDate>
    <maxDate>1968-02-29</maxDate>
    <latitude>35.03333</latitude>
    <longitude>-76.7</longitude>
    <elevation>3</elevation>
    <locationLabels>
      <type>CNTRY</type>
      <id>FIPS:US</id>
      <displayName>United States</displayName>
    </locationLabels>
    <coverage>0.9266</coverage>
  </station>
  <station>
    <id>GHCND:USC00046502</id>
    <displayName>ORINDA BOWMAN, CA US</displayName>
    <minDate>1944-08-01</minDate>
    <maxDate>1960-06-30</maxDate>
    <latitude>37.86667</latitude>
    <longitude>-122.16667</longitude>
    <elevation>167.9</elevation>
    <locationLabels>
      <type>CNTRY</type>
      <id>FIPS:US</id>
      <displayName>United States</displayName>
    </locationLabels>
    <coverage>0.9926</coverage>
  </station>
  <station>
    <id>GHCND:US1ILHY0001</id>
    <displayName>ORION 4.1 NW, IL US</displayName>
    <minDate>2007-04-17</minDate>
    <maxDate>2013-01-01</maxDate>
    <latitude>41.3941</latitude>
    <longitude>-90.4287</longitude>
    <elevation>214.9</elevation>
    <locationLabels>
      <type>CNTRY</type>
      <id>FIPS:US</id>
      <displayName>United States</displayName>
    </locationLabels>
    <coverage>0.7345</coverage>
  </station>
  <station>
    <id>GHCND:USC00326743</id>
    <displayName>ORISKA, ND US</displayName>
    <minDate>1905-05-01</minDate>
    <maxDate>1918-01-31</maxDate>
    <latitude>46.9</latitude>
    <longitude>-97.8</longitude>
    <elevation>387.7</elevation>
    <locationLabels>
      <type>CNTRY</type>
      <id>FIPS:US</id>
      <displayName>United States</displayName>
    </locationLabels>
    <coverage>0.8553</coverage>
  </station>
  <station>
    <id>GHCND:US1INLG0013</id>
    <displayName>ORLAND 1.4 W, IN US</displayName>
    <minDate>2011-05-29</minDate>
    <maxDate>2012-12-10</maxDate>
    <latitude>41.7336</latitude>
    <longitude>-85.1988</longitude>
    <elevation>287.7</elevation>
    <locationLabels>
      <type>CNTRY</type>
      <id>FIPS:US</id>
      <displayName>United States</displayName>
    </locationLabels>
    <coverage>0.3612</coverage>
  </station>
  <station>
    <id>GHCND:US1INLG0001</id>
    <displayName>ORLAND 6.6 SSW, IN US</displayName>
    <minDate>2006-05-01</minDate>
    <maxDate>2013-01-16</maxDate>
    <latitude>41.6385</latitude>
    <longitude>-85.202</longitude>
    <elevation>302.1</elevation>
    <locationLabels>
      <type>CNTRY</type>
      <id>FIPS:US</id>
      <displayName>United States</displayName>
    </locationLabels>
    <coverage>0.6934</coverage>
  </station>
  <station>
    <id>GHCND:US1ILCK0051</id>
    <displayName>ORLAND HILLS 0.6 S, IL US</displayName>
    <minDate>2007-02-06</minDate>
    <maxDate>2013-01-16</maxDate>
    <latitude>41.5833</latitude>
    <longitude>-87.8434</longitude>
    <elevation>217</elevation>
    <locationLabels>
      <type>CNTRY</type>
      <id>FIPS:US</id>
      <displayName>United States</displayName>
    </locationLabels>
    <coverage>0.8117</coverage>
  </station>
  <station>
    <id>GHCND:US1ILCK0197</id>
    <displayName>ORLAND HILLS 0.6 SE, IL US</displayName>
    <minDate>2012-04-13</minDate>
    <maxDate>2013-01-16</maxDate>
    <latitude>41.5865</latitude>
    <longitude>-87.8335</longitude>
    <elevation>215.2</elevation>
    <locationLabels>
      <type>CNTRY</type>
      <id>FIPS:US</id>
      <displayName>United States</displayName>
    </locationLabels>
    <coverage>0.9857</coverage>
  </station>
  <station>
    <id>GHCND:US1ILWL0082</id>
    <displayName>ORLAND PARK 4.6 WNW, IL US</displayName>
    <minDate>2011-04-08</minDate>
    <maxDate>2013-01-16</maxDate>
    <latitude>41.6433</latitude>
    <longitude>-87.9281</longitude>
    <elevation>209.4</elevation>
    <locationLabels>
      <type>CNTRY</type>
      <id>FIPS:US</id>
      <displayName>United States</displayName>
    </locationLabels>
    <coverage>0.9369</coverage>
  </station>
  <station>
    <id>GHCND:USC00046506</id>
    <displayName>ORLAND, CA US</displayName>
    <minDate>1903-03-01</minDate>
    <maxDate>2013-01-16</maxDate>
    <latitude>39.7458</latitude>
    <longitude>-122.1997</longitude>
    <elevation>77.4</elevation>
    <locationLabels>
      <type>CNTRY</type>
      <id>FIPS:US</id>
      <displayName>United States</displayName>
    </locationLabels>
    <coverage>0.9763</coverage>
  </station>
  <station>
    <id>GHCND:USC00346760</id>
    <displayName>ORLANDO 1 NNE, OK US</displayName>
    <minDate>1948-03-01</minDate>
    <maxDate>1951-09-30</maxDate>
    <latitude>36.16667</latitude>
    <longitude>-97.36667</longitude>
    <elevation>331.9</elevation>
    <locationLabels>
      <type>CNTRY</type>
      <id>FIPS:US</id>
      <displayName>United States</displayName>
    </locationLabels>
    <coverage>0.2926</coverage>
  </station>
  <station>
    <id>GHCND:US1FLOR0013</id>
    <displayName>ORLANDO 1.2 ENE, FL US</displayName>
    <minDate>2009-09-20</minDate>
    <maxDate>2012-12-28</maxDate>
    <latitude>28.5082</latitude>
    <longitude>-81.3549</longitude>
    <elevation>31.4</elevation>
    <locationLabels>
      <type>CNTRY</type>
      <id>FIPS:US</id>
      <displayName>United States</displayName>
    </locationLabels>
    <coverage>0.9674</coverage>
  </station>
</stationCollection>
