<?xml version="1.0" encoding="UTF-8" standalone="yes"?>
<stationCollection totalCount="46020" pageCount="461" pageSize="100" page="260">
  <station>
    <id>GHCND:US1TXBRT012</id>
    <displayName>MARBLE FALLS 8.6 ESE, TX US</displayName>
    <minDate>2008-03-25</minDate>
    <maxDate>2011-12-05</maxDate>
    <latitude>30.5185</latitude>
    <longitude>-98.1468</longitude>
    <elevation>255.4</elevation>
    <locationLabels>
      <type>CNTRY</type>
      <id>FIPS:US</id>
      <displayName>United States</displayName>
    </locationLabels>
    <coverage>0.077</coverage>
  </station>
  <station>
    <id>GHCND:USC00415580</id>
    <displayName>MARBLE FALLS, TX US</displayName>
    <minDate>1908-01-01</minDate>
    <maxDate>1952-01-31</maxDate>
    <latitude>30.56667</latitude>
    <longitude>-98.28333</longitude>
    <elevation>235</elevation>
    <locationLabels>
      <type>CNTRY</type>
      <id>FIPS:US</id>
      <displayName>United States</displayName>
    </locationLabels>
    <coverage>0.943</coverage>
  </station>
  <station>
    <id>GHCND:US1MOFSA017</id>
    <displayName>MARBLE HILL 0.4 NE, MO US</displayName>
    <minDate>2006-05-01</minDate>
    <maxDate>2013-01-16</maxDate>
    <latitude>37.3057</latitude>
    <longitude>-89.9744</longitude>
    <elevation>141.1</elevation>
    <locationLabels>
      <type>CNTRY</type>
      <id>FIPS:US</id>
      <displayName>United States</displayName>
    </locationLabels>
    <coverage>0.9971</coverage>
  </station>
  <station>
    <id>GHCND:USC00235253</id>
    <displayName>MARBLE HILL, MO US</displayName>
    <minDate>1893-01-01</minDate>
    <maxDate>2013-01-15</maxDate>
    <latitude>37.3036</latitude>
    <longitude>-89.9663</longitude>
    <elevation>118.9</elevation>
    <locationLabels>
      <type>CNTRY</type>
      <id>FIPS:US</id>
      <displayName>United States</displayName>
    </locationLabels>
    <coverage>0.9677</coverage>
  </station>
  <station>
    <id>GHCND:USC00135141</id>
    <displayName>MARBLE ROCK, IA US</displayName>
    <minDate>1954-04-01</minDate>
    <maxDate>1998-09-30</maxDate>
    <latitude>42.96556</latitude>
    <longitude>-92.87056</longitude>
    <elevation>297.2</elevation>
    <locationLabels>
      <type>CNTRY</type>
      <id>FIPS:US</id>
      <displayName>United States</displayName>
    </locationLabels>
    <coverage>0.479</coverage>
  </station>
  <station>
    <id>GHCND:USC00454995</id>
    <displayName>MARBLE, WA US</displayName>
    <minDate>1926-12-01</minDate>
    <maxDate>1928-11-30</maxDate>
    <latitude>48.85</latitude>
    <longitude>-117.9</longitude>
    <elevation>442</elevation>
    <locationLabels>
      <type>CNTRY</type>
      <id>FIPS:US</id>
      <displayName>United States</displayName>
    </locationLabels>
    <coverage>1</coverage>
  </station>
  <station>
    <id>GHCND:US1MAES0008</id>
    <displayName>MARBLEHEAD 0.8 SW, MA US</displayName>
    <minDate>2009-04-04</minDate>
    <maxDate>2013-01-16</maxDate>
    <latitude>42.4921</latitude>
    <longitude>-70.8758</longitude>
    <elevation>11.6</elevation>
    <locationLabels>
      <type>CNTRY</type>
      <id>FIPS:US</id>
      <displayName>United States</displayName>
    </locationLabels>
    <coverage>0.9668</coverage>
  </station>
  <station>
    <id>GHCND:USC00194502</id>
    <displayName>MARBLEHEAD, MA US</displayName>
    <minDate>1984-09-01</minDate>
    <maxDate>2013-01-15</maxDate>
    <latitude>42.5007</latitude>
    <longitude>-70.8644</longitude>
    <elevation>25.6</elevation>
    <locationLabels>
      <type>CNTRY</type>
      <id>FIPS:US</id>
      <displayName>United States</displayName>
    </locationLabels>
    <coverage>0.9957</coverage>
  </station>
  <station>
    <id>GHCND:US1WASG0031</id>
    <displayName>MARBLEMOUNT 2.1 NE, WA US</displayName>
    <minDate>2011-01-16</minDate>
    <maxDate>2013-01-08</maxDate>
    <latitude>48.5538</latitude>
    <longitude>-121.4262</longitude>
    <elevation>107</elevation>
    <locationLabels>
      <type>CNTRY</type>
      <id>FIPS:US</id>
      <displayName>United States</displayName>
    </locationLabels>
    <coverage>0.4931</coverage>
  </station>
  <station>
    <id>GHCND:USC00454999</id>
    <displayName>MARBLEMOUNT RANGER STATION, WA US</displayName>
    <minDate>1950-04-01</minDate>
    <maxDate>1951-09-26</maxDate>
    <latitude>48.538</latitude>
    <longitude>-121.4502</longitude>
    <elevation>106.1</elevation>
    <locationLabels>
      <type>CNTRY</type>
      <id>FIPS:US</id>
      <displayName>United States</displayName>
    </locationLabels>
    <coverage>0.9596</coverage>
  </station>
  <station>
    <id>GHCND:USC00215175</id>
    <displayName>MARCELL 5 NE, MN US</displayName>
    <minDate>1981-08-01</minDate>
    <maxDate>2010-03-03</maxDate>
    <latitude>47.6308</latitude>
    <longitude>-93.6522</longitude>
    <elevation>422.8</elevation>
    <locationLabels>
      <type>CNTRY</type>
      <id>FIPS:US</id>
      <displayName>United States</displayName>
    </locationLabels>
    <coverage>0.71</coverage>
  </station>
  <station>
    <id>GHCND:USC00115321</id>
    <displayName>MARCELLINE, IL US</displayName>
    <minDate>1951-09-01</minDate>
    <maxDate>1953-12-31</maxDate>
    <latitude>40.15</latitude>
    <longitude>-91.3</longitude>
    <locationLabels>
      <type>CNTRY</type>
      <id>FIPS:US</id>
      <displayName>United States</displayName>
    </locationLabels>
    <coverage>0.5147</coverage>
  </station>
  <station>
    <id>GHCND:US1NYOG0031</id>
    <displayName>MARCELLUS 1.6 E, NY US</displayName>
    <minDate>2008-09-22</minDate>
    <maxDate>2012-12-27</maxDate>
    <latitude>42.9826</latitude>
    <longitude>-76.3091</longitude>
    <elevation>325.5</elevation>
    <locationLabels>
      <type>CNTRY</type>
      <id>FIPS:US</id>
      <displayName>United States</displayName>
    </locationLabels>
    <coverage>0.6117</coverage>
  </station>
  <station>
    <id>GHCND:US1NYOG0037</id>
    <displayName>MARCELLUS 2.3 NNE, NY US</displayName>
    <minDate>2009-09-01</minDate>
    <maxDate>2011-10-30</maxDate>
    <latitude>43.0128</latitude>
    <longitude>-76.3159</longitude>
    <elevation>256.9</elevation>
    <locationLabels>
      <type>CNTRY</type>
      <id>FIPS:US</id>
      <displayName>United States</displayName>
    </locationLabels>
    <coverage>0.3139</coverage>
  </station>
  <station>
    <id>GHCND:USC00305072</id>
    <displayName>MARCELLUS SOIL CONSERVATION SERVICE, NY US</displayName>
    <minDate>1948-05-01</minDate>
    <maxDate>1951-09-30</maxDate>
    <latitude>42.98333</latitude>
    <longitude>-76.38333</longitude>
    <elevation>313.9</elevation>
    <locationLabels>
      <type>CNTRY</type>
      <id>FIPS:US</id>
      <displayName>United States</displayName>
    </locationLabels>
    <coverage>0.9696</coverage>
  </station>
  <station>
    <id>GHCND:USW00023119</id>
    <displayName>MARCH AFB, CA US</displayName>
    <minDate>1949-01-01</minDate>
    <maxDate>1970-12-31</maxDate>
    <latitude>33.9</latitude>
    <longitude>-117.25</longitude>
    <elevation>468.2</elevation>
    <locationLabels>
      <type>CNTRY</type>
      <id>FIPS:US</id>
      <displayName>United States</displayName>
    </locationLabels>
    <coverage>0.9998</coverage>
  </station>
  <station>
    <id>GHCND:USC00045326</id>
    <displayName>MARCH FIELD, CA US</displayName>
    <minDate>1948-07-01</minDate>
    <maxDate>1964-02-29</maxDate>
    <latitude>33.86667</latitude>
    <longitude>-117.25</longitude>
    <elevation>454.2</elevation>
    <locationLabels>
      <type>CNTRY</type>
      <id>FIPS:US</id>
      <displayName>United States</displayName>
    </locationLabels>
    <coverage>0.9888</coverage>
  </station>
  <station>
    <id>GHCND:US1FLCR0003</id>
    <displayName>MARCO 0.2 SSE, FL US</displayName>
    <minDate>2007-10-07</minDate>
    <maxDate>2008-11-07</maxDate>
    <latitude>25.9396</latitude>
    <longitude>-81.7154</longitude>
    <elevation>6.1</elevation>
    <locationLabels>
      <type>CNTRY</type>
      <id>FIPS:US</id>
      <displayName>United States</displayName>
    </locationLabels>
    <coverage>0.902</coverage>
  </station>
  <station>
    <id>GHCND:USC00085359</id>
    <displayName>MARCO ISLAND, FL US</displayName>
    <minDate>2002-06-01</minDate>
    <maxDate>2013-01-16</maxDate>
    <latitude>25.94917</latitude>
    <longitude>-81.71389</longitude>
    <elevation>3</elevation>
    <locationLabels>
      <type>CNTRY</type>
      <id>FIPS:US</id>
      <displayName>United States</displayName>
    </locationLabels>
    <coverage>0.999</coverage>
  </station>
  <station>
    <id>GHCND:USC00415583</id>
    <displayName>MARCO, TX US</displayName>
    <minDate>1948-04-01</minDate>
    <maxDate>1974-12-31</maxDate>
    <latitude>31.1</latitude>
    <longitude>-99.56667</longitude>
    <elevation>591.9</elevation>
    <locationLabels>
      <type>CNTRY</type>
      <id>FIPS:US</id>
      <displayName>United States</displayName>
    </locationLabels>
    <coverage>0.8283</coverage>
  </station>
  <station>
    <id>GHCND:US1ORLA0009</id>
    <displayName>MARCOLA 0.5 S, OR US</displayName>
    <minDate>2007-12-11</minDate>
    <maxDate>2008-06-02</maxDate>
    <latitude>44.1686</latitude>
    <longitude>-122.8583</longitude>
    <elevation>166.4</elevation>
    <locationLabels>
      <type>CNTRY</type>
      <id>FIPS:US</id>
      <displayName>United States</displayName>
    </locationLabels>
    <coverage>0.8971</coverage>
  </station>
  <station>
    <id>GHCND:USC00355213</id>
    <displayName>MARCOLA, OR US</displayName>
    <minDate>1950-02-01</minDate>
    <maxDate>1951-09-30</maxDate>
    <latitude>44.1706</latitude>
    <longitude>-122.8714</longitude>
    <elevation>166.1</elevation>
    <locationLabels>
      <type>CNTRY</type>
      <id>FIPS:US</id>
      <displayName>United States</displayName>
    </locationLabels>
    <coverage>0.9522</coverage>
  </station>
  <station>
    <id>GHCND:USC00395184</id>
    <displayName>MARCUS 8 NNW, SD US</displayName>
    <minDate>1959-05-01</minDate>
    <maxDate>1974-11-30</maxDate>
    <latitude>44.76667</latitude>
    <longitude>-102.33333</longitude>
    <elevation>716.9</elevation>
    <locationLabels>
      <type>CNTRY</type>
      <id>FIPS:US</id>
      <displayName>United States</displayName>
    </locationLabels>
    <coverage>1</coverage>
  </station>
  <station>
    <id>GHCND:USC00365390</id>
    <displayName>MARCUS HOOK, PA US</displayName>
    <minDate>1919-07-01</minDate>
    <maxDate>2012-12-31</maxDate>
    <latitude>39.8253</latitude>
    <longitude>-75.4283</longitude>
    <elevation>3</elevation>
    <locationLabels>
      <type>CNTRY</type>
      <id>FIPS:US</id>
      <displayName>United States</displayName>
    </locationLabels>
    <coverage>0.8866</coverage>
  </station>
  <station>
    <id>GHCND:USC00455004</id>
    <displayName>MARCUS, WA US</displayName>
    <minDate>1916-04-01</minDate>
    <maxDate>1931-12-31</maxDate>
    <latitude>48.666667</latitude>
    <longitude>-118.066667</longitude>
    <elevation>367.6</elevation>
    <locationLabels>
      <type>CNTRY</type>
      <id>FIPS:US</id>
      <displayName>United States</displayName>
    </locationLabels>
    <coverage>0.7252</coverage>
  </station>
  <station>
    <id>GHCND:USC00185665</id>
    <displayName>MARDELLA SPRINGS, MD US</displayName>
    <minDate>1894-01-01</minDate>
    <maxDate>1899-12-31</maxDate>
    <latitude>38.466667</latitude>
    <longitude>-75.766667</longitude>
    <elevation>7.6</elevation>
    <locationLabels>
      <type>CNTRY</type>
      <id>FIPS:US</id>
      <displayName>United States</displayName>
    </locationLabels>
    <coverage>0.9402</coverage>
  </station>
  <station>
    <id>GHCND:USC00334915</id>
    <displayName>MARENGO 1 NW, OH US</displayName>
    <minDate>1975-10-01</minDate>
    <maxDate>1981-11-02</maxDate>
    <latitude>40.41667</latitude>
    <longitude>-82.81667</longitude>
    <elevation>338.9</elevation>
    <locationLabels>
      <type>CNTRY</type>
      <id>FIPS:US</id>
      <displayName>United States</displayName>
    </locationLabels>
    <coverage>0.729</coverage>
  </station>
  <station>
    <id>GHCND:US1IAIA0002</id>
    <displayName>MARENGO 2.6 SSW, IA US</displayName>
    <minDate>2010-03-10</minDate>
    <maxDate>2013-01-16</maxDate>
    <latitude>41.7621</latitude>
    <longitude>-92.0847</longitude>
    <elevation>246.9</elevation>
    <locationLabels>
      <type>CNTRY</type>
      <id>FIPS:US</id>
      <displayName>United States</displayName>
    </locationLabels>
    <coverage>0.8324</coverage>
  </station>
  <station>
    <id>GHCND:US1INCW0007</id>
    <displayName>MARENGO 3.6 S, IN US</displayName>
    <minDate>2012-06-12</minDate>
    <maxDate>2013-01-13</maxDate>
    <latitude>38.3199</latitude>
    <longitude>-86.3541</longitude>
    <elevation>255.1</elevation>
    <locationLabels>
      <type>CNTRY</type>
      <id>FIPS:US</id>
      <displayName>United States</displayName>
    </locationLabels>
    <coverage>0.7176</coverage>
  </station>
  <station>
    <id>GHCND:USC00135150</id>
    <displayName>MARENGO, IA US</displayName>
    <minDate>2011-06-09</minDate>
    <maxDate>2012-11-30</maxDate>
    <latitude>41.79</latitude>
    <longitude>-92.044</longitude>
    <elevation>228.6</elevation>
    <locationLabels>
      <type>CNTRY</type>
      <id>FIPS:US</id>
      <displayName>United States</displayName>
    </locationLabels>
    <coverage>0.4067</coverage>
  </station>
  <station>
    <id>GHCND:USC00115326</id>
    <displayName>MARENGO, IL US</displayName>
    <minDate>1893-01-01</minDate>
    <maxDate>2013-01-16</maxDate>
    <latitude>42.2637</latitude>
    <longitude>-88.6079</longitude>
    <elevation>248.4</elevation>
    <locationLabels>
      <type>CNTRY</type>
      <id>FIPS:US</id>
      <displayName>United States</displayName>
    </locationLabels>
    <coverage>0.9559</coverage>
  </station>
  <station>
    <id>GHCND:USC00125322</id>
    <displayName>MARENGO, IN US</displayName>
    <minDate>1893-01-01</minDate>
    <maxDate>2012-11-30</maxDate>
    <latitude>38.3755</latitude>
    <longitude>-86.3397</longitude>
    <elevation>176.8</elevation>
    <locationLabels>
      <type>CNTRY</type>
      <id>FIPS:US</id>
      <displayName>United States</displayName>
    </locationLabels>
    <coverage>0.4358</coverage>
  </station>
  <station>
    <id>GHCND:US1MIGG0001</id>
    <displayName>MARENISCO 8.0 SSW, MI US</displayName>
    <minDate>2008-07-01</minDate>
    <maxDate>2012-10-05</maxDate>
    <latitude>46.2615</latitude>
    <longitude>-89.7177</longitude>
    <elevation>505.4</elevation>
    <locationLabels>
      <type>CNTRY</type>
      <id>FIPS:US</id>
      <displayName>United States</displayName>
    </locationLabels>
    <coverage>0.2657</coverage>
  </station>
  <station>
    <id>GHCND:USC00415593</id>
    <displayName>MARFA 19 S, TX US</displayName>
    <minDate>1950-12-01</minDate>
    <maxDate>1961-10-31</maxDate>
    <latitude>30.03333</latitude>
    <longitude>-104.01667</longitude>
    <elevation>1342</elevation>
    <locationLabels>
      <type>CNTRY</type>
      <id>FIPS:US</id>
      <displayName>United States</displayName>
    </locationLabels>
    <coverage>0.6627</coverage>
  </station>
  <station>
    <id>GHCND:USC00415596</id>
    <displayName>MARFA 2, TX US</displayName>
    <minDate>1958-12-01</minDate>
    <maxDate>2009-07-31</maxDate>
    <latitude>30.3125</latitude>
    <longitude>-104.07222</longitude>
    <elevation>1460</elevation>
    <locationLabels>
      <type>CNTRY</type>
      <id>FIPS:US</id>
      <displayName>United States</displayName>
    </locationLabels>
    <coverage>0.8787</coverage>
  </station>
  <station>
    <id>GHCND:USC00415591</id>
    <displayName>MARFA CHARCO M R, TX US</displayName>
    <minDate>1949-02-01</minDate>
    <maxDate>1951-09-30</maxDate>
    <latitude>30.48333</latitude>
    <longitude>-104.11667</longitude>
    <elevation>1615.4</elevation>
    <locationLabels>
      <type>CNTRY</type>
      <id>FIPS:US</id>
      <displayName>United States</displayName>
    </locationLabels>
    <coverage>0.9897</coverage>
  </station>
  <station>
    <id>GHCND:USC00418400</id>
    <displayName>MARFA CHARCO M R, TX US</displayName>
    <minDate>1948-06-01</minDate>
    <maxDate>1948-12-31</maxDate>
    <latitude>30.48333</latitude>
    <longitude>-104.11667</longitude>
    <elevation>1615.4</elevation>
    <locationLabels>
      <type>CNTRY</type>
      <id>FIPS:US</id>
      <displayName>United States</displayName>
    </locationLabels>
    <coverage>0.9346</coverage>
  </station>
  <station>
    <id>GHCND:USC00415594</id>
    <displayName>MARFA RYAN, TX US</displayName>
    <minDate>1951-05-01</minDate>
    <maxDate>1951-09-30</maxDate>
    <latitude>30.36667</latitude>
    <longitude>-104.31667</longitude>
    <elevation>1434.1</elevation>
    <locationLabels>
      <type>CNTRY</type>
      <id>FIPS:US</id>
      <displayName>United States</displayName>
    </locationLabels>
    <coverage>0.9281</coverage>
  </station>
  <station>
    <id>GHCND:USC00415589</id>
    <displayName>MARFA, TX US</displayName>
    <minDate>1907-06-01</minDate>
    <maxDate>1954-12-31</maxDate>
    <latitude>30.25</latitude>
    <longitude>-103.88333</longitude>
    <elevation>1481</elevation>
    <locationLabels>
      <type>CNTRY</type>
      <id>FIPS:US</id>
      <displayName>United States</displayName>
    </locationLabels>
    <coverage>0.2869</coverage>
  </station>
  <station>
    <id>GHCND:US1NYDL0008</id>
    <displayName>MARGARETVILLE 1.7 ENE, NY US</displayName>
    <minDate>2005-05-01</minDate>
    <maxDate>2012-12-30</maxDate>
    <latitude>42.1496</latitude>
    <longitude>-74.6189</longitude>
    <elevation>427</elevation>
    <locationLabels>
      <type>CNTRY</type>
      <id>FIPS:US</id>
      <displayName>United States</displayName>
    </locationLabels>
    <coverage>0.2835</coverage>
  </station>
  <station>
    <id>GHCND:US1ARLE0001</id>
    <displayName>MARIANNA 3.1 WNW, AR US</displayName>
    <minDate>2009-04-13</minDate>
    <maxDate>2013-01-16</maxDate>
    <latitude>34.7841</latitude>
    <longitude>-90.8199</longitude>
    <elevation>64.3</elevation>
    <locationLabels>
      <type>CNTRY</type>
      <id>FIPS:US</id>
      <displayName>United States</displayName>
    </locationLabels>
    <coverage>0.8051</coverage>
  </station>
  <station>
    <id>GHCND:US1FLJK0003</id>
    <displayName>MARIANNA 3.9 E, FL US</displayName>
    <minDate>2011-07-06</minDate>
    <maxDate>2013-01-16</maxDate>
    <latitude>30.7737</latitude>
    <longitude>-85.1747</longitude>
    <elevation>36</elevation>
    <locationLabels>
      <type>CNTRY</type>
      <id>FIPS:US</id>
      <displayName>United States</displayName>
    </locationLabels>
    <coverage>0.7807</coverage>
  </station>
  <station>
    <id>GHCND:USC00085377</id>
    <displayName>MARIANNA 7 NE, FL US</displayName>
    <minDate>2001-11-01</minDate>
    <maxDate>2013-01-16</maxDate>
    <latitude>30.7341</latitude>
    <longitude>-85.0305</longitude>
    <elevation>35.1</elevation>
    <locationLabels>
      <type>CNTRY</type>
      <id>FIPS:US</id>
      <displayName>United States</displayName>
    </locationLabels>
    <coverage>0.7797</coverage>
  </station>
  <station>
    <id>GHCND:USW00003818</id>
    <displayName>MARIANNA MUNICIPAL AIRPORT, FL US</displayName>
    <minDate>1950-01-01</minDate>
    <maxDate>2013-01-14</maxDate>
    <latitude>30.83556</latitude>
    <longitude>-85.18389</longitude>
    <elevation>34.4</elevation>
    <locationLabels>
      <type>CNTRY</type>
      <id>FIPS:US</id>
      <displayName>United States</displayName>
    </locationLabels>
    <coverage>0.3958</coverage>
  </station>
  <station>
    <id>GHCND:USC00085372</id>
    <displayName>MARIANNA SCHOOL FOR, FL US</displayName>
    <minDate>1900-04-22</minDate>
    <maxDate>1968-06-30</maxDate>
    <latitude>30.76667</latitude>
    <longitude>-85.26667</longitude>
    <elevation>52.1</elevation>
    <locationLabels>
      <type>CNTRY</type>
      <id>FIPS:US</id>
      <displayName>United States</displayName>
    </locationLabels>
    <coverage>0.9647</coverage>
  </station>
  <station>
    <id>GHCND:USC00034638</id>
    <displayName>MARIANNA, AR US</displayName>
    <minDate>1899-03-01</minDate>
    <maxDate>2013-01-16</maxDate>
    <latitude>34.7391</latitude>
    <longitude>-90.7663</longitude>
    <elevation>71.3</elevation>
    <locationLabels>
      <type>CNTRY</type>
      <id>FIPS:US</id>
      <displayName>United States</displayName>
    </locationLabels>
    <coverage>0.8731</coverage>
  </station>
  <station>
    <id>GHCND:USC00295453</id>
    <displayName>MARIANO LAKE, NM US</displayName>
    <minDate>1934-12-01</minDate>
    <maxDate>1938-06-30</maxDate>
    <latitude>35.6</latitude>
    <longitude>-108.45</longitude>
    <elevation>2194.6</elevation>
    <locationLabels>
      <type>CNTRY</type>
      <id>FIPS:US</id>
      <displayName>United States</displayName>
    </locationLabels>
    <coverage>0.9755</coverage>
  </station>
  <station>
    <id>GHCND:US1MEHN0004</id>
    <displayName>MARIAVILLE 1.4 ESE, ME US</displayName>
    <minDate>2009-11-15</minDate>
    <maxDate>2013-01-16</maxDate>
    <latitude>44.7181</latitude>
    <longitude>-68.3881</longitude>
    <elevation>32.9</elevation>
    <locationLabels>
      <type>CNTRY</type>
      <id>FIPS:US</id>
      <displayName>United States</displayName>
    </locationLabels>
    <coverage>0.9698</coverage>
  </station>
  <station>
    <id>GHCND:RQC00665908</id>
    <displayName>MARICAO 2 SSW, PR US</displayName>
    <minDate>1969-05-01</minDate>
    <maxDate>2012-11-30</maxDate>
    <latitude>18.1511</latitude>
    <longitude>-66.9888</longitude>
    <elevation>863.2</elevation>
    <locationLabels>
      <type>CNTRY</type>
      <id>FIPS:US</id>
      <displayName>United States</displayName>
    </locationLabels>
    <coverage>0.8927</coverage>
  </station>
  <station>
    <id>GHCND:RQC00665911</id>
    <displayName>MARICAO FISH HATCHERY, PR US</displayName>
    <minDate>1955-01-01</minDate>
    <maxDate>2012-08-08</maxDate>
    <latitude>18.1725</latitude>
    <longitude>-66.9872</longitude>
    <elevation>457.2</elevation>
    <locationLabels>
      <type>CNTRY</type>
      <id>FIPS:US</id>
      <displayName>United States</displayName>
    </locationLabels>
    <coverage>0.9256</coverage>
  </station>
  <station>
    <id>GHCND:RQC00665906</id>
    <displayName>MARICAO, PR US</displayName>
    <minDate>1955-01-01</minDate>
    <maxDate>1969-04-30</maxDate>
    <latitude>18.18333</latitude>
    <longitude>-66.98333</longitude>
    <elevation>456.9</elevation>
    <locationLabels>
      <type>CNTRY</type>
      <id>FIPS:US</id>
      <displayName>United States</displayName>
    </locationLabels>
    <coverage>0.9647</coverage>
  </station>
  <station>
    <id>GHCND:US1AZPN0015</id>
    <displayName>MARICOPA 0.8 SSE, AZ US</displayName>
    <minDate>2009-10-01</minDate>
    <maxDate>2012-09-12</maxDate>
    <latitude>33.0469</latitude>
    <longitude>-112.0423</longitude>
    <elevation>360</elevation>
    <locationLabels>
      <type>CNTRY</type>
      <id>FIPS:US</id>
      <displayName>United States</displayName>
    </locationLabels>
    <coverage>0.8729</coverage>
  </station>
  <station>
    <id>GHCND:USC00025270</id>
    <displayName>MARICOPA 4 N, AZ US</displayName>
    <minDate>1960-02-27</minDate>
    <maxDate>2013-01-15</maxDate>
    <latitude>33.1139</latitude>
    <longitude>-112.0303</longitude>
    <elevation>353.6</elevation>
    <locationLabels>
      <type>CNTRY</type>
      <id>FIPS:US</id>
      <displayName>United States</displayName>
    </locationLabels>
    <coverage>0.9982</coverage>
  </station>
  <station>
    <id>GHCND:USC00025274</id>
    <displayName>MARICOPA 9 SSW, AZ US</displayName>
    <minDate>1898-06-01</minDate>
    <maxDate>1958-12-31</maxDate>
    <latitude>32.91667</latitude>
    <longitude>-112.1</longitude>
    <elevation>427</elevation>
    <locationLabels>
      <type>CNTRY</type>
      <id>FIPS:US</id>
      <displayName>United States</displayName>
    </locationLabels>
    <coverage>0.8623</coverage>
  </station>
  <station>
    <id>GHCND:USC00045338</id>
    <displayName>MARICOPA, CA US</displayName>
    <minDate>1911-09-01</minDate>
    <maxDate>1993-07-31</maxDate>
    <latitude>35.08333</latitude>
    <longitude>-119.38333</longitude>
    <elevation>205.7</elevation>
    <locationLabels>
      <type>CNTRY</type>
      <id>FIPS:US</id>
      <displayName>United States</displayName>
    </locationLabels>
    <coverage>0.9502</coverage>
  </station>
  <station>
    <id>GHCND:US1KSWH0003</id>
    <displayName>MARIENTHAL 10.5 N, KS US</displayName>
    <minDate>2009-05-26</minDate>
    <maxDate>2013-01-01</maxDate>
    <latitude>38.6416</latitude>
    <longitude>-101.2195</longitude>
    <elevation>984.2</elevation>
    <locationLabels>
      <type>CNTRY</type>
      <id>FIPS:US</id>
      <displayName>United States</displayName>
    </locationLabels>
    <coverage>0.9795</coverage>
  </station>
  <station>
    <id>GHCND:USC00365400</id>
    <displayName>MARIENVILLE 2 NE, PA US</displayName>
    <minDate>1948-05-01</minDate>
    <maxDate>1951-09-30</maxDate>
    <latitude>41.48333</latitude>
    <longitude>-79.1</longitude>
    <elevation>542.2</elevation>
    <locationLabels>
      <type>CNTRY</type>
      <id>FIPS:US</id>
      <displayName>United States</displayName>
    </locationLabels>
    <coverage>0.9527</coverage>
  </station>
  <station>
    <id>GHCND:US1SCGV0022</id>
    <displayName>MARIETTA 1.8 SW, SC US</displayName>
    <minDate>2008-07-09</minDate>
    <maxDate>2012-09-14</maxDate>
    <latitude>35.011</latitude>
    <longitude>-82.5313</longitude>
    <elevation>354.5</elevation>
    <locationLabels>
      <type>CNTRY</type>
      <id>FIPS:US</id>
      <displayName>United States</displayName>
    </locationLabels>
    <coverage>0.3074</coverage>
  </station>
  <station>
    <id>GHCND:USC00455028</id>
    <displayName>MARIETTA 3 NNW, WA US</displayName>
    <minDate>1913-12-01</minDate>
    <maxDate>1958-07-17</maxDate>
    <latitude>48.83333</latitude>
    <longitude>-122.6</longitude>
    <elevation>6.1</elevation>
    <locationLabels>
      <type>CNTRY</type>
      <id>FIPS:US</id>
      <displayName>United States</displayName>
    </locationLabels>
    <coverage>0.9909</coverage>
  </station>
  <station>
    <id>GHCND:USC00345563</id>
    <displayName>MARIETTA 5 SW, OK US</displayName>
    <minDate>1937-09-01</minDate>
    <maxDate>2013-01-04</maxDate>
    <latitude>33.8762</latitude>
    <longitude>-97.1641</longitude>
    <elevation>244.4</elevation>
    <locationLabels>
      <type>CNTRY</type>
      <id>FIPS:US</id>
      <displayName>United States</displayName>
    </locationLabels>
    <coverage>0.9767</coverage>
  </station>
  <station>
    <id>GHCND:US1GACB0014</id>
    <displayName>MARIETTA 5.2 SW, GA US</displayName>
    <minDate>2009-04-20</minDate>
    <maxDate>2013-01-16</maxDate>
    <latitude>33.8907</latitude>
    <longitude>-84.5946</longitude>
    <elevation>288</elevation>
    <locationLabels>
      <type>CNTRY</type>
      <id>FIPS:US</id>
      <displayName>United States</displayName>
    </locationLabels>
    <coverage>0.8889</coverage>
  </station>
  <station>
    <id>GHCND:US1GACB0001</id>
    <displayName>MARIETTA 7.0 NNE, GA US</displayName>
    <minDate>1998-06-17</minDate>
    <maxDate>2013-01-16</maxDate>
    <latitude>34.0393</latitude>
    <longitude>-84.4827</longitude>
    <elevation>319.4</elevation>
    <locationLabels>
      <type>CNTRY</type>
      <id>FIPS:US</id>
      <displayName>United States</displayName>
    </locationLabels>
    <coverage>0.2384</coverage>
  </station>
  <station>
    <id>GHCND:US1GACB0028</id>
    <displayName>MARIETTA 8.2 NNE, GA US</displayName>
    <minDate>2012-04-01</minDate>
    <maxDate>2013-01-02</maxDate>
    <latitude>34.0657</latitude>
    <longitude>-84.5072</longitude>
    <elevation>287.1</elevation>
    <locationLabels>
      <type>CNTRY</type>
      <id>FIPS:US</id>
      <displayName>United States</displayName>
    </locationLabels>
    <coverage>0.6679</coverage>
  </station>
  <station>
    <id>GHCND:US1GACB0016</id>
    <displayName>MARIETTA 8.3 NE, GA US</displayName>
    <minDate>2009-03-04</minDate>
    <maxDate>2013-01-16</maxDate>
    <latitude>33.9993</latitude>
    <longitude>-84.4025</longitude>
    <elevation>283.5</elevation>
    <locationLabels>
      <type>CNTRY</type>
      <id>FIPS:US</id>
      <displayName>United States</displayName>
    </locationLabels>
    <coverage>0.9611</coverage>
  </station>
  <station>
    <id>GHCND:US1GACB0024</id>
    <displayName>MARIETTA 9.0 NNE, GA US</displayName>
    <minDate>2011-12-31</minDate>
    <maxDate>2013-01-16</maxDate>
    <latitude>34.0746</latitude>
    <longitude>-84.4908</longitude>
    <elevation>310.9</elevation>
    <locationLabels>
      <type>CNTRY</type>
      <id>FIPS:US</id>
      <displayName>United States</displayName>
    </locationLabels>
    <coverage>0.8747</coverage>
  </station>
  <station>
    <id>GHCND:USW00013864</id>
    <displayName>MARIETTA DOBBINS AFB, GA US</displayName>
    <minDate>1949-01-01</minDate>
    <maxDate>1970-12-31</maxDate>
    <latitude>33.91667</latitude>
    <longitude>-84.51667</longitude>
    <elevation>325.5</elevation>
    <locationLabels>
      <type>CNTRY</type>
      <id>FIPS:US</id>
      <displayName>United States</displayName>
    </locationLabels>
    <coverage>0.9998</coverage>
  </station>
  <station>
    <id>GHCND:USC00334926</id>
    <displayName>MARIETTA EXPERIMENT FARM, OH US</displayName>
    <minDate>1896-04-01</minDate>
    <maxDate>1928-06-30</maxDate>
    <latitude>39.48333</latitude>
    <longitude>-82.48333</longitude>
    <elevation>207.3</elevation>
    <locationLabels>
      <type>CNTRY</type>
      <id>FIPS:US</id>
      <displayName>United States</displayName>
    </locationLabels>
    <coverage>0.4424</coverage>
  </station>
  <station>
    <id>GHCND:USC00334924</id>
    <displayName>MARIETTA LOCK 1, OH US</displayName>
    <minDate>1931-07-01</minDate>
    <maxDate>2012-11-30</maxDate>
    <latitude>39.4108</latitude>
    <longitude>-81.4536</longitude>
    <elevation>185.9</elevation>
    <locationLabels>
      <type>CNTRY</type>
      <id>FIPS:US</id>
      <displayName>United States</displayName>
    </locationLabels>
    <coverage>0.9388</coverage>
  </station>
  <station>
    <id>GHCND:USC00334929</id>
    <displayName>MARIETTA WATER WORKS, OH US</displayName>
    <minDate>1893-06-01</minDate>
    <maxDate>1963-02-17</maxDate>
    <latitude>39.43333</latitude>
    <longitude>-81.46667</longitude>
    <elevation>253</elevation>
    <locationLabels>
      <type>CNTRY</type>
      <id>FIPS:US</id>
      <displayName>United States</displayName>
    </locationLabels>
    <coverage>0.8794</coverage>
  </station>
  <station>
    <id>GHCND:USC00334927</id>
    <displayName>MARIETTA WWTP, OH US</displayName>
    <minDate>1963-03-01</minDate>
    <maxDate>2013-01-16</maxDate>
    <latitude>39.4087</latitude>
    <longitude>-81.4329</longitude>
    <elevation>176.8</elevation>
    <locationLabels>
      <type>CNTRY</type>
      <id>FIPS:US</id>
      <displayName>United States</displayName>
    </locationLabels>
    <coverage>0.9953</coverage>
  </station>
  <station>
    <id>GHCND:USC00095525</id>
    <displayName>MARIETTA, GA US</displayName>
    <minDate>1891-10-04</minDate>
    <maxDate>1928-03-31</maxDate>
    <latitude>33.95</latitude>
    <longitude>-84.55</longitude>
    <elevation>342.9</elevation>
    <locationLabels>
      <type>CNTRY</type>
      <id>FIPS:US</id>
      <displayName>United States</displayName>
    </locationLabels>
    <coverage>0.3522</coverage>
  </station>
  <station>
    <id>GHCND:USC00115334</id>
    <displayName>MARIETTA, IL US</displayName>
    <minDate>1948-07-01</minDate>
    <maxDate>2010-12-31</maxDate>
    <latitude>40.501</latitude>
    <longitude>-90.3915</longitude>
    <elevation>195.1</elevation>
    <locationLabels>
      <type>CNTRY</type>
      <id>FIPS:US</id>
      <displayName>United States</displayName>
    </locationLabels>
    <coverage>0.0974</coverage>
  </station>
  <station>
    <id>GHCND:US1CAMT0021</id>
    <displayName>MARINA 0.8 SSE, CA US</displayName>
    <minDate>2009-12-01</minDate>
    <maxDate>2013-01-14</maxDate>
    <latitude>36.6732</latitude>
    <longitude>-121.7841</longitude>
    <elevation>36</elevation>
    <locationLabels>
      <type>CNTRY</type>
      <id>FIPS:US</id>
      <displayName>United States</displayName>
    </locationLabels>
    <coverage>0.6687</coverage>
  </station>
  <station>
    <id>GHCND:USC00205148</id>
    <displayName>MARINE CITY, MI US</displayName>
    <minDate>1903-06-01</minDate>
    <maxDate>1906-01-31</maxDate>
    <latitude>42.71944</latitude>
    <longitude>-82.49222</longitude>
    <elevation>178</elevation>
    <locationLabels>
      <type>CNTRY</type>
      <id>FIPS:US</id>
      <displayName>United States</displayName>
    </locationLabels>
    <coverage>0.9775</coverage>
  </station>
  <station>
    <id>GHCND:US1MNWG0006</id>
    <displayName>MARINE ON SAINT CROIX 3.7 NNW, MN US</displayName>
    <minDate>2010-02-07</minDate>
    <maxDate>2013-01-02</maxDate>
    <latitude>45.2458</latitude>
    <longitude>-92.8127</longitude>
    <elevation>310.6</elevation>
    <locationLabels>
      <type>CNTRY</type>
      <id>FIPS:US</id>
      <displayName>United States</displayName>
    </locationLabels>
    <coverage>0.9548</coverage>
  </station>
  <station>
    <id>GHCND:US1MNWG0017</id>
    <displayName>MARINE ON SAINT CROIX 4.9 W, MN US</displayName>
    <minDate>2011-04-04</minDate>
    <maxDate>2011-10-14</maxDate>
    <latitude>45.2022</latitude>
    <longitude>-92.8814</longitude>
    <elevation>299.3</elevation>
    <locationLabels>
      <type>CNTRY</type>
      <id>FIPS:US</id>
      <displayName>United States</displayName>
    </locationLabels>
    <coverage>0.6598</coverage>
  </station>
  <station>
    <id>GHCND:USC00085391</id>
    <displayName>MARINELAND, FL US</displayName>
    <minDate>1948-08-01</minDate>
    <maxDate>1951-09-30</maxDate>
    <latitude>29.67</latitude>
    <longitude>-81.215</longitude>
    <elevation>1.5</elevation>
    <locationLabels>
      <type>CNTRY</type>
      <id>FIPS:US</id>
      <displayName>United States</displayName>
    </locationLabels>
    <coverage>0.9619</coverage>
  </station>
  <station>
    <id>GHCND:USC00025282</id>
    <displayName>MARINETTE, AZ US</displayName>
    <minDate>1913-07-19</minDate>
    <maxDate>1964-09-30</maxDate>
    <latitude>33.63333</latitude>
    <longitude>-112.3</longitude>
    <elevation>351.1</elevation>
    <locationLabels>
      <type>CNTRY</type>
      <id>FIPS:US</id>
      <displayName>United States</displayName>
    </locationLabels>
    <coverage>0.7675</coverage>
  </station>
  <station>
    <id>GHCND:USC00475091</id>
    <displayName>MARINETTE, WI US</displayName>
    <minDate>1919-02-01</minDate>
    <maxDate>2013-01-16</maxDate>
    <latitude>45.09833</latitude>
    <longitude>-87.62361</longitude>
    <elevation>179.5</elevation>
    <locationLabels>
      <type>CNTRY</type>
      <id>FIPS:US</id>
      <displayName>United States</displayName>
    </locationLabels>
    <coverage>0.9927</coverage>
  </station>
  <station>
    <id>GHCND:US1NCMD0003</id>
    <displayName>MARION 0.4 WNW, NC US</displayName>
    <minDate>2010-01-26</minDate>
    <maxDate>2012-06-12</maxDate>
    <latitude>35.6839</latitude>
    <longitude>-82.0155</longitude>
    <elevation>466.3</elevation>
    <locationLabels>
      <type>CNTRY</type>
      <id>FIPS:US</id>
      <displayName>United States</displayName>
    </locationLabels>
    <coverage>0.1381</coverage>
  </station>
  <station>
    <id>GHCND:US1SDTR0003</id>
    <displayName>MARION 0.5 NE, SD US</displayName>
    <minDate>2007-07-18</minDate>
    <maxDate>2013-01-16</maxDate>
    <latitude>43.4282</latitude>
    <longitude>-97.2533</longitude>
    <elevation>440.1</elevation>
    <locationLabels>
      <type>CNTRY</type>
      <id>FIPS:US</id>
      <displayName>United States</displayName>
    </locationLabels>
    <coverage>0.99</coverage>
  </station>
  <station>
    <id>GHCND:USC00155150</id>
    <displayName>MARION 1 NE, KY US</displayName>
    <minDate>1981-10-01</minDate>
    <maxDate>2013-01-16</maxDate>
    <latitude>37.3441</latitude>
    <longitude>-88.0658</longitude>
    <elevation>164.6</elevation>
    <locationLabels>
      <type>CNTRY</type>
      <id>FIPS:US</id>
      <displayName>United States</displayName>
    </locationLabels>
    <coverage>0.9781</coverage>
  </station>
  <station>
    <id>GHCND:USC00385514</id>
    <displayName>MARION 1 WNW, SC US</displayName>
    <minDate>1948-08-01</minDate>
    <maxDate>1951-09-30</maxDate>
    <latitude>34.18333</latitude>
    <longitude>-79.41667</longitude>
    <elevation>21</elevation>
    <locationLabels>
      <type>CNTRY</type>
      <id>FIPS:US</id>
      <displayName>United States</displayName>
    </locationLabels>
    <coverage>0.9438</coverage>
  </station>
  <station>
    <id>GHCND:US1MTFH0012</id>
    <displayName>MARION 1.1 SE, MT US</displayName>
    <minDate>2008-04-29</minDate>
    <maxDate>2013-01-15</maxDate>
    <latitude>48.0955</latitude>
    <longitude>-114.6429</longitude>
    <elevation>1236</elevation>
    <locationLabels>
      <type>CNTRY</type>
      <id>FIPS:US</id>
      <displayName>United States</displayName>
    </locationLabels>
    <coverage>0.8433</coverage>
  </station>
  <station>
    <id>GHCND:US1IALN0009</id>
    <displayName>MARION 1.2 NE, IA US</displayName>
    <minDate>2007-08-30</minDate>
    <maxDate>2013-01-16</maxDate>
    <latitude>42.0478</latitude>
    <longitude>-91.5743</longitude>
    <elevation>262.1</elevation>
    <locationLabels>
      <type>CNTRY</type>
      <id>FIPS:US</id>
      <displayName>United States</displayName>
    </locationLabels>
    <coverage>0.9675</coverage>
  </station>
  <station>
    <id>GHCND:US1INGR0016</id>
    <displayName>MARION 1.6 ENE, IN US</displayName>
    <minDate>2009-06-16</minDate>
    <maxDate>2009-12-18</maxDate>
    <latitude>40.5557</latitude>
    <longitude>-85.6375</longitude>
    <elevation>256.9</elevation>
    <locationLabels>
      <type>CNTRY</type>
      <id>FIPS:US</id>
      <displayName>United States</displayName>
    </locationLabels>
    <coverage>0.9194</coverage>
  </station>
  <station>
    <id>GHCND:US1INGR0019</id>
    <displayName>MARION 1.8 N, IN US</displayName>
    <minDate>2010-11-08</minDate>
    <maxDate>2013-01-13</maxDate>
    <latitude>40.5746</latitude>
    <longitude>-85.6653</longitude>
    <elevation>259.1</elevation>
    <locationLabels>
      <type>CNTRY</type>
      <id>FIPS:US</id>
      <displayName>United States</displayName>
    </locationLabels>
    <coverage>0.4323</coverage>
  </station>
  <station>
    <id>GHCND:US1INGR0002</id>
    <displayName>MARION 1.8 NW, IN US</displayName>
    <minDate>2007-10-31</minDate>
    <maxDate>2009-07-29</maxDate>
    <latitude>40.5662</latitude>
    <longitude>-85.6922</longitude>
    <elevation>260.9</elevation>
    <locationLabels>
      <type>CNTRY</type>
      <id>FIPS:US</id>
      <displayName>United States</displayName>
    </locationLabels>
    <coverage>0.5188</coverage>
  </station>
  <station>
    <id>GHCND:US1OHMR0001</id>
    <displayName>MARION 1.9 ESE, OH US</displayName>
    <minDate>2009-02-08</minDate>
    <maxDate>2009-09-22</maxDate>
    <latitude>40.5697</latitude>
    <longitude>-83.0969</longitude>
    <elevation>292</elevation>
    <locationLabels>
      <type>CNTRY</type>
      <id>FIPS:US</id>
      <displayName>United States</displayName>
    </locationLabels>
    <coverage>1</coverage>
  </station>
  <station>
    <id>GHCND:US1ILWM0001</id>
    <displayName>MARION 1.9 W, IL US</displayName>
    <minDate>2007-03-05</minDate>
    <maxDate>2008-08-10</maxDate>
    <latitude>37.7329</latitude>
    <longitude>-88.9758</longitude>
    <elevation>132</elevation>
    <locationLabels>
      <type>CNTRY</type>
      <id>FIPS:US</id>
      <displayName>United States</displayName>
    </locationLabels>
    <coverage>0.5981</coverage>
  </station>
  <station>
    <id>GHCND:US1ILWM0005</id>
    <displayName>MARION 1.9 W, IL US</displayName>
    <minDate>2008-08-27</minDate>
    <maxDate>2010-06-16</maxDate>
    <latitude>37.7322</latitude>
    <longitude>-88.9755</longitude>
    <elevation>132.9</elevation>
    <locationLabels>
      <type>CNTRY</type>
      <id>FIPS:US</id>
      <displayName>United States</displayName>
    </locationLabels>
    <coverage>0.6783</coverage>
  </station>
  <station>
    <id>GHCND:US1INGR0014</id>
    <displayName>MARION 1.9 W, IN US</displayName>
    <minDate>2009-06-01</minDate>
    <maxDate>2012-11-14</maxDate>
    <latitude>40.5523</latitude>
    <longitude>-85.7024</longitude>
    <elevation>258.8</elevation>
    <locationLabels>
      <type>CNTRY</type>
      <id>FIPS:US</id>
      <displayName>United States</displayName>
    </locationLabels>
    <coverage>0.498</coverage>
  </station>
  <station>
    <id>GHCND:USC00225467</id>
    <displayName>MARION 2 E, MS US</displayName>
    <minDate>1948-06-03</minDate>
    <maxDate>1951-09-30</maxDate>
    <latitude>32.41667</latitude>
    <longitude>-88.63333</longitude>
    <elevation>121.9</elevation>
    <locationLabels>
      <type>CNTRY</type>
      <id>FIPS:US</id>
      <displayName>United States</displayName>
    </locationLabels>
    <coverage>0.9292</coverage>
  </station>
  <station>
    <id>GHCND:USC00125337</id>
    <displayName>MARION 2 N, IN US</displayName>
    <minDate>1893-01-01</minDate>
    <maxDate>2013-01-16</maxDate>
    <latitude>40.58</latitude>
    <longitude>-85.6586</longitude>
    <elevation>240.8</elevation>
    <locationLabels>
      <type>CNTRY</type>
      <id>FIPS:US</id>
      <displayName>United States</displayName>
    </locationLabels>
    <coverage>0.9961</coverage>
  </station>
  <station>
    <id>GHCND:USC00334942</id>
    <displayName>MARION 2 N, OH US</displayName>
    <minDate>1936-01-01</minDate>
    <maxDate>2012-11-30</maxDate>
    <latitude>40.6167</latitude>
    <longitude>-83.1333</longitude>
    <elevation>294.1</elevation>
    <locationLabels>
      <type>CNTRY</type>
      <id>FIPS:US</id>
      <displayName>United States</displayName>
    </locationLabels>
    <coverage>0.9799</coverage>
  </station>
  <station>
    <id>GHCND:USC00315340</id>
    <displayName>MARION 2 NW, NC US</displayName>
    <minDate>1893-01-01</minDate>
    <maxDate>2013-01-14</maxDate>
    <latitude>35.7073</latitude>
    <longitude>-82.0288</longitude>
    <elevation>435.9</elevation>
    <locationLabels>
      <type>CNTRY</type>
      <id>FIPS:US</id>
      <displayName>United States</displayName>
    </locationLabels>
    <coverage>0.9164</coverage>
  </station>
  <station>
    <id>GHCND:US1NYWN0009</id>
    <displayName>MARION 2.0 NE, NY US</displayName>
    <minDate>2009-06-01</minDate>
    <maxDate>2012-12-23</maxDate>
    <latitude>43.1667</latitude>
    <longitude>-77.1675</longitude>
    <elevation>145.7</elevation>
    <locationLabels>
      <type>CNTRY</type>
      <id>FIPS:US</id>
      <displayName>United States</displayName>
    </locationLabels>
    <coverage>0.4017</coverage>
  </station>
  <station>
    <id>GHCND:US1NCMD0002</id>
    <displayName>MARION 2.1 NNW, NC US</displayName>
    <minDate>2008-04-30</minDate>
    <maxDate>2013-01-14</maxDate>
    <latitude>35.708</latitude>
    <longitude>-82.029</longitude>
    <elevation>420.9</elevation>
    <locationLabels>
      <type>CNTRY</type>
      <id>FIPS:US</id>
      <displayName>United States</displayName>
    </locationLabels>
    <coverage>0.9227</coverage>
  </station>
  <station>
    <id>GHCND:US1INGR0004</id>
    <displayName>MARION 2.2 NNE, IN US</displayName>
    <minDate>2009-05-09</minDate>
    <maxDate>2010-06-22</maxDate>
    <latitude>40.5791</latitude>
    <longitude>-85.6556</longitude>
    <elevation>246.6</elevation>
    <locationLabels>
      <type>CNTRY</type>
      <id>FIPS:US</id>
      <displayName>United States</displayName>
    </locationLabels>
    <coverage>0.3463</coverage>
  </station>
  <station>
    <id>GHCND:US1TXGP0007</id>
    <displayName>MARION 2.2 SSW, TX US</displayName>
    <minDate>2007-10-08</minDate>
    <maxDate>2012-07-27</maxDate>
    <latitude>29.5435</latitude>
    <longitude>-98.1573</longitude>
    <elevation>194.5</elevation>
    <locationLabels>
      <type>CNTRY</type>
      <id>FIPS:US</id>
      <displayName>United States</displayName>
    </locationLabels>
    <coverage>0.9983</coverage>
  </station>
</stationCollection>
