<?xml version="1.0" encoding="UTF-8" standalone="yes"?>
<stationCollection totalCount="46020" pageCount="461" pageSize="100" page="239">
  <station>
    <id>GHCND:USC00314938</id>
    <displayName>LENOIR, NC US</displayName>
    <minDate>1871-11-01</minDate>
    <maxDate>2013-01-15</maxDate>
    <latitude>35.915</latitude>
    <longitude>-81.5377</longitude>
    <elevation>365.8</elevation>
    <locationLabels>
      <type>CNTRY</type>
      <id>FIPS:US</id>
      <displayName>United States</displayName>
    </locationLabels>
    <coverage>0.8583</coverage>
  </station>
  <station>
    <id>GHCND:US1KSNT0004</id>
    <displayName>LENORA 0.1 S, KS US</displayName>
    <minDate>2006-05-13</minDate>
    <maxDate>2007-01-13</maxDate>
    <latitude>39.6091</latitude>
    <longitude>-100.0007</longitude>
    <elevation>698</elevation>
    <locationLabels>
      <type>CNTRY</type>
      <id>FIPS:US</id>
      <displayName>United States</displayName>
    </locationLabels>
    <coverage>0.939</coverage>
  </station>
  <station>
    <id>GHCND:US1KSNT0001</id>
    <displayName>LENORA 16.7 E, KS US</displayName>
    <minDate>2005-03-03</minDate>
    <maxDate>2011-11-17</maxDate>
    <latitude>39.6542</latitude>
    <longitude>-99.7039</longitude>
    <elevation>627.9</elevation>
    <locationLabels>
      <type>CNTRY</type>
      <id>FIPS:US</id>
      <displayName>United States</displayName>
    </locationLabels>
    <coverage>0.4761</coverage>
  </station>
  <station>
    <id>GHCND:USC00144644</id>
    <displayName>LENORA NUMBER 2, KS US</displayName>
    <minDate>1992-01-01</minDate>
    <maxDate>1994-03-31</maxDate>
    <latitude>39.61667</latitude>
    <longitude>-100.01667</longitude>
    <elevation>684</elevation>
    <locationLabels>
      <type>CNTRY</type>
      <id>FIPS:US</id>
      <displayName>United States</displayName>
    </locationLabels>
    <coverage>1</coverage>
  </station>
  <station>
    <id>GHCND:USC00144642</id>
    <displayName>LENORA, KS US</displayName>
    <minDate>1913-05-01</minDate>
    <maxDate>2013-01-11</maxDate>
    <latitude>39.6092</latitude>
    <longitude>-100.0015</longitude>
    <elevation>688.8</elevation>
    <locationLabels>
      <type>CNTRY</type>
      <id>FIPS:US</id>
      <displayName>United States</displayName>
    </locationLabels>
    <coverage>0.716</coverage>
  </station>
  <station>
    <id>GHCND:USC00415158</id>
    <displayName>LENORAH, TX US</displayName>
    <minDate>1941-03-01</minDate>
    <maxDate>2013-01-16</maxDate>
    <latitude>32.308</latitude>
    <longitude>-101.8776</longitude>
    <elevation>867.2</elevation>
    <locationLabels>
      <type>CNTRY</type>
      <id>FIPS:US</id>
      <displayName>United States</displayName>
    </locationLabels>
    <coverage>0.9256</coverage>
  </station>
  <station>
    <id>GHCND:USC00485515</id>
    <displayName>LENORE, WY US</displayName>
    <minDate>1907-09-14</minDate>
    <maxDate>1920-04-30</maxDate>
    <latitude>43.316667</latitude>
    <longitude>-109.133333</longitude>
    <elevation>1780.6</elevation>
    <locationLabels>
      <type>CNTRY</type>
      <id>FIPS:US</id>
      <displayName>United States</displayName>
    </locationLabels>
    <coverage>0.5003</coverage>
  </station>
  <station>
    <id>GHCND:USC00194131</id>
    <displayName>LENOX DALE, MA US</displayName>
    <minDate>1996-08-01</minDate>
    <maxDate>2013-01-03</maxDate>
    <latitude>42.3356</latitude>
    <longitude>-73.2506</longitude>
    <elevation>306</elevation>
    <locationLabels>
      <type>CNTRY</type>
      <id>FIPS:US</id>
      <displayName>United States</displayName>
    </locationLabels>
    <coverage>0.9473</coverage>
  </station>
  <station>
    <id>GHCND:USC00134746</id>
    <displayName>LENOX, IA US</displayName>
    <minDate>1895-05-01</minDate>
    <maxDate>1951-09-30</maxDate>
    <latitude>40.8761</latitude>
    <longitude>-94.5613</longitude>
    <elevation>394.7</elevation>
    <locationLabels>
      <type>CNTRY</type>
      <id>FIPS:US</id>
      <displayName>United States</displayName>
    </locationLabels>
    <coverage>0.834</coverage>
  </station>
  <station>
    <id>GHCND:US1INAL0036</id>
    <displayName>LEO 2.2 NW, IN US</displayName>
    <minDate>2009-11-21</minDate>
    <maxDate>2013-01-16</maxDate>
    <latitude>41.2233</latitude>
    <longitude>-85.057</longitude>
    <elevation>241.4</elevation>
    <locationLabels>
      <type>CNTRY</type>
      <id>FIPS:US</id>
      <displayName>United States</displayName>
    </locationLabels>
    <coverage>0.9402</coverage>
  </station>
  <station>
    <id>GHCND:USC00485525</id>
    <displayName>LEO 6 SW, WY US</displayName>
    <minDate>1930-01-01</minDate>
    <maxDate>2012-11-30</maxDate>
    <latitude>42.1952</latitude>
    <longitude>-106.8555</longitude>
    <elevation>1839.5</elevation>
    <locationLabels>
      <type>CNTRY</type>
      <id>FIPS:US</id>
      <displayName>United States</displayName>
    </locationLabels>
    <coverage>0.9545</coverage>
  </station>
  <station>
    <id>GHCND:USR0000CLEO</id>
    <displayName>LEO CARRILLO CALIFORNIA, CA US</displayName>
    <minDate>1999-07-12</minDate>
    <maxDate>2012-08-30</maxDate>
    <latitude>34.0456</latitude>
    <longitude>-118.9358</longitude>
    <elevation>15.2</elevation>
    <locationLabels>
      <type>CNTRY</type>
      <id>FIPS:US</id>
      <displayName>United States</displayName>
    </locationLabels>
    <coverage>0.9464</coverage>
  </station>
  <station>
    <id>GHCND:USC00485520</id>
    <displayName>LEO, WY US</displayName>
    <minDate>1901-04-10</minDate>
    <maxDate>1913-04-30</maxDate>
    <latitude>42.25</latitude>
    <longitude>-106.666667</longitude>
    <elevation>2057.4</elevation>
    <locationLabels>
      <type>CNTRY</type>
      <id>FIPS:US</id>
      <displayName>United States</displayName>
    </locationLabels>
    <coverage>0.8619</coverage>
  </station>
  <station>
    <id>GHCND:USC00394893</id>
    <displayName>LEOLA SDSU, SD US</displayName>
    <minDate>2008-09-01</minDate>
    <maxDate>2013-01-16</maxDate>
    <latitude>45.723</latitude>
    <longitude>-98.9404</longitude>
    <elevation>485.9</elevation>
    <locationLabels>
      <type>CNTRY</type>
      <id>FIPS:US</id>
      <displayName>United States</displayName>
    </locationLabels>
    <coverage>0.9825</coverage>
  </station>
  <station>
    <id>GHCND:USC00034134</id>
    <displayName>LEOLA, AR US</displayName>
    <minDate>1943-09-20</minDate>
    <maxDate>2013-01-16</maxDate>
    <latitude>34.1743</latitude>
    <longitude>-92.5946</longitude>
    <elevation>77.7</elevation>
    <locationLabels>
      <type>CNTRY</type>
      <id>FIPS:US</id>
      <displayName>United States</displayName>
    </locationLabels>
    <coverage>0.9545</coverage>
  </station>
  <station>
    <id>GHCND:USC00394891</id>
    <displayName>LEOLA, SD US</displayName>
    <minDate>1899-05-01</minDate>
    <maxDate>2008-10-06</maxDate>
    <latitude>45.7192</latitude>
    <longitude>-98.9439</longitude>
    <elevation>481.6</elevation>
    <locationLabels>
      <type>CNTRY</type>
      <id>FIPS:US</id>
      <displayName>United States</displayName>
    </locationLabels>
    <coverage>0.7843</coverage>
  </station>
  <station>
    <id>GHCND:USC00364961</id>
    <displayName>LEOLYN, PA US</displayName>
    <minDate>1924-09-01</minDate>
    <maxDate>1925-10-31</maxDate>
    <latitude>41.6</latitude>
    <longitude>-76.883333</longitude>
    <elevation>402.3</elevation>
    <locationLabels>
      <type>CNTRY</type>
      <id>FIPS:US</id>
      <displayName>United States</displayName>
    </locationLabels>
    <coverage>0.7934</coverage>
  </station>
  <station>
    <id>GHCND:US1MAWR0013</id>
    <displayName>LEOMINSTER 1.5 S, MA US</displayName>
    <minDate>2011-04-23</minDate>
    <maxDate>2013-01-16</maxDate>
    <latitude>42.497</latitude>
    <longitude>-71.775</longitude>
    <elevation>179.5</elevation>
    <locationLabels>
      <type>CNTRY</type>
      <id>FIPS:US</id>
      <displayName>United States</displayName>
    </locationLabels>
    <coverage>0.9669</coverage>
  </station>
  <station>
    <id>GHCND:USC00194135</id>
    <displayName>LEOMINSTER, MA US</displayName>
    <minDate>1884-12-06</minDate>
    <maxDate>1935-09-29</maxDate>
    <latitude>42.533333</latitude>
    <longitude>-71.766667</longitude>
    <elevation>164.6</elevation>
    <locationLabels>
      <type>CNTRY</type>
      <id>FIPS:US</id>
      <displayName>United States</displayName>
    </locationLabels>
    <coverage>0.933</coverage>
  </station>
  <station>
    <id>GHCND:US1IADC0001</id>
    <displayName>LEON 5.8 SSW, IA US</displayName>
    <minDate>2007-08-09</minDate>
    <maxDate>2010-05-11</maxDate>
    <latitude>40.6597</latitude>
    <longitude>-93.7822</longitude>
    <elevation>328</elevation>
    <locationLabels>
      <type>CNTRY</type>
      <id>FIPS:US</id>
      <displayName>United States</displayName>
    </locationLabels>
    <coverage>0.1867</coverage>
  </station>
  <station>
    <id>GHCND:USC00134758</id>
    <displayName>LEON 6 ESE, IA US</displayName>
    <minDate>1962-01-01</minDate>
    <maxDate>2012-10-11</maxDate>
    <latitude>40.7244</latitude>
    <longitude>-93.6452</longitude>
    <elevation>304.8</elevation>
    <locationLabels>
      <type>CNTRY</type>
      <id>FIPS:US</id>
      <displayName>United States</displayName>
    </locationLabels>
    <coverage>0.9871</coverage>
  </station>
  <station>
    <id>GHCND:US1KSBU0006</id>
    <displayName>LEON 7.5 SW, KS US</displayName>
    <minDate>2007-10-01</minDate>
    <maxDate>2013-01-10</maxDate>
    <latitude>37.6125</latitude>
    <longitude>-96.8807</longitude>
    <elevation>385</elevation>
    <locationLabels>
      <type>CNTRY</type>
      <id>FIPS:US</id>
      <displayName>United States</displayName>
    </locationLabels>
    <coverage>0.9876</coverage>
  </station>
  <station>
    <id>GHCND:USC00415167</id>
    <displayName>LEON JUNCTION, TX US</displayName>
    <minDate>1944-01-01</minDate>
    <maxDate>1948-08-06</maxDate>
    <latitude>31.35</latitude>
    <longitude>-97.6</longitude>
    <elevation>207</elevation>
    <locationLabels>
      <type>CNTRY</type>
      <id>FIPS:US</id>
      <displayName>United States</displayName>
    </locationLabels>
    <coverage>0.819</coverage>
  </station>
  <station>
    <id>GHCND:US1TXBXR167</id>
    <displayName>LEON SPRINGS 0.6N, TX US</displayName>
    <minDate>2010-05-26</minDate>
    <maxDate>2010-09-20</maxDate>
    <latitude>29.6749</latitude>
    <longitude>-98.6305</longitude>
    <elevation>355.4</elevation>
    <locationLabels>
      <type>CNTRY</type>
      <id>FIPS:US</id>
      <displayName>United States</displayName>
    </locationLabels>
    <coverage>0.9915</coverage>
  </station>
  <station>
    <id>GHCND:US1TXBXR180</id>
    <displayName>LEON SPRINGS 2.6 N, TX US</displayName>
    <minDate>2011-05-21</minDate>
    <maxDate>2013-01-16</maxDate>
    <latitude>29.7024</latitude>
    <longitude>-98.6369</longitude>
    <elevation>389.5</elevation>
    <locationLabels>
      <type>CNTRY</type>
      <id>FIPS:US</id>
      <displayName>United States</displayName>
    </locationLabels>
    <coverage>0.9621</coverage>
  </station>
  <station>
    <id>GHCND:US1TXBXR156</id>
    <displayName>LEON VALLEY 1.2 ESE, TX US</displayName>
    <minDate>2009-09-29</minDate>
    <maxDate>2013-01-09</maxDate>
    <latitude>29.4895</latitude>
    <longitude>-98.595</longitude>
    <elevation>263</elevation>
    <locationLabels>
      <type>CNTRY</type>
      <id>FIPS:US</id>
      <displayName>United States</displayName>
    </locationLabels>
    <coverage>0.1501</coverage>
  </station>
  <station>
    <id>GHCND:US1TXBXR028</id>
    <displayName>LEON VALLEY 1.6 N, TX US</displayName>
    <minDate>2007-09-01</minDate>
    <maxDate>2013-01-16</maxDate>
    <latitude>29.5187</latitude>
    <longitude>-98.6178</longitude>
    <elevation>278</elevation>
    <locationLabels>
      <type>CNTRY</type>
      <id>FIPS:US</id>
      <displayName>United States</displayName>
    </locationLabels>
    <coverage>0.9837</coverage>
  </station>
  <station>
    <id>GHCND:US1TXBXR163</id>
    <displayName>LEON VALLEY 1.9 WNW, TX US</displayName>
    <minDate>2010-01-04</minDate>
    <maxDate>2013-01-13</maxDate>
    <latitude>29.5049</latitude>
    <longitude>-98.6428</longitude>
    <elevation>254.2</elevation>
    <locationLabels>
      <type>CNTRY</type>
      <id>FIPS:US</id>
      <displayName>United States</displayName>
    </locationLabels>
    <coverage>0.8788</coverage>
  </station>
  <station>
    <id>GHCND:US1TXBXR138</id>
    <displayName>LEON VALLEY 2.8 W, TX US</displayName>
    <minDate>2009-03-26</minDate>
    <maxDate>2013-01-16</maxDate>
    <latitude>29.4894</latitude>
    <longitude>-98.6593</longitude>
    <elevation>255.7</elevation>
    <locationLabels>
      <type>CNTRY</type>
      <id>FIPS:US</id>
      <displayName>United States</displayName>
    </locationLabels>
    <coverage>0.9871</coverage>
  </station>
  <station>
    <id>GHCND:US1TXBXR073</id>
    <displayName>LEON VALLEY 2.8 WNW, TX US</displayName>
    <minDate>2007-10-22</minDate>
    <maxDate>2011-01-16</maxDate>
    <latitude>29.5144</latitude>
    <longitude>-98.6544</longitude>
    <elevation>270.7</elevation>
    <locationLabels>
      <type>CNTRY</type>
      <id>FIPS:US</id>
      <displayName>United States</displayName>
    </locationLabels>
    <coverage>0.0913</coverage>
  </station>
  <station>
    <id>GHCND:US1TXBXR140</id>
    <displayName>LEON VALLEY 3.3 SW, TX US</displayName>
    <minDate>2009-05-17</minDate>
    <maxDate>2013-01-09</maxDate>
    <latitude>29.4672</latitude>
    <longitude>-98.6582</longitude>
    <elevation>255.7</elevation>
    <locationLabels>
      <type>CNTRY</type>
      <id>FIPS:US</id>
      <displayName>United States</displayName>
    </locationLabels>
    <coverage>0.8268</coverage>
  </station>
  <station>
    <id>GHCND:USC00214688</id>
    <displayName>LEONARD 8 NE, MN US</displayName>
    <minDate>1939-09-13</minDate>
    <maxDate>1957-05-31</maxDate>
    <latitude>47.73333</latitude>
    <longitude>-95.21667</longitude>
    <elevation>390.1</elevation>
    <locationLabels>
      <type>CNTRY</type>
      <id>FIPS:US</id>
      <displayName>United States</displayName>
    </locationLabels>
    <coverage>0.6585</coverage>
  </station>
  <station>
    <id>GHCND:USC00264527</id>
    <displayName>LEONARD CREEK RANCH, NV US</displayName>
    <minDate>1954-12-01</minDate>
    <maxDate>2012-11-29</maxDate>
    <latitude>41.5167</latitude>
    <longitude>-118.7193</longitude>
    <elevation>1292</elevation>
    <locationLabels>
      <type>CNTRY</type>
      <id>FIPS:US</id>
      <displayName>United States</displayName>
    </locationLabels>
    <coverage>0.9545</coverage>
  </station>
  <station>
    <id>GHCND:USC00465045</id>
    <displayName>LEONARD, WV US</displayName>
    <minDate>1901-11-22</minDate>
    <maxDate>1908-03-31</maxDate>
    <latitude>38.066667</latitude>
    <longitude>-80.4</longitude>
    <elevation>1293</elevation>
    <locationLabels>
      <type>CNTRY</type>
      <id>FIPS:US</id>
      <displayName>United States</displayName>
    </locationLabels>
    <coverage>0.9109</coverage>
  </station>
  <station>
    <id>GHCND:USC00304673</id>
    <displayName>LEONARDSVILLE, NY US</displayName>
    <minDate>1937-05-01</minDate>
    <maxDate>1941-06-30</maxDate>
    <latitude>42.816667</latitude>
    <longitude>-75.266667</longitude>
    <elevation>472.4</elevation>
    <locationLabels>
      <type>CNTRY</type>
      <id>FIPS:US</id>
      <displayName>United States</displayName>
    </locationLabels>
    <coverage>0.998</coverage>
  </station>
  <station>
    <id>GHCND:US1MDSM0003</id>
    <displayName>LEONARDTOWN 0.6 NE, MD US</displayName>
    <minDate>2005-10-31</minDate>
    <maxDate>2013-01-16</maxDate>
    <latitude>38.3055</latitude>
    <longitude>-76.6337</longitude>
    <elevation>32.9</elevation>
    <locationLabels>
      <type>CNTRY</type>
      <id>FIPS:US</id>
      <displayName>United States</displayName>
    </locationLabels>
    <coverage>0.9302</coverage>
  </station>
  <station>
    <id>GHCND:US1MDSM0007</id>
    <displayName>LEONARDTOWN 1.5 NW, MD US</displayName>
    <minDate>2007-03-07</minDate>
    <maxDate>2008-03-26</maxDate>
    <latitude>38.309</latitude>
    <longitude>-76.6585</longitude>
    <elevation>11.9</elevation>
    <locationLabels>
      <type>CNTRY</type>
      <id>FIPS:US</id>
      <displayName>United States</displayName>
    </locationLabels>
    <coverage>0.5544</coverage>
  </station>
  <station>
    <id>GHCND:USC00185205</id>
    <displayName>LEONARDTOWN 2, MD US</displayName>
    <minDate>1949-10-01</minDate>
    <maxDate>1950-03-24</maxDate>
    <latitude>38.3</latitude>
    <longitude>-76.65</longitude>
    <elevation>31.1</elevation>
    <locationLabels>
      <type>CNTRY</type>
      <id>FIPS:US</id>
      <displayName>United States</displayName>
    </locationLabels>
    <coverage>0.6514</coverage>
  </station>
  <station>
    <id>GHCND:US1MDSM0011</id>
    <displayName>LEONARDTOWN 2.9 ESE, MD US</displayName>
    <minDate>2009-05-14</minDate>
    <maxDate>2010-02-11</maxDate>
    <latitude>38.2867</latitude>
    <longitude>-76.5911</longitude>
    <elevation>23.8</elevation>
    <locationLabels>
      <type>CNTRY</type>
      <id>FIPS:US</id>
      <displayName>United States</displayName>
    </locationLabels>
    <coverage>0.3905</coverage>
  </station>
  <station>
    <id>GHCND:USC00185201</id>
    <displayName>LEONARDTOWN 3 NW, MD US</displayName>
    <minDate>1959-08-23</minDate>
    <maxDate>1976-02-29</maxDate>
    <latitude>38.31667</latitude>
    <longitude>-76.66667</longitude>
    <elevation>34.1</elevation>
    <locationLabels>
      <type>CNTRY</type>
      <id>FIPS:US</id>
      <displayName>United States</displayName>
    </locationLabels>
    <coverage>0.9558</coverage>
  </station>
  <station>
    <id>GHCND:USC00185200</id>
    <displayName>LEONARDTOWN 4 SSW, MD US</displayName>
    <minDate>1893-01-01</minDate>
    <maxDate>1959-08-31</maxDate>
    <latitude>38.25</latitude>
    <longitude>-76.65</longitude>
    <elevation>6.1</elevation>
    <locationLabels>
      <type>CNTRY</type>
      <id>FIPS:US</id>
      <displayName>United States</displayName>
    </locationLabels>
    <coverage>0.3192</coverage>
  </station>
  <station>
    <id>GHCND:US1INPY0005</id>
    <displayName>LEOPOLD 1.4 S, IN US</displayName>
    <minDate>2011-10-05</minDate>
    <maxDate>2012-12-20</maxDate>
    <latitude>38.0893</latitude>
    <longitude>-86.6138</longitude>
    <elevation>228.3</elevation>
    <locationLabels>
      <type>CNTRY</type>
      <id>FIPS:US</id>
      <displayName>United States</displayName>
    </locationLabels>
    <coverage>0.9842</coverage>
  </station>
  <station>
    <id>GHCND:US1INPY0006</id>
    <displayName>LEOPOLD 1.7 ESE, IN US</displayName>
    <minDate>2011-10-01</minDate>
    <maxDate>2013-01-16</maxDate>
    <latitude>38.0917</latitude>
    <longitude>-86.5556</longitude>
    <elevation>231.3</elevation>
    <locationLabels>
      <type>CNTRY</type>
      <id>FIPS:US</id>
      <displayName>United States</displayName>
    </locationLabels>
    <coverage>0.9852</coverage>
  </station>
  <station>
    <id>GHCND:USC00144665</id>
    <displayName>LEOTI 1 SE, KS US</displayName>
    <minDate>1893-01-01</minDate>
    <maxDate>2013-01-02</maxDate>
    <latitude>38.47944</latitude>
    <longitude>-101.36583</longitude>
    <elevation>1009.5</elevation>
    <locationLabels>
      <type>CNTRY</type>
      <id>FIPS:US</id>
      <displayName>United States</displayName>
    </locationLabels>
    <coverage>0.8466</coverage>
  </station>
  <station>
    <id>GHCND:USC00144667</id>
    <displayName>LEOTI 12 N, KS US</displayName>
    <minDate>1949-07-01</minDate>
    <maxDate>1970-05-31</maxDate>
    <latitude>38.66667</latitude>
    <longitude>-101.36667</longitude>
    <elevation>1018.9</elevation>
    <locationLabels>
      <type>CNTRY</type>
      <id>FIPS:US</id>
      <displayName>United States</displayName>
    </locationLabels>
    <coverage>0.9631</coverage>
  </station>
  <station>
    <id>GHCND:US1KSWH0001</id>
    <displayName>LEOTI 14 SSW, KS US</displayName>
    <minDate>2005-03-24</minDate>
    <maxDate>2012-04-27</maxDate>
    <latitude>38.3069</latitude>
    <longitude>-101.4947</longitude>
    <elevation>1042.1</elevation>
    <locationLabels>
      <type>CNTRY</type>
      <id>FIPS:US</id>
      <displayName>United States</displayName>
    </locationLabels>
    <coverage>0.0571</coverage>
  </station>
  <station>
    <id>GHCND:USC00345160</id>
    <displayName>LEQUIRE, OK US</displayName>
    <minDate>1943-10-01</minDate>
    <maxDate>1947-04-30</maxDate>
    <latitude>35.1</latitude>
    <longitude>-95.1</longitude>
    <locationLabels>
      <type>CNTRY</type>
      <id>FIPS:US</id>
      <displayName>United States</displayName>
    </locationLabels>
    <coverage>0.8991</coverage>
  </station>
  <station>
    <id>GHCND:USC00054945</id>
    <displayName>LEROY 9 WSW, CO US</displayName>
    <minDate>1893-01-01</minDate>
    <maxDate>2013-01-06</maxDate>
    <latitude>40.4897</latitude>
    <longitude>-103.0822</longitude>
    <elevation>1386.8</elevation>
    <locationLabels>
      <type>CNTRY</type>
      <id>FIPS:US</id>
      <displayName>United States</displayName>
    </locationLabels>
    <coverage>0.9898</coverage>
  </station>
  <station>
    <id>GHCND:USC00304685</id>
    <displayName>LEROY, NY US</displayName>
    <minDate>1893-01-01</minDate>
    <maxDate>1911-12-31</maxDate>
    <latitude>42.983333</latitude>
    <longitude>-78</longitude>
    <elevation>280.4</elevation>
    <locationLabels>
      <type>CNTRY</type>
      <id>FIPS:US</id>
      <displayName>United States</displayName>
    </locationLabels>
    <coverage>0.5732</coverage>
  </station>
  <station>
    <id>GHCND:USC00465051</id>
    <displayName>LESAGE 5 N, WV US</displayName>
    <minDate>1997-08-01</minDate>
    <maxDate>2001-03-31</maxDate>
    <latitude>38.56972</latitude>
    <longitude>-82.28778</longitude>
    <elevation>175.3</elevation>
    <locationLabels>
      <type>CNTRY</type>
      <id>FIPS:US</id>
      <displayName>United States</displayName>
    </locationLabels>
    <coverage>0.9986</coverage>
  </station>
  <station>
    <id>GHCND:USC00465055</id>
    <displayName>LESAGE GREENBOTTOM, WV US</displayName>
    <minDate>1937-09-13</minDate>
    <maxDate>1950-02-28</maxDate>
    <latitude>38.55</latitude>
    <longitude>-82.28333</longitude>
    <elevation>167.6</elevation>
    <locationLabels>
      <type>CNTRY</type>
      <id>FIPS:US</id>
      <displayName>United States</displayName>
    </locationLabels>
    <coverage>0.3412</coverage>
  </station>
  <station>
    <id>GHCND:US1ARST0011</id>
    <displayName>LESLIE 10.3 ENE, AR US</displayName>
    <minDate>2012-07-09</minDate>
    <maxDate>2013-01-14</maxDate>
    <latitude>35.8674</latitude>
    <longitude>-92.3777</longitude>
    <elevation>518.8</elevation>
    <locationLabels>
      <type>CNTRY</type>
      <id>FIPS:US</id>
      <displayName>United States</displayName>
    </locationLabels>
    <coverage>0.9421</coverage>
  </station>
  <station>
    <id>GHCND:US1MIIH0025</id>
    <displayName>LESLIE 2.7 NE, MI US</displayName>
    <minDate>2012-04-07</minDate>
    <maxDate>2012-11-01</maxDate>
    <latitude>42.4805</latitude>
    <longitude>-84.3986</longitude>
    <elevation>294.7</elevation>
    <locationLabels>
      <type>CNTRY</type>
      <id>FIPS:US</id>
      <displayName>United States</displayName>
    </locationLabels>
    <coverage>0.9234</coverage>
  </station>
  <station>
    <id>GHCND:USC00394900</id>
    <displayName>LESLIE, SD US</displayName>
    <minDate>1895-03-01</minDate>
    <maxDate>1910-04-30</maxDate>
    <latitude>44.616667</latitude>
    <longitude>-101.483333</longitude>
    <locationLabels>
      <type>CNTRY</type>
      <id>FIPS:US</id>
      <displayName>United States</displayName>
    </locationLabels>
    <coverage>0.9009</coverage>
  </station>
  <station>
    <id>GHCND:US1IALY0002</id>
    <displayName>LESTER 0.2 E, IA US</displayName>
    <minDate>2011-10-02</minDate>
    <maxDate>2013-01-16</maxDate>
    <latitude>43.4393</latitude>
    <longitude>-96.3266</longitude>
    <elevation>423.7</elevation>
    <locationLabels>
      <type>CNTRY</type>
      <id>FIPS:US</id>
      <displayName>United States</displayName>
    </locationLabels>
    <coverage>0.7378</coverage>
  </station>
  <station>
    <id>GHCND:US1ALLS0015</id>
    <displayName>LESTER 10.5 S, AL US</displayName>
    <minDate>2007-12-01</minDate>
    <maxDate>2013-01-15</maxDate>
    <latitude>34.8327</latitude>
    <longitude>-87.1698</longitude>
    <elevation>184.1</elevation>
    <locationLabels>
      <type>CNTRY</type>
      <id>FIPS:US</id>
      <displayName>United States</displayName>
    </locationLabels>
    <coverage>0.9381</coverage>
  </station>
  <station>
    <id>GHCND:USC00454620</id>
    <displayName>LESTER 2 E, WA US</displayName>
    <minDate>1949-12-11</minDate>
    <maxDate>1951-09-30</maxDate>
    <latitude>47.21667</latitude>
    <longitude>-121.45</longitude>
    <elevation>534</elevation>
    <locationLabels>
      <type>CNTRY</type>
      <id>FIPS:US</id>
      <displayName>United States</displayName>
    </locationLabels>
    <coverage>0.3384</coverage>
  </station>
  <station>
    <id>GHCND:USC00214692</id>
    <displayName>LESTER PRAIRIE 1 E, MN US</displayName>
    <minDate>2006-06-01</minDate>
    <maxDate>2013-01-15</maxDate>
    <latitude>44.8561</latitude>
    <longitude>-94.0507</longitude>
    <elevation>297.2</elevation>
    <locationLabels>
      <type>CNTRY</type>
      <id>FIPS:US</id>
      <displayName>United States</displayName>
    </locationLabels>
    <coverage>0.7596</coverage>
  </station>
  <station>
    <id>GHCND:USC00454619</id>
    <displayName>LESTER, WA US</displayName>
    <minDate>1904-03-01</minDate>
    <maxDate>1940-01-27</maxDate>
    <latitude>47.2</latitude>
    <longitude>-121.48333</longitude>
    <elevation>497.1</elevation>
    <locationLabels>
      <type>CNTRY</type>
      <id>FIPS:US</id>
      <displayName>United States</displayName>
    </locationLabels>
    <coverage>0.4725</coverage>
  </station>
  <station>
    <id>GHCND:USC00304698</id>
    <displayName>LETCHWORTH PARK, NY US</displayName>
    <minDate>1912-07-01</minDate>
    <maxDate>1952-08-31</maxDate>
    <latitude>42.58333</latitude>
    <longitude>-78.03333</longitude>
    <elevation>384</elevation>
    <locationLabels>
      <type>CNTRY</type>
      <id>FIPS:US</id>
      <displayName>United States</displayName>
    </locationLabels>
    <coverage>0.9755</coverage>
  </station>
  <station>
    <id>GHCND:USC00314946</id>
    <displayName>LETITIA, NC US</displayName>
    <minDate>1949-01-01</minDate>
    <maxDate>1962-03-31</maxDate>
    <latitude>35.05</latitude>
    <longitude>-84.15</longitude>
    <elevation>552</elevation>
    <locationLabels>
      <type>CNTRY</type>
      <id>FIPS:US</id>
      <displayName>United States</displayName>
    </locationLabels>
    <coverage>0.999</coverage>
  </station>
  <station>
    <id>GHCND:USC00165335</id>
    <displayName>LETTSWORTH, LA US</displayName>
    <minDate>1948-07-01</minDate>
    <maxDate>1951-09-30</maxDate>
    <latitude>30.96667</latitude>
    <longitude>-91.71667</longitude>
    <elevation>9.1</elevation>
    <locationLabels>
      <type>CNTRY</type>
      <id>FIPS:US</id>
      <displayName>United States</displayName>
    </locationLabels>
    <coverage>0.9992</coverage>
  </station>
  <station>
    <id>GHCND:USC00024872</id>
    <displayName>LEUPP, AZ US</displayName>
    <minDate>1914-10-01</minDate>
    <maxDate>1981-04-30</maxDate>
    <latitude>35.28333</latitude>
    <longitude>-110.96667</longitude>
    <elevation>1434.1</elevation>
    <locationLabels>
      <type>CNTRY</type>
      <id>FIPS:US</id>
      <displayName>United States</displayName>
    </locationLabels>
    <coverage>0.7862</coverage>
  </station>
  <station>
    <id>GHCND:USC00425065</id>
    <displayName>LEVAN, UT US</displayName>
    <minDate>1893-01-01</minDate>
    <maxDate>2013-01-15</maxDate>
    <latitude>39.5608</latitude>
    <longitude>-111.8652</longitude>
    <elevation>1614.8</elevation>
    <locationLabels>
      <type>CNTRY</type>
      <id>FIPS:US</id>
      <displayName>United States</displayName>
    </locationLabels>
    <coverage>0.9597</coverage>
  </station>
  <station>
    <id>GHCND:USC00144685</id>
    <displayName>LEVANT 10 SSE, KS US</displayName>
    <minDate>1941-04-01</minDate>
    <maxDate>1957-12-31</maxDate>
    <latitude>39.25</latitude>
    <longitude>-101.15</longitude>
    <elevation>990.9</elevation>
    <locationLabels>
      <type>CNTRY</type>
      <id>FIPS:US</id>
      <displayName>United States</displayName>
    </locationLabels>
    <coverage>0.9587</coverage>
  </station>
  <station>
    <id>GHCND:USC00144688</id>
    <displayName>LEVANT 15 N, KS US</displayName>
    <minDate>1953-09-01</minDate>
    <maxDate>1956-10-31</maxDate>
    <latitude>39.58333</latitude>
    <longitude>-101.31667</longitude>
    <elevation>1020.5</elevation>
    <locationLabels>
      <type>CNTRY</type>
      <id>FIPS:US</id>
      <displayName>United States</displayName>
    </locationLabels>
    <coverage>0.8444</coverage>
  </station>
  <station>
    <id>GHCND:USC00140632</id>
    <displayName>LEVANT 15 N, KS US</displayName>
    <minDate>1951-09-01</minDate>
    <maxDate>1952-08-31</maxDate>
    <latitude>39.58333</latitude>
    <longitude>-101.31667</longitude>
    <elevation>1020.5</elevation>
    <locationLabels>
      <type>CNTRY</type>
      <id>FIPS:US</id>
      <displayName>United States</displayName>
    </locationLabels>
    <coverage>0.8197</coverage>
  </station>
  <station>
    <id>GHCND:US1KSTH0020</id>
    <displayName>LEVANT 6.9 SSW, KS US</displayName>
    <minDate>2007-04-12</minDate>
    <maxDate>2013-01-12</maxDate>
    <latitude>39.2971</latitude>
    <longitude>-101.2614</longitude>
    <elevation>1025</elevation>
    <locationLabels>
      <type>CNTRY</type>
      <id>FIPS:US</id>
      <displayName>United States</displayName>
    </locationLabels>
    <coverage>0.5763</coverage>
  </station>
  <station>
    <id>GHCND:USC00174550</id>
    <displayName>LEVANT, ME US</displayName>
    <minDate>2010-09-01</minDate>
    <maxDate>2013-01-16</maxDate>
    <latitude>44.91528</latitude>
    <longitude>-69.05389</longitude>
    <elevation>125</elevation>
    <locationLabels>
      <type>CNTRY</type>
      <id>FIPS:US</id>
      <displayName>United States</displayName>
    </locationLabels>
    <coverage>0.9954</coverage>
  </station>
  <station>
    <id>GHCND:USC00415183</id>
    <displayName>LEVELLAND, TX US</displayName>
    <minDate>1926-02-01</minDate>
    <maxDate>2013-01-16</maxDate>
    <latitude>33.5501</latitude>
    <longitude>-102.3758</longitude>
    <elevation>1071.1</elevation>
    <locationLabels>
      <type>CNTRY</type>
      <id>FIPS:US</id>
      <displayName>United States</displayName>
    </locationLabels>
    <coverage>0.8372</coverage>
  </station>
  <station>
    <id>GHCND:USC00194154</id>
    <displayName>LEVERETT NUMBER 2, MA US</displayName>
    <minDate>2009-10-01</minDate>
    <maxDate>2013-01-16</maxDate>
    <latitude>42.4468</latitude>
    <longitude>-72.53</longitude>
    <elevation>96</elevation>
    <locationLabels>
      <type>CNTRY</type>
      <id>FIPS:US</id>
      <displayName>United States</displayName>
    </locationLabels>
    <coverage>0.936</coverage>
  </station>
  <station>
    <id>GHCND:USC00095110</id>
    <displayName>LEVERETT, GA US</displayName>
    <minDate>1894-01-01</minDate>
    <maxDate>1899-07-31</maxDate>
    <latitude>33.816667</latitude>
    <longitude>-82.383333</longitude>
    <elevation>164.6</elevation>
    <locationLabels>
      <type>CNTRY</type>
      <id>FIPS:US</id>
      <displayName>United States</displayName>
    </locationLabels>
    <coverage>0.5432</coverage>
  </station>
  <station>
    <id>GHCND:US1NYNS0006</id>
    <displayName>LEVITTOWN 0.2 E, NY US</displayName>
    <minDate>2008-10-18</minDate>
    <maxDate>2012-11-08</maxDate>
    <latitude>40.7245</latitude>
    <longitude>-73.5086</longitude>
    <elevation>27.1</elevation>
    <locationLabels>
      <type>CNTRY</type>
      <id>FIPS:US</id>
      <displayName>United States</displayName>
    </locationLabels>
    <coverage>0.3405</coverage>
  </station>
  <station>
    <id>GHCND:USC00294936</id>
    <displayName>LEVY, NM US</displayName>
    <minDate>1908-11-01</minDate>
    <maxDate>1961-03-31</maxDate>
    <latitude>36.08333</latitude>
    <longitude>-104.68333</longitude>
    <elevation>1905.9</elevation>
    <locationLabels>
      <type>CNTRY</type>
      <id>FIPS:US</id>
      <displayName>United States</displayName>
    </locationLabels>
    <coverage>0.893</coverage>
  </station>
  <station>
    <id>GHCND:USC00304706</id>
    <displayName>LEWBEACH, NY US</displayName>
    <minDate>1948-05-01</minDate>
    <maxDate>1959-06-30</maxDate>
    <latitude>41.95</latitude>
    <longitude>-74.83333</longitude>
    <elevation>580</elevation>
    <locationLabels>
      <type>CNTRY</type>
      <id>FIPS:US</id>
      <displayName>United States</displayName>
    </locationLabels>
    <coverage>0.999</coverage>
  </station>
  <station>
    <id>GHCND:US10gard009</id>
    <displayName>LEWELLEN 2.2 E, NE US</displayName>
    <minDate>2007-04-03</minDate>
    <maxDate>2012-06-04</maxDate>
    <latitude>41.3366</latitude>
    <longitude>-102.1023</longitude>
    <elevation>1015.9</elevation>
    <locationLabels>
      <type>CNTRY</type>
      <id>FIPS:US</id>
      <displayName>United States</displayName>
    </locationLabels>
    <coverage>0.3381</coverage>
  </station>
  <station>
    <id>GHCND:USC00254760</id>
    <displayName>LEWELLEN 30 N, NE US</displayName>
    <minDate>1947-01-01</minDate>
    <maxDate>1948-05-31</maxDate>
    <latitude>41.71667</latitude>
    <longitude>-102.23333</longitude>
    <elevation>1156.1</elevation>
    <locationLabels>
      <type>CNTRY</type>
      <id>FIPS:US</id>
      <displayName>United States</displayName>
    </locationLabels>
    <coverage>1</coverage>
  </station>
  <station>
    <id>GHCND:USC00254755</id>
    <displayName>LEWELLEN, NE US</displayName>
    <minDate>1994-05-01</minDate>
    <maxDate>2012-11-17</maxDate>
    <latitude>41.3298</latitude>
    <longitude>-102.1441</longitude>
    <elevation>1013.8</elevation>
    <locationLabels>
      <type>CNTRY</type>
      <id>FIPS:US</id>
      <displayName>United States</displayName>
    </locationLabels>
    <coverage>0.8893</coverage>
  </station>
  <station>
    <id>GHCND:USC00264542</id>
    <displayName>LEWERS RANCH, NV US</displayName>
    <minDate>1893-01-01</minDate>
    <maxDate>1944-10-31</maxDate>
    <latitude>39.23333</latitude>
    <longitude>-119.85</longitude>
    <elevation>1585.9</elevation>
    <locationLabels>
      <type>CNTRY</type>
      <id>FIPS:US</id>
      <displayName>United States</displayName>
    </locationLabels>
    <coverage>0.7004</coverage>
  </station>
  <station>
    <id>GHCND:US1DESS0004</id>
    <displayName>LEWES 0.8 SE, DE US</displayName>
    <minDate>2009-09-01</minDate>
    <maxDate>2012-03-12</maxDate>
    <latitude>38.7731</latitude>
    <longitude>-75.1385</longitude>
    <elevation>4.3</elevation>
    <locationLabels>
      <type>CNTRY</type>
      <id>FIPS:US</id>
      <displayName>United States</displayName>
    </locationLabels>
    <coverage>0.7478</coverage>
  </station>
  <station>
    <id>GHCND:USC00075320</id>
    <displayName>LEWES, DE US</displayName>
    <minDate>1945-02-01</minDate>
    <maxDate>2011-10-03</maxDate>
    <latitude>38.7755</latitude>
    <longitude>-75.1388</longitude>
    <elevation>4.6</elevation>
    <locationLabels>
      <type>CNTRY</type>
      <id>FIPS:US</id>
      <displayName>United States</displayName>
    </locationLabels>
    <coverage>0.9591</coverage>
  </station>
  <station>
    <id>GHCND:US1KSED0002</id>
    <displayName>LEWIS 0.2 SSW, KS US</displayName>
    <minDate>2006-03-14</minDate>
    <maxDate>2007-08-24</maxDate>
    <latitude>37.9338</latitude>
    <longitude>-99.2552</longitude>
    <elevation>662</elevation>
    <locationLabels>
      <type>CNTRY</type>
      <id>FIPS:US</id>
      <displayName>United States</displayName>
    </locationLabels>
    <coverage>0.206</coverage>
  </station>
  <station>
    <id>GHCND:US1COMZ0027</id>
    <displayName>LEWIS 8.3 NW, CO US</displayName>
    <minDate>2004-06-29</minDate>
    <maxDate>2012-06-27</maxDate>
    <latitude>37.5877</latitude>
    <longitude>-108.7749</longitude>
    <elevation>2110.1</elevation>
    <locationLabels>
      <type>CNTRY</type>
      <id>FIPS:US</id>
      <displayName>United States</displayName>
    </locationLabels>
    <coverage>0.7891</coverage>
  </station>
  <station>
    <id>GHCND:USC00405205</id>
    <displayName>LEWIS CHAPEL, TN US</displayName>
    <minDate>1949-01-01</minDate>
    <maxDate>1962-03-31</maxDate>
    <latitude>35.33333</latitude>
    <longitude>-85.3</longitude>
    <elevation>563.9</elevation>
    <locationLabels>
      <type>CNTRY</type>
      <id>FIPS:US</id>
      <displayName>United States</displayName>
    </locationLabels>
    <coverage>0.9818</coverage>
  </station>
  <station>
    <id>GHCND:USC00415187</id>
    <displayName>LEWIS FERRY, TX US</displayName>
    <minDate>1908-09-19</minDate>
    <maxDate>1911-09-03</maxDate>
    <latitude>33.566667</latitude>
    <longitude>-94.416667</longitude>
    <locationLabels>
      <type>CNTRY</type>
      <id>FIPS:US</id>
      <displayName>United States</displayName>
    </locationLabels>
    <coverage>0.8954</coverage>
  </station>
  <station>
    <id>GHCND:USS0010E09S</id>
    <displayName>LEWIS LAKE DIVIDE, WY US</displayName>
    <minDate>1980-10-01</minDate>
    <maxDate>2013-01-13</maxDate>
    <latitude>44.2</latitude>
    <longitude>-110.6667</longitude>
    <elevation>2392.7</elevation>
    <locationLabels>
      <type>CNTRY</type>
      <id>FIPS:US</id>
      <displayName>United States</displayName>
    </locationLabels>
    <coverage>0.8779</coverage>
  </station>
  <station>
    <id>GHCND:USC00364984</id>
    <displayName>LEWIS RUN 3 SE, PA US</displayName>
    <minDate>1948-05-01</minDate>
    <maxDate>1970-02-28</maxDate>
    <latitude>41.84167</latitude>
    <longitude>-78.64333</longitude>
    <elevation>530.4</elevation>
    <locationLabels>
      <type>CNTRY</type>
      <id>FIPS:US</id>
      <displayName>United States</displayName>
    </locationLabels>
    <coverage>0.9531</coverage>
  </station>
  <station>
    <id>GHCND:USC00364983</id>
    <displayName>LEWIS RUN, PA US</displayName>
    <minDate>1969-12-01</minDate>
    <maxDate>2005-10-31</maxDate>
    <latitude>41.86667</latitude>
    <longitude>-78.65</longitude>
    <elevation>475.5</elevation>
    <locationLabels>
      <type>CNTRY</type>
      <id>FIPS:US</id>
      <displayName>United States</displayName>
    </locationLabels>
    <coverage>0.8437</coverage>
  </station>
  <station>
    <id>GHCND:US1TNML0002</id>
    <displayName>LEWISBURG 1.6 NNW, TN US</displayName>
    <minDate>2007-09-20</minDate>
    <maxDate>2010-04-20</maxDate>
    <latitude>35.4683</latitude>
    <longitude>-86.7986</longitude>
    <elevation>228.9</elevation>
    <locationLabels>
      <type>CNTRY</type>
      <id>FIPS:US</id>
      <displayName>United States</displayName>
    </locationLabels>
    <coverage>0.7235</coverage>
  </station>
  <station>
    <id>GHCND:US1TNML0001</id>
    <displayName>LEWISBURG 1.6 W, TN US</displayName>
    <minDate>2007-05-01</minDate>
    <maxDate>2013-01-16</maxDate>
    <latitude>35.4459</latitude>
    <longitude>-86.8171</longitude>
    <elevation>246</elevation>
    <locationLabels>
      <type>CNTRY</type>
      <id>FIPS:US</id>
      <displayName>United States</displayName>
    </locationLabels>
    <coverage>0.9167</coverage>
  </station>
  <station>
    <id>GHCND:USC00465224</id>
    <displayName>LEWISBURG 3 N, WV US</displayName>
    <minDate>1851-04-01</minDate>
    <maxDate>2013-01-16</maxDate>
    <latitude>37.8564</latitude>
    <longitude>-80.4041</longitude>
    <elevation>701</elevation>
    <locationLabels>
      <type>CNTRY</type>
      <id>FIPS:US</id>
      <displayName>United States</displayName>
    </locationLabels>
    <coverage>0.6557</coverage>
  </station>
  <station>
    <id>GHCND:US1TNML0013</id>
    <displayName>LEWISBURG 4.2 NNE, TN US</displayName>
    <minDate>2008-08-17</minDate>
    <maxDate>2013-01-16</maxDate>
    <latitude>35.4978</latitude>
    <longitude>-86.7478</longitude>
    <elevation>210</elevation>
    <locationLabels>
      <type>CNTRY</type>
      <id>FIPS:US</id>
      <displayName>United States</displayName>
    </locationLabels>
    <coverage>0.9523</coverage>
  </station>
  <station>
    <id>GHCND:US1TNML0008</id>
    <displayName>LEWISBURG 4.4 W, TN US</displayName>
    <minDate>2007-11-06</minDate>
    <maxDate>2008-12-20</maxDate>
    <latitude>35.4488</latitude>
    <longitude>-86.8662</longitude>
    <elevation>226.2</elevation>
    <locationLabels>
      <type>CNTRY</type>
      <id>FIPS:US</id>
      <displayName>United States</displayName>
    </locationLabels>
    <coverage>0.7956</coverage>
  </station>
  <station>
    <id>GHCND:US1TNML0006</id>
    <displayName>LEWISBURG 5.1 SW, TN US</displayName>
    <minDate>2007-07-25</minDate>
    <maxDate>2013-01-16</maxDate>
    <latitude>35.3887</latitude>
    <longitude>-86.8439</longitude>
    <elevation>285</elevation>
    <locationLabels>
      <type>CNTRY</type>
      <id>FIPS:US</id>
      <displayName>United States</displayName>
    </locationLabels>
    <coverage>0.979</coverage>
  </station>
  <station>
    <id>GHCND:US1TNML0004</id>
    <displayName>LEWISBURG 6.2 SSE, TN US</displayName>
    <minDate>2007-07-04</minDate>
    <maxDate>2013-01-16</maxDate>
    <latitude>35.3696</latitude>
    <longitude>-86.7314</longitude>
    <elevation>289.9</elevation>
    <locationLabels>
      <type>CNTRY</type>
      <id>FIPS:US</id>
      <displayName>United States</displayName>
    </locationLabels>
    <coverage>0.9763</coverage>
  </station>
  <station>
    <id>GHCND:US1KYTD0001</id>
    <displayName>LEWISBURG 9.3 WNW, KY US</displayName>
    <minDate>2007-12-25</minDate>
    <maxDate>2010-03-18</maxDate>
    <latitude>37.0496</latitude>
    <longitude>-87.0985</longitude>
    <elevation>216.1</elevation>
    <locationLabels>
      <type>CNTRY</type>
      <id>FIPS:US</id>
      <displayName>United States</displayName>
    </locationLabels>
    <coverage>0.784</coverage>
  </station>
  <station>
    <id>GHCND:USC00405187</id>
    <displayName>LEWISBURG EXPERIMENTAL STATION, TN US</displayName>
    <minDate>1890-05-01</minDate>
    <maxDate>2013-01-16</maxDate>
    <latitude>35.414</latitude>
    <longitude>-86.8086</longitude>
    <elevation>239.9</elevation>
    <locationLabels>
      <type>CNTRY</type>
      <id>FIPS:US</id>
      <displayName>United States</displayName>
    </locationLabels>
    <coverage>0.9253</coverage>
  </station>
  <station>
    <id>GHCND:USC00405197</id>
    <displayName>LEWISBURG SUBSTN, TN US</displayName>
    <minDate>1949-01-01</minDate>
    <maxDate>1954-12-31</maxDate>
    <latitude>35.46667</latitude>
    <longitude>-86.8</longitude>
    <elevation>225.9</elevation>
    <locationLabels>
      <type>CNTRY</type>
      <id>FIPS:US</id>
      <displayName>United States</displayName>
    </locationLabels>
    <coverage>0.9959</coverage>
  </station>
  <station>
    <id>GHCND:USR0000TLEW</id>
    <displayName>LEWISBURG TOWER TENNESSEE, TN US</displayName>
    <minDate>2003-10-24</minDate>
    <maxDate>2012-08-31</maxDate>
    <latitude>35.3817</latitude>
    <longitude>-86.7658</longitude>
    <elevation>350.5</elevation>
    <locationLabels>
      <type>CNTRY</type>
      <id>FIPS:US</id>
      <displayName>United States</displayName>
    </locationLabels>
    <coverage>0.9048</coverage>
  </station>
  <station>
    <id>GHCND:USC00154720</id>
    <displayName>LEWISBURG, KY US</displayName>
    <minDate>2007-10-01</minDate>
    <maxDate>2013-01-15</maxDate>
    <latitude>36.9925</latitude>
    <longitude>-86.9447</longitude>
    <elevation>132</elevation>
    <locationLabels>
      <type>CNTRY</type>
      <id>FIPS:US</id>
      <displayName>United States</displayName>
    </locationLabels>
    <coverage>0.272</coverage>
  </station>
</stationCollection>
