<?xml version="1.0" encoding="UTF-8" standalone="yes"?>
<stationCollection totalCount="46020" pageCount="461" pageSize="100" page="125">
  <station>
    <id>GHCND:USC00442663</id>
    <displayName>EDINBURG, VA US</displayName>
    <minDate>1996-06-01</minDate>
    <maxDate>2013-01-16</maxDate>
    <latitude>38.8025</latitude>
    <longitude>-78.5853</longitude>
    <elevation>282.9</elevation>
    <locationLabels>
      <type>CNTRY</type>
      <id>FIPS:US</id>
      <displayName>United States</displayName>
    </locationLabels>
    <coverage>0.9985</coverage>
  </station>
  <station>
    <id>GHCND:US1INBW0002</id>
    <displayName>EDINBURGH 1.0 SSW, IN US</displayName>
    <minDate>2006-05-02</minDate>
    <maxDate>2013-01-11</maxDate>
    <latitude>39.3386</latitude>
    <longitude>-85.9747</longitude>
    <elevation>205.1</elevation>
    <locationLabels>
      <type>CNTRY</type>
      <id>FIPS:US</id>
      <displayName>United States</displayName>
    </locationLabels>
    <coverage>0.5619</coverage>
  </station>
  <station>
    <id>GHCND:US1INSH0008</id>
    <displayName>EDINBURGH 5.3 NE, IN US</displayName>
    <minDate>2006-06-22</minDate>
    <maxDate>2008-06-05</maxDate>
    <latitude>39.4041</latitude>
    <longitude>-85.8945</longitude>
    <elevation>252.1</elevation>
    <locationLabels>
      <type>CNTRY</type>
      <id>FIPS:US</id>
      <displayName>United States</displayName>
    </locationLabels>
    <coverage>0.3231</coverage>
  </station>
  <station>
    <id>GHCND:US1NJMD0038</id>
    <displayName>EDISON TWP 1.9 N, NJ US</displayName>
    <minDate>2011-08-11</minDate>
    <maxDate>2012-12-25</maxDate>
    <latitude>40.5629</latitude>
    <longitude>-74.3669</longitude>
    <elevation>35.4</elevation>
    <locationLabels>
      <type>CNTRY</type>
      <id>FIPS:US</id>
      <displayName>United States</displayName>
    </locationLabels>
    <coverage>0.668</coverage>
  </station>
  <station>
    <id>GHCND:USC00093028</id>
    <displayName>EDISON, GA US</displayName>
    <minDate>1940-03-22</minDate>
    <maxDate>2013-01-15</maxDate>
    <latitude>31.5663</latitude>
    <longitude>-84.7338</longitude>
    <elevation>89.6</elevation>
    <locationLabels>
      <type>CNTRY</type>
      <id>FIPS:US</id>
      <displayName>United States</displayName>
    </locationLabels>
    <coverage>0.1463</coverage>
  </station>
  <station>
    <id>GHCND:USC00252560</id>
    <displayName>EDISON, NE US</displayName>
    <minDate>1914-11-01</minDate>
    <maxDate>2013-01-16</maxDate>
    <latitude>40.2763</latitude>
    <longitude>-99.7836</longitude>
    <elevation>646.2</elevation>
    <locationLabels>
      <type>CNTRY</type>
      <id>FIPS:US</id>
      <displayName>United States</displayName>
    </locationLabels>
    <coverage>0.1127</coverage>
  </station>
  <station>
    <id>GHCND:US1SCCR0040</id>
    <displayName>EDISTO ISLAND 3.8 SW, SC US</displayName>
    <minDate>2008-09-13</minDate>
    <maxDate>2012-07-12</maxDate>
    <latitude>32.5137</latitude>
    <longitude>-80.3124</longitude>
    <elevation>0.9</elevation>
    <locationLabels>
      <type>CNTRY</type>
      <id>FIPS:US</id>
      <displayName>United States</displayName>
    </locationLabels>
    <coverage>0.0886</coverage>
  </station>
  <station>
    <id>GHCND:USC00382735</id>
    <displayName>EDISTO ISLAND MIDDLETON PLANTATION, SC US</displayName>
    <minDate>2004-09-01</minDate>
    <maxDate>2012-11-30</maxDate>
    <latitude>32.6064</latitude>
    <longitude>-80.3267</longitude>
    <elevation>3.7</elevation>
    <locationLabels>
      <type>CNTRY</type>
      <id>FIPS:US</id>
      <displayName>United States</displayName>
    </locationLabels>
    <coverage>0.8789</coverage>
  </station>
  <station>
    <id>GHCND:USC00382730</id>
    <displayName>EDISTO ISLAND, SC US</displayName>
    <minDate>1956-08-01</minDate>
    <maxDate>2013-01-16</maxDate>
    <latitude>32.5051</latitude>
    <longitude>-80.2948</longitude>
    <elevation>1.5</elevation>
    <locationLabels>
      <type>CNTRY</type>
      <id>FIPS:US</id>
      <displayName>United States</displayName>
    </locationLabels>
    <coverage>0.7889</coverage>
  </station>
  <station>
    <id>GHCND:USC00382720</id>
    <displayName>EDISTO, SC US</displayName>
    <minDate>1894-01-01</minDate>
    <maxDate>1920-11-12</maxDate>
    <latitude>33.25</latitude>
    <longitude>-80.866667</longitude>
    <elevation>43.6</elevation>
    <locationLabels>
      <type>CNTRY</type>
      <id>FIPS:US</id>
      <displayName>United States</displayName>
    </locationLabels>
    <coverage>0.7851</coverage>
  </station>
  <station>
    <id>GHCND:USC00302526</id>
    <displayName>EDMESTON, NY US</displayName>
    <minDate>1948-05-01</minDate>
    <maxDate>1951-09-30</maxDate>
    <latitude>42.68333</latitude>
    <longitude>-75.25</longitude>
    <elevation>359.7</elevation>
    <locationLabels>
      <type>CNTRY</type>
      <id>FIPS:US</id>
      <displayName>United States</displayName>
    </locationLabels>
    <coverage>0.992</coverage>
  </station>
  <station>
    <id>GHCND:US1OKOK0003</id>
    <displayName>EDMOND 1.6 W, OK US</displayName>
    <minDate>2006-07-26</minDate>
    <maxDate>2013-01-15</maxDate>
    <latitude>35.673</latitude>
    <longitude>-97.4412</longitude>
    <elevation>360</elevation>
    <locationLabels>
      <type>CNTRY</type>
      <id>FIPS:US</id>
      <displayName>United States</displayName>
    </locationLabels>
    <coverage>0.973</coverage>
  </station>
  <station>
    <id>GHCND:US1OKOK0017</id>
    <displayName>EDMOND 1.9 SE, OK US</displayName>
    <minDate>2008-03-01</minDate>
    <maxDate>2013-01-16</maxDate>
    <latitude>35.633</latitude>
    <longitude>-97.453</longitude>
    <elevation>343.5</elevation>
    <locationLabels>
      <type>CNTRY</type>
      <id>FIPS:US</id>
      <displayName>United States</displayName>
    </locationLabels>
    <coverage>0.5844</coverage>
  </station>
  <station>
    <id>GHCND:US1OKLG0003</id>
    <displayName>EDMOND 4.3 NNE, OK US</displayName>
    <minDate>1998-06-17</minDate>
    <maxDate>2013-01-15</maxDate>
    <latitude>35.7279</latitude>
    <longitude>-97.3815</longitude>
    <elevation>352.7</elevation>
    <locationLabels>
      <type>CNTRY</type>
      <id>FIPS:US</id>
      <displayName>United States</displayName>
    </locationLabels>
    <coverage>0.3214</coverage>
  </station>
  <station>
    <id>GHCND:US1OKLG0005</id>
    <displayName>EDMOND 4.9 NNW, OK US</displayName>
    <minDate>2007-10-20</minDate>
    <maxDate>2009-03-18</maxDate>
    <latitude>35.7402</latitude>
    <longitude>-97.4395</longitude>
    <elevation>342</elevation>
    <locationLabels>
      <type>CNTRY</type>
      <id>FIPS:US</id>
      <displayName>United States</displayName>
    </locationLabels>
    <coverage>0.6143</coverage>
  </station>
  <station>
    <id>GHCND:US1OKLG0010</id>
    <displayName>EDMOND 5.8 NNE, OK US</displayName>
    <minDate>2011-11-08</minDate>
    <maxDate>2013-01-16</maxDate>
    <latitude>35.7537</latitude>
    <longitude>-97.3792</longitude>
    <elevation>382.2</elevation>
    <locationLabels>
      <type>CNTRY</type>
      <id>FIPS:US</id>
      <displayName>United States</displayName>
    </locationLabels>
    <coverage>0.9541</coverage>
  </station>
  <station>
    <id>GHCND:US1OKLG0009</id>
    <displayName>EDMOND 6.4 NW, OK US</displayName>
    <minDate>2010-06-02</minDate>
    <maxDate>2013-01-16</maxDate>
    <latitude>35.7315</latitude>
    <longitude>-97.501</longitude>
    <elevation>332.8</elevation>
    <locationLabels>
      <type>CNTRY</type>
      <id>FIPS:US</id>
      <displayName>United States</displayName>
    </locationLabels>
    <coverage>0.7563</coverage>
  </station>
  <station>
    <id>GHCND:US1OKOK0031</id>
    <displayName>EDMOND 6.6 W, OK US</displayName>
    <minDate>2009-03-19</minDate>
    <maxDate>2012-12-25</maxDate>
    <latitude>35.6692</latitude>
    <longitude>-97.5301</longitude>
    <elevation>323.4</elevation>
    <locationLabels>
      <type>CNTRY</type>
      <id>FIPS:US</id>
      <displayName>United States</displayName>
    </locationLabels>
    <coverage>0.9586</coverage>
  </station>
  <station>
    <id>GHCND:USC00142357</id>
    <displayName>EDMOND 7 S, KS US</displayName>
    <minDate>1952-10-01</minDate>
    <maxDate>1954-08-31</maxDate>
    <latitude>39.53333</latitude>
    <longitude>-99.85</longitude>
    <elevation>711.1</elevation>
    <locationLabels>
      <type>CNTRY</type>
      <id>FIPS:US</id>
      <displayName>United States</displayName>
    </locationLabels>
    <coverage>0.9843</coverage>
  </station>
  <station>
    <id>GHCND:US1OKOK0032</id>
    <displayName>EDMOND 7.8 WSW, OK US</displayName>
    <minDate>2009-04-30</minDate>
    <maxDate>2011-12-04</maxDate>
    <latitude>35.6253</latitude>
    <longitude>-97.5391</longitude>
    <elevation>342.6</elevation>
    <locationLabels>
      <type>CNTRY</type>
      <id>FIPS:US</id>
      <displayName>United States</displayName>
    </locationLabels>
    <coverage>0.2424</coverage>
  </station>
  <station>
    <id>GHCND:US1OKOK0025</id>
    <displayName>EDMOND 8.0 WNW, OK US</displayName>
    <minDate>2008-05-01</minDate>
    <maxDate>2013-01-16</maxDate>
    <latitude>35.7059</latitude>
    <longitude>-97.5491</longitude>
    <elevation>327.7</elevation>
    <locationLabels>
      <type>CNTRY</type>
      <id>FIPS:US</id>
      <displayName>United States</displayName>
    </locationLabels>
    <coverage>0.9971</coverage>
  </station>
  <station>
    <id>GHCND:US1OKOK0014</id>
    <displayName>EDMOND 8.6 W, OK US</displayName>
    <minDate>2007-09-12</minDate>
    <maxDate>2010-03-09</maxDate>
    <latitude>35.6567</latitude>
    <longitude>-97.5644</longitude>
    <elevation>337.7</elevation>
    <locationLabels>
      <type>CNTRY</type>
      <id>FIPS:US</id>
      <displayName>United States</displayName>
    </locationLabels>
    <coverage>0.433</coverage>
  </station>
  <station>
    <id>GHCND:USC00342788</id>
    <displayName>EDMOND, OK US</displayName>
    <minDate>1896-04-01</minDate>
    <maxDate>2013-01-14</maxDate>
    <latitude>35.6551</latitude>
    <longitude>-97.4677</longitude>
    <elevation>359.7</elevation>
    <locationLabels>
      <type>CNTRY</type>
      <id>FIPS:US</id>
      <displayName>United States</displayName>
    </locationLabels>
    <coverage>0.1679</coverage>
  </station>
  <station>
    <id>GHCND:US1WASN0038</id>
    <displayName>EDMONDS 1.5 SE, WA US</displayName>
    <minDate>2008-10-07</minDate>
    <maxDate>2013-01-16</maxDate>
    <latitude>47.809</latitude>
    <longitude>-122.3466</longitude>
    <elevation>121.3</elevation>
    <locationLabels>
      <type>CNTRY</type>
      <id>FIPS:US</id>
      <displayName>United States</displayName>
    </locationLabels>
    <coverage>0.6718</coverage>
  </station>
  <station>
    <id>GHCND:USC00412766</id>
    <displayName>EDMONSON, TX US</displayName>
    <minDate>1947-02-01</minDate>
    <maxDate>1947-07-01</maxDate>
    <latitude>34.28333</latitude>
    <longitude>-101.9</longitude>
    <elevation>1061</elevation>
    <locationLabels>
      <type>CNTRY</type>
      <id>FIPS:US</id>
      <displayName>United States</displayName>
    </locationLabels>
    <coverage>1</coverage>
  </station>
  <station>
    <id>GHCND:USC00152469</id>
    <displayName>EDMONTON 3 W, KY US</displayName>
    <minDate>1893-01-01</minDate>
    <maxDate>1977-07-31</maxDate>
    <latitude>36.98333</latitude>
    <longitude>-85.65</longitude>
    <elevation>237.7</elevation>
    <locationLabels>
      <type>CNTRY</type>
      <id>FIPS:US</id>
      <displayName>United States</displayName>
    </locationLabels>
    <coverage>0.6652</coverage>
  </station>
  <station>
    <id>GHCND:US1KYMC0004</id>
    <displayName>EDMONTON 6.0 S, KY US</displayName>
    <minDate>2010-03-28</minDate>
    <maxDate>2012-01-22</maxDate>
    <latitude>36.8979</latitude>
    <longitude>-85.6407</longitude>
    <elevation>276.1</elevation>
    <locationLabels>
      <type>CNTRY</type>
      <id>FIPS:US</id>
      <displayName>United States</displayName>
    </locationLabels>
    <coverage>0.2147</coverage>
  </station>
  <station>
    <id>GHCND:USC00322525</id>
    <displayName>EDMORE 1 NW, ND US</displayName>
    <minDate>1905-05-01</minDate>
    <maxDate>2013-01-14</maxDate>
    <latitude>48.4238</latitude>
    <longitude>-98.4713</longitude>
    <elevation>467.9</elevation>
    <locationLabels>
      <type>CNTRY</type>
      <id>FIPS:US</id>
      <displayName>United States</displayName>
    </locationLabels>
    <coverage>0.7774</coverage>
  </station>
  <station>
    <id>GHCND:USC00202490</id>
    <displayName>EDMORE 3 SSW, MI US</displayName>
    <minDate>1977-06-01</minDate>
    <maxDate>1978-06-30</maxDate>
    <latitude>43.36667</latitude>
    <longitude>-85.06667</longitude>
    <locationLabels>
      <type>CNTRY</type>
      <id>FIPS:US</id>
      <displayName>United States</displayName>
    </locationLabels>
    <coverage>0.5418</coverage>
  </station>
  <station>
    <id>GHCND:US1MIMT0001</id>
    <displayName>EDMORE 3.0 ESE, MI US</displayName>
    <minDate>2008-07-20</minDate>
    <maxDate>2009-06-01</maxDate>
    <latitude>43.3871</latitude>
    <longitude>-84.9851</longitude>
    <elevation>301.4</elevation>
    <locationLabels>
      <type>CNTRY</type>
      <id>FIPS:US</id>
      <displayName>United States</displayName>
    </locationLabels>
    <coverage>0.388</coverage>
  </station>
  <station>
    <id>GHCND:USC00202488</id>
    <displayName>EDMORE 4 NNE, MI US</displayName>
    <minDate>1976-07-01</minDate>
    <maxDate>1977-05-31</maxDate>
    <latitude>43.46667</latitude>
    <longitude>-85.03333</longitude>
    <elevation>296</elevation>
    <locationLabels>
      <type>CNTRY</type>
      <id>FIPS:US</id>
      <displayName>United States</displayName>
    </locationLabels>
    <coverage>0.5493</coverage>
  </station>
  <station>
    <id>GHCND:USC00202487</id>
    <displayName>EDMORE, MI US</displayName>
    <minDate>1919-06-16</minDate>
    <maxDate>1961-09-30</maxDate>
    <latitude>43.4</latitude>
    <longitude>-85.03333</longitude>
    <locationLabels>
      <type>CNTRY</type>
      <id>FIPS:US</id>
      <displayName>United States</displayName>
    </locationLabels>
    <coverage>0.4481</coverage>
  </station>
  <station>
    <id>GHCND:USC00322536</id>
    <displayName>EDMUNDS ARROWWOOD RE, ND US</displayName>
    <minDate>1974-03-01</minDate>
    <maxDate>2008-08-31</maxDate>
    <latitude>47.26528</latitude>
    <longitude>-98.85778</longitude>
    <elevation>445</elevation>
    <locationLabels>
      <type>CNTRY</type>
      <id>FIPS:US</id>
      <displayName>United States</displayName>
    </locationLabels>
    <coverage>0.9105</coverage>
  </station>
  <station>
    <id>GHCND:USC00324656</id>
    <displayName>EDMUNDS ARROWWOOD RE, ND US</displayName>
    <minDate>1948-07-01</minDate>
    <maxDate>1974-02-28</maxDate>
    <latitude>47.26528</latitude>
    <longitude>-98.85778</longitude>
    <elevation>445</elevation>
    <locationLabels>
      <type>CNTRY</type>
      <id>FIPS:US</id>
      <displayName>United States</displayName>
    </locationLabels>
    <coverage>0.9982</coverage>
  </station>
  <station>
    <id>GHCND:US1MOFSA189</id>
    <displayName>EDMUNDSON 0.7 NNW, MO US</displayName>
    <minDate>2006-05-01</minDate>
    <maxDate>2013-01-14</maxDate>
    <latitude>38.7425</latitude>
    <longitude>-90.3721</longitude>
    <elevation>177.1</elevation>
    <locationLabels>
      <type>CNTRY</type>
      <id>FIPS:US</id>
      <displayName>United States</displayName>
    </locationLabels>
    <coverage>0.9959</coverage>
  </station>
  <station>
    <id>GHCND:CA00810AL00</id>
    <displayName>EDMUNDSTON, ME US</displayName>
    <minDate>1983-08-03</minDate>
    <maxDate>2008-12-31</maxDate>
    <latitude>47.33</latitude>
    <longitude>-68.18</longitude>
    <elevation>152</elevation>
    <locationLabels>
      <type>CNTRY</type>
      <id>FIPS:US</id>
      <displayName>United States</displayName>
    </locationLabels>
    <coverage>0.8926</coverage>
  </station>
  <station>
    <id>GHCND:US1TXJK0004</id>
    <displayName>EDNA 1.3 SE, TX US</displayName>
    <minDate>2012-01-02</minDate>
    <maxDate>2013-01-16</maxDate>
    <latitude>28.9608</latitude>
    <longitude>-96.6329</longitude>
    <elevation>17.7</elevation>
    <locationLabels>
      <type>CNTRY</type>
      <id>FIPS:US</id>
      <displayName>United States</displayName>
    </locationLabels>
    <coverage>0.9843</coverage>
  </station>
  <station>
    <id>GHCND:US1TXJK0003</id>
    <displayName>EDNA 14.5 N, TX US</displayName>
    <minDate>2012-01-01</minDate>
    <maxDate>2013-01-16</maxDate>
    <latitude>29.1833</latitude>
    <longitude>-96.6499</longitude>
    <elevation>36.6</elevation>
    <locationLabels>
      <type>CNTRY</type>
      <id>FIPS:US</id>
      <displayName>United States</displayName>
    </locationLabels>
    <coverage>0.9634</coverage>
  </station>
  <station>
    <id>GHCND:USC00412769</id>
    <displayName>EDNA 3 SW, TX US</displayName>
    <minDate>1909-07-01</minDate>
    <maxDate>1968-02-29</maxDate>
    <latitude>28.95</latitude>
    <longitude>-96.68333</longitude>
    <elevation>21</elevation>
    <locationLabels>
      <type>CNTRY</type>
      <id>FIPS:US</id>
      <displayName>United States</displayName>
    </locationLabels>
    <coverage>0.9907</coverage>
  </station>
  <station>
    <id>GHCND:US1TXJK0001</id>
    <displayName>EDNA 4.6 SSE, TX US</displayName>
    <minDate>2008-03-12</minDate>
    <maxDate>2013-01-13</maxDate>
    <latitude>28.9099</latitude>
    <longitude>-96.6286</longitude>
    <elevation>18</elevation>
    <locationLabels>
      <type>CNTRY</type>
      <id>FIPS:US</id>
      <displayName>United States</displayName>
    </locationLabels>
    <coverage>0.9932</coverage>
  </station>
  <station>
    <id>GHCND:USC00412770</id>
    <displayName>EDNA 7 NW, TX US</displayName>
    <minDate>1995-12-01</minDate>
    <maxDate>2013-01-16</maxDate>
    <latitude>29.0623</latitude>
    <longitude>-96.7714</longitude>
    <elevation>21.3</elevation>
    <locationLabels>
      <type>CNTRY</type>
      <id>FIPS:US</id>
      <displayName>United States</displayName>
    </locationLabels>
    <coverage>0.9078</coverage>
  </station>
  <station>
    <id>GHCND:US1AKPW0001</id>
    <displayName>EDNA BAY 1.3 E, AK US</displayName>
    <minDate>2009-02-22</minDate>
    <maxDate>2013-01-14</maxDate>
    <latitude>55.9553</latitude>
    <longitude>-133.6178</longitude>
    <locationLabels>
      <type>CNTRY</type>
      <id>FIPS:US</id>
      <displayName>United States</displayName>
    </locationLabels>
    <coverage>0.9459</coverage>
  </station>
  <station>
    <id>GHCND:USC00412768</id>
    <displayName>EDNA HIGHWAY 59 BRIDGE, TX US</displayName>
    <minDate>1968-03-01</minDate>
    <maxDate>1995-11-30</maxDate>
    <latitude>28.96667</latitude>
    <longitude>-96.68333</longitude>
    <elevation>20.7</elevation>
    <locationLabels>
      <type>CNTRY</type>
      <id>FIPS:US</id>
      <displayName>United States</displayName>
    </locationLabels>
    <coverage>0.9483</coverage>
  </station>
  <station>
    <id>GHCND:USC00312661</id>
    <displayName>EDNEYVILLE, NC US</displayName>
    <minDate>1951-07-01</minDate>
    <maxDate>1954-11-30</maxDate>
    <latitude>35.41667</latitude>
    <longitude>-82.33333</longitude>
    <elevation>683.1</elevation>
    <locationLabels>
      <type>CNTRY</type>
      <id>FIPS:US</id>
      <displayName>United States</displayName>
    </locationLabels>
    <coverage>0.98</coverage>
  </station>
  <station>
    <id>GHCND:USC00412772</id>
    <displayName>EDOM, TX US</displayName>
    <minDate>1940-04-01</minDate>
    <maxDate>2012-11-30</maxDate>
    <latitude>32.3655</latitude>
    <longitude>-95.6088</longitude>
    <elevation>154.8</elevation>
    <locationLabels>
      <type>CNTRY</type>
      <id>FIPS:US</id>
      <displayName>United States</displayName>
    </locationLabels>
    <coverage>0.9655</coverage>
  </station>
  <station>
    <id>GHCND:USC00392580</id>
    <displayName>EDSON, SD US</displayName>
    <minDate>1911-05-01</minDate>
    <maxDate>1912-07-31</maxDate>
    <latitude>45.016667</latitude>
    <longitude>-102.2</longitude>
    <locationLabels>
      <type>CNTRY</type>
      <id>FIPS:US</id>
      <displayName>United States</displayName>
    </locationLabels>
    <coverage>0.9301</coverage>
  </station>
  <station>
    <id>GHCND:US1NYSL0009</id>
    <displayName>EDWARDS 0.9 NW, NY US</displayName>
    <minDate>2009-05-27</minDate>
    <maxDate>2012-07-14</maxDate>
    <latitude>44.3365</latitude>
    <longitude>-75.2617</longitude>
    <elevation>219.5</elevation>
    <locationLabels>
      <type>CNTRY</type>
      <id>FIPS:US</id>
      <displayName>United States</displayName>
    </locationLabels>
    <coverage>0.6638</coverage>
  </station>
  <station>
    <id>GHCND:US1COEG0003</id>
    <displayName>EDWARDS 1.3 WNW, CO US</displayName>
    <minDate>2003-09-13</minDate>
    <maxDate>2011-01-26</maxDate>
    <latitude>39.6501</latitude>
    <longitude>-106.6199</longitude>
    <elevation>2181.1</elevation>
    <locationLabels>
      <type>CNTRY</type>
      <id>FIPS:US</id>
      <displayName>United States</displayName>
    </locationLabels>
    <coverage>0.459</coverage>
  </station>
  <station>
    <id>GHCND:US1MOBT0004</id>
    <displayName>EDWARDS 7.1 NW, MO US</displayName>
    <minDate>2011-02-23</minDate>
    <maxDate>2013-01-16</maxDate>
    <latitude>38.2202</latitude>
    <longitude>-93.2448</longitude>
    <elevation>262.4</elevation>
    <locationLabels>
      <type>CNTRY</type>
      <id>FIPS:US</id>
      <displayName>United States</displayName>
    </locationLabels>
    <coverage>0.8516</coverage>
  </station>
  <station>
    <id>GHCND:USW00053144</id>
    <displayName>EDWARDS AFB NORTH AUXILIARY AIRFIELD, CA US</displayName>
    <minDate>2006-05-01</minDate>
    <maxDate>2011-11-08</maxDate>
    <latitude>34.98833</latitude>
    <longitude>-117.86472</longitude>
    <elevation>695.9</elevation>
    <locationLabels>
      <type>CNTRY</type>
      <id>FIPS:US</id>
      <displayName>United States</displayName>
    </locationLabels>
    <coverage>0.8528</coverage>
  </station>
  <station>
    <id>GHCND:USW00023114</id>
    <displayName>EDWARDS AFB, CA US</displayName>
    <minDate>1949-01-01</minDate>
    <maxDate>1970-12-31</maxDate>
    <latitude>34.9</latitude>
    <longitude>-117.86667</longitude>
    <elevation>704.4</elevation>
    <locationLabels>
      <type>CNTRY</type>
      <id>FIPS:US</id>
      <displayName>United States</displayName>
    </locationLabels>
    <coverage>0.996</coverage>
  </station>
  <station>
    <id>GHCND:USC00222668</id>
    <displayName>EDWARDS, MS US</displayName>
    <minDate>1891-03-01</minDate>
    <maxDate>1920-11-30</maxDate>
    <latitude>32.31667</latitude>
    <longitude>-90.61667</longitude>
    <elevation>75.9</elevation>
    <locationLabels>
      <type>CNTRY</type>
      <id>FIPS:US</id>
      <displayName>United States</displayName>
    </locationLabels>
    <coverage>0.946</coverage>
  </station>
  <station>
    <id>GHCND:US1ILMD0020</id>
    <displayName>EDWARDSVILLE 0.9 WSW, IL US</displayName>
    <minDate>2009-05-08</minDate>
    <maxDate>2013-01-16</maxDate>
    <latitude>38.8089</latitude>
    <longitude>-89.97</longitude>
    <elevation>164</elevation>
    <locationLabels>
      <type>CNTRY</type>
      <id>FIPS:US</id>
      <displayName>United States</displayName>
    </locationLabels>
    <coverage>0.7978</coverage>
  </station>
  <station>
    <id>GHCND:USC00112679</id>
    <displayName>EDWARDSVILLE 2 W, IL US</displayName>
    <minDate>1893-02-01</minDate>
    <maxDate>2013-01-16</maxDate>
    <latitude>38.80972</latitude>
    <longitude>-90.00278</longitude>
    <elevation>152.4</elevation>
    <locationLabels>
      <type>CNTRY</type>
      <id>FIPS:US</id>
      <displayName>United States</displayName>
    </locationLabels>
    <coverage>0.8031</coverage>
  </station>
  <station>
    <id>GHCND:USC00142380</id>
    <displayName>EDWARDSVILLE 3 NNW, KS US</displayName>
    <minDate>1957-06-28</minDate>
    <maxDate>1987-09-30</maxDate>
    <latitude>39.1</latitude>
    <longitude>-94.83333</longitude>
    <elevation>292.6</elevation>
    <locationLabels>
      <type>CNTRY</type>
      <id>FIPS:US</id>
      <displayName>United States</displayName>
    </locationLabels>
    <coverage>0.6975</coverage>
  </station>
  <station>
    <id>GHCND:USC00122554</id>
    <displayName>EDWARDSVILLE, IN US</displayName>
    <minDate>1894-11-01</minDate>
    <maxDate>1903-06-30</maxDate>
    <latitude>38.28333</latitude>
    <longitude>-85.9</longitude>
    <locationLabels>
      <type>CNTRY</type>
      <id>FIPS:US</id>
      <displayName>United States</displayName>
    </locationLabels>
    <coverage>0.9719</coverage>
  </station>
  <station>
    <id>GHCND:USR0000CEEL</id>
    <displayName>EEL RIVER CALIFORNIA, CA US</displayName>
    <minDate>1992-05-18</minDate>
    <maxDate>2012-08-30</maxDate>
    <latitude>39.8333</latitude>
    <longitude>-123.0833</longitude>
    <elevation>457.2</elevation>
    <locationLabels>
      <type>CNTRY</type>
      <id>FIPS:US</id>
      <displayName>United States</displayName>
    </locationLabels>
    <coverage>0.9506</coverage>
  </station>
  <station>
    <id>GHCND:USR0000CEEC</id>
    <displayName>EEL RIVER CAMP CALIFORNIA, CA US</displayName>
    <minDate>2001-07-10</minDate>
    <maxDate>2012-08-30</maxDate>
    <latitude>40.1383</latitude>
    <longitude>-123.8236</longitude>
    <elevation>135.9</elevation>
    <locationLabels>
      <type>CNTRY</type>
      <id>FIPS:US</id>
      <displayName>United States</displayName>
    </locationLabels>
    <coverage>0.9118</coverage>
  </station>
  <station>
    <id>GHCND:USR0000MEFF</id>
    <displayName>EFFIE MINNESOTA, MN US</displayName>
    <minDate>2003-01-06</minDate>
    <maxDate>2012-08-31</maxDate>
    <latitude>47.7794</latitude>
    <longitude>-93.6461</longitude>
    <elevation>408.4</elevation>
    <locationLabels>
      <type>CNTRY</type>
      <id>FIPS:US</id>
      <displayName>United States</displayName>
    </locationLabels>
    <coverage>0.8959</coverage>
  </station>
  <station>
    <id>GHCND:US1NHCR0010</id>
    <displayName>EFFINGHAM 0.9 NNW, NH US</displayName>
    <minDate>2009-07-12</minDate>
    <maxDate>2013-01-16</maxDate>
    <latitude>43.7743</latitude>
    <longitude>-70.9995</longitude>
    <elevation>150.6</elevation>
    <locationLabels>
      <type>CNTRY</type>
      <id>FIPS:US</id>
      <displayName>United States</displayName>
    </locationLabels>
    <coverage>0.7875</coverage>
  </station>
  <station>
    <id>GHCND:US1ILEF0006</id>
    <displayName>EFFINGHAM 2.3 WNW, IL US</displayName>
    <minDate>2008-03-23</minDate>
    <maxDate>2013-01-16</maxDate>
    <latitude>39.1346</latitude>
    <longitude>-88.5888</longitude>
    <elevation>180.4</elevation>
    <locationLabels>
      <type>CNTRY</type>
      <id>FIPS:US</id>
      <displayName>United States</displayName>
    </locationLabels>
    <coverage>0.9563</coverage>
  </station>
  <station>
    <id>GHCND:US1ILEF0001</id>
    <displayName>EFFINGHAM 3.9 WSW, IL US</displayName>
    <minDate>2006-12-26</minDate>
    <maxDate>2009-06-20</maxDate>
    <latitude>39.0921</latitude>
    <longitude>-88.6143</longitude>
    <elevation>174</elevation>
    <locationLabels>
      <type>CNTRY</type>
      <id>FIPS:US</id>
      <displayName>United States</displayName>
    </locationLabels>
    <coverage>0.1388</coverage>
  </station>
  <station>
    <id>GHCND:US1ILEF0007</id>
    <displayName>EFFINGHAM 4.6 N, IL US</displayName>
    <minDate>2008-03-29</minDate>
    <maxDate>2011-11-12</maxDate>
    <latitude>39.1864</latitude>
    <longitude>-88.545</longitude>
    <elevation>167.6</elevation>
    <locationLabels>
      <type>CNTRY</type>
      <id>FIPS:US</id>
      <displayName>United States</displayName>
    </locationLabels>
    <coverage>0.7341</coverage>
  </station>
  <station>
    <id>GHCND:US1ILEF0005</id>
    <displayName>EFFINGHAM 4.6 NW, IL US</displayName>
    <minDate>2008-04-03</minDate>
    <maxDate>2008-11-07</maxDate>
    <latitude>39.1649</latitude>
    <longitude>-88.6139</longitude>
    <elevation>188.1</elevation>
    <locationLabels>
      <type>CNTRY</type>
      <id>FIPS:US</id>
      <displayName>United States</displayName>
    </locationLabels>
    <coverage>0.9543</coverage>
  </station>
  <station>
    <id>GHCND:US1ILEF0013</id>
    <displayName>EFFINGHAM 6.7 N, IL US</displayName>
    <minDate>2012-07-03</minDate>
    <maxDate>2013-01-16</maxDate>
    <latitude>39.2157</latitude>
    <longitude>-88.5358</longitude>
    <elevation>189.9</elevation>
    <locationLabels>
      <type>CNTRY</type>
      <id>FIPS:US</id>
      <displayName>United States</displayName>
    </locationLabels>
    <coverage>0.9798</coverage>
  </station>
  <station>
    <id>GHCND:USC00112685</id>
    <displayName>EFFINGHAM SE, IL US</displayName>
    <minDate>2000-09-01</minDate>
    <maxDate>2013-01-16</maxDate>
    <latitude>39.1065</latitude>
    <longitude>-88.5312</longitude>
    <elevation>190.5</elevation>
    <locationLabels>
      <type>CNTRY</type>
      <id>FIPS:US</id>
      <displayName>United States</displayName>
    </locationLabels>
    <coverage>0.9958</coverage>
  </station>
  <station>
    <id>GHCND:USW00093816</id>
    <displayName>EFFINGHAM, IL US</displayName>
    <minDate>1893-01-01</minDate>
    <maxDate>2013-01-16</maxDate>
    <latitude>39.1181</latitude>
    <longitude>-88.6244</longitude>
    <elevation>190.5</elevation>
    <locationLabels>
      <type>CNTRY</type>
      <id>FIPS:US</id>
      <displayName>United States</displayName>
    </locationLabels>
    <coverage>0.8838</coverage>
  </station>
  <station>
    <id>GHCND:USC00142388</id>
    <displayName>EFFINGHAM, KS US</displayName>
    <minDate>1960-04-11</minDate>
    <maxDate>2013-01-15</maxDate>
    <latitude>39.53</latitude>
    <longitude>-95.3966</longitude>
    <elevation>350.5</elevation>
    <locationLabels>
      <type>CNTRY</type>
      <id>FIPS:US</id>
      <displayName>United States</displayName>
    </locationLabels>
    <coverage>0.9706</coverage>
  </station>
  <station>
    <id>GHCND:USC00382757</id>
    <displayName>EFFINGHAM, SC US</displayName>
    <minDate>1892-12-01</minDate>
    <maxDate>2012-11-30</maxDate>
    <latitude>34.0627</latitude>
    <longitude>-79.7555</longitude>
    <elevation>32.3</elevation>
    <locationLabels>
      <type>CNTRY</type>
      <id>FIPS:US</id>
      <displayName>United States</displayName>
    </locationLabels>
    <coverage>0.9878</coverage>
  </station>
  <station>
    <id>GHCND:US1NCOR0002</id>
    <displayName>EFLAND 4.0 NNW, NC US</displayName>
    <minDate>2007-08-01</minDate>
    <maxDate>2013-01-16</maxDate>
    <latitude>36.1383</latitude>
    <longitude>-79.1806</longitude>
    <elevation>210.9</elevation>
    <locationLabels>
      <type>CNTRY</type>
      <id>FIPS:US</id>
      <displayName>United States</displayName>
    </locationLabels>
    <coverage>0.976</coverage>
  </station>
  <station>
    <id>GHCND:US1NJAT0013</id>
    <displayName>EGG HARBOR TWP 1.3 NW, NJ US</displayName>
    <minDate>2010-02-06</minDate>
    <maxDate>2013-01-16</maxDate>
    <latitude>39.3929</latitude>
    <longitude>-74.6248</longitude>
    <elevation>16.5</elevation>
    <locationLabels>
      <type>CNTRY</type>
      <id>FIPS:US</id>
      <displayName>United States</displayName>
    </locationLabels>
    <coverage>0.9749</coverage>
  </station>
  <station>
    <id>GHCND:US1VAGL0004</id>
    <displayName>EGGLESTON 3.4 SW, VA US</displayName>
    <minDate>2010-05-03</minDate>
    <maxDate>2011-04-20</maxDate>
    <latitude>37.2566</latitude>
    <longitude>-80.6676</longitude>
    <elevation>602</elevation>
    <locationLabels>
      <type>CNTRY</type>
      <id>FIPS:US</id>
      <displayName>United States</displayName>
    </locationLabels>
    <coverage>0.5439</coverage>
  </station>
  <station>
    <id>GHCND:US1FLOK0002</id>
    <displayName>EGLIN AFB 5.6 NE, FL US</displayName>
    <minDate>2007-09-22</minDate>
    <maxDate>2013-01-16</maxDate>
    <latitude>30.5244</latitude>
    <longitude>-86.4924</longitude>
    <elevation>18.9</elevation>
    <locationLabels>
      <type>CNTRY</type>
      <id>FIPS:US</id>
      <displayName>United States</displayName>
    </locationLabels>
    <coverage>0.9913</coverage>
  </station>
  <station>
    <id>GHCND:USC00412780</id>
    <displayName>EGYPT, TX US</displayName>
    <minDate>1921-05-01</minDate>
    <maxDate>1928-05-30</maxDate>
    <latitude>29.4</latitude>
    <longitude>-96.23333</longitude>
    <elevation>39.9</elevation>
    <locationLabels>
      <type>CNTRY</type>
      <id>FIPS:US</id>
      <displayName>United States</displayName>
    </locationLabels>
    <coverage>0.976</coverage>
  </station>
  <station>
    <id>GHCND:USC00022790</id>
    <displayName>EHRENBERG 2 E, AZ US</displayName>
    <minDate>1977-02-01</minDate>
    <maxDate>2013-01-01</maxDate>
    <latitude>33.6133</latitude>
    <longitude>-114.4706</longitude>
    <elevation>141.7</elevation>
    <locationLabels>
      <type>CNTRY</type>
      <id>FIPS:US</id>
      <displayName>United States</displayName>
    </locationLabels>
    <coverage>0.9063</coverage>
  </station>
  <station>
    <id>GHCND:USC00022787</id>
    <displayName>EHRENBERG, AZ US</displayName>
    <minDate>1941-10-21</minDate>
    <maxDate>1977-01-31</maxDate>
    <latitude>33.6</latitude>
    <longitude>-114.53333</longitude>
    <elevation>98.1</elevation>
    <locationLabels>
      <type>CNTRY</type>
      <id>FIPS:US</id>
      <displayName>United States</displayName>
    </locationLabels>
    <coverage>0.9633</coverage>
  </station>
  <station>
    <id>GHCND:USC00382765</id>
    <displayName>EHRHARDT, SC US</displayName>
    <minDate>1948-08-01</minDate>
    <maxDate>1949-07-31</maxDate>
    <latitude>33.1</latitude>
    <longitude>-81.01667</longitude>
    <locationLabels>
      <type>CNTRY</type>
      <id>FIPS:US</id>
      <displayName>United States</displayName>
    </locationLabels>
    <coverage>0.9123</coverage>
  </station>
  <station>
    <id>GHCND:USC00292757</id>
    <displayName>EICKS RANCH, NM US</displayName>
    <minDate>1916-02-01</minDate>
    <maxDate>1961-10-31</maxDate>
    <latitude>31.48333</latitude>
    <longitude>-108.93333</longitude>
    <elevation>1617</elevation>
    <locationLabels>
      <type>CNTRY</type>
      <id>FIPS:US</id>
      <displayName>United States</displayName>
    </locationLabels>
    <coverage>0.7699</coverage>
  </station>
  <station>
    <id>GHCND:USC00502707</id>
    <displayName>EIELSON FIELD, AK US</displayName>
    <minDate>1946-10-01</minDate>
    <maxDate>2011-06-30</maxDate>
    <latitude>64.66667</latitude>
    <longitude>-147.1</longitude>
    <elevation>166.7</elevation>
    <locationLabels>
      <type>CNTRY</type>
      <id>FIPS:US</id>
      <displayName>United States</displayName>
    </locationLabels>
    <coverage>0.9227</coverage>
  </station>
  <station>
    <id>GHCND:USW00026407</id>
    <displayName>EIELSON FIELD, AK US</displayName>
    <minDate>1949-01-01</minDate>
    <maxDate>1970-12-31</maxDate>
    <latitude>64.68333</latitude>
    <longitude>-147.08333</longitude>
    <elevation>166.7</elevation>
    <locationLabels>
      <type>CNTRY</type>
      <id>FIPS:US</id>
      <displayName>United States</displayName>
    </locationLabels>
    <coverage>0.9991</coverage>
  </station>
  <station>
    <id>GHCND:USC00502711</id>
    <displayName>EIELSON VISITOR CENTER, AK US</displayName>
    <minDate>1971-01-28</minDate>
    <maxDate>2013-01-16</maxDate>
    <latitude>63.42583</latitude>
    <longitude>-150.31167</longitude>
    <elevation>1146.4</elevation>
    <locationLabels>
      <type>CNTRY</type>
      <id>FIPS:US</id>
      <displayName>United States</displayName>
    </locationLabels>
    <coverage>0.1984</coverage>
  </station>
  <station>
    <id>GHCND:USC00232492</id>
    <displayName>EIGHT MILE, MO US</displayName>
    <minDate>1893-01-01</minDate>
    <maxDate>1904-02-29</maxDate>
    <latitude>38.6667</latitude>
    <longitude>-94.2167</longitude>
    <elevation>260.6</elevation>
    <locationLabels>
      <type>CNTRY</type>
      <id>FIPS:US</id>
      <displayName>United States</displayName>
    </locationLabels>
    <coverage>0.8342</coverage>
  </station>
  <station>
    <id>GHCND:USS0018E03S</id>
    <displayName>EILERTSON MEADOWS, OR US</displayName>
    <minDate>1980-10-01</minDate>
    <maxDate>2013-01-13</maxDate>
    <latitude>44.85</latitude>
    <longitude>-118.1167</longitude>
    <elevation>1645.9</elevation>
    <locationLabels>
      <type>CNTRY</type>
      <id>FIPS:US</id>
      <displayName>United States</displayName>
    </locationLabels>
    <coverage>0.9226</coverage>
  </station>
  <station>
    <id>GHCND:USC00362537</id>
    <displayName>EISENHOWER NHS, PA US</displayName>
    <minDate>1982-02-01</minDate>
    <maxDate>2010-11-30</maxDate>
    <latitude>39.805</latitude>
    <longitude>-77.2292</longitude>
    <elevation>164.6</elevation>
    <locationLabels>
      <type>CNTRY</type>
      <id>FIPS:US</id>
      <displayName>United States</displayName>
    </locationLabels>
    <coverage>0.9739</coverage>
  </station>
  <station>
    <id>GHCND:US1MTCT0006</id>
    <displayName>EKALAKA 0.3 SSW, MT US</displayName>
    <minDate>2011-10-26</minDate>
    <maxDate>2013-01-16</maxDate>
    <latitude>45.8856</latitude>
    <longitude>-104.5505</longitude>
    <elevation>1052.5</elevation>
    <locationLabels>
      <type>CNTRY</type>
      <id>FIPS:US</id>
      <displayName>United States</displayName>
    </locationLabels>
    <coverage>0.9354</coverage>
  </station>
  <station>
    <id>GHCND:US1MTCT0004</id>
    <displayName>EKALAKA 0.8 NNE, MT US</displayName>
    <minDate>2011-05-18</minDate>
    <maxDate>2013-01-16</maxDate>
    <latitude>45.8995</latitude>
    <longitude>-104.542</longitude>
    <elevation>1063.1</elevation>
    <locationLabels>
      <type>CNTRY</type>
      <id>FIPS:US</id>
      <displayName>United States</displayName>
    </locationLabels>
    <coverage>0.2934</coverage>
  </station>
  <station>
    <id>GHCND:US1MTCT0005</id>
    <displayName>EKALAKA 9.4 WNW, MT US</displayName>
    <minDate>2011-05-30</minDate>
    <maxDate>2013-01-11</maxDate>
    <latitude>45.9387</latitude>
    <longitude>-104.7323</longitude>
    <elevation>993.3</elevation>
    <locationLabels>
      <type>CNTRY</type>
      <id>FIPS:US</id>
      <displayName>United States</displayName>
    </locationLabels>
    <coverage>0.3659</coverage>
  </station>
  <station>
    <id>GHCND:USC00242689</id>
    <displayName>EKALAKA, MT US</displayName>
    <minDate>1896-11-23</minDate>
    <maxDate>2013-01-15</maxDate>
    <latitude>45.8902</latitude>
    <longitude>-104.5461</longitude>
    <elevation>1043.9</elevation>
    <locationLabels>
      <type>CNTRY</type>
      <id>FIPS:US</id>
      <displayName>United States</displayName>
    </locationLabels>
    <coverage>0.9612</coverage>
  </station>
  <station>
    <id>GHCND:USC00502725</id>
    <displayName>EKLUTNA LAKE, AK US</displayName>
    <minDate>1946-06-01</minDate>
    <maxDate>1976-08-31</maxDate>
    <latitude>61.4</latitude>
    <longitude>-149.15</longitude>
    <elevation>267.9</elevation>
    <locationLabels>
      <type>CNTRY</type>
      <id>FIPS:US</id>
      <displayName>United States</displayName>
    </locationLabels>
    <coverage>0.8985</coverage>
  </station>
  <station>
    <id>GHCND:USC00502730</id>
    <displayName>EKLUTNA PROJECT, AK US</displayName>
    <minDate>1952-01-01</minDate>
    <maxDate>1998-01-31</maxDate>
    <latitude>61.46667</latitude>
    <longitude>-149.16667</longitude>
    <elevation>11.6</elevation>
    <locationLabels>
      <type>CNTRY</type>
      <id>FIPS:US</id>
      <displayName>United States</displayName>
    </locationLabels>
    <coverage>0.9165</coverage>
  </station>
  <station>
    <id>GHCND:USC00502737</id>
    <displayName>EKLUTNA WTP, AK US</displayName>
    <minDate>2001-03-01</minDate>
    <maxDate>2012-11-30</maxDate>
    <latitude>61.4495</latitude>
    <longitude>-149.323</longitude>
    <elevation>195.1</elevation>
    <locationLabels>
      <type>CNTRY</type>
      <id>FIPS:US</id>
      <displayName>United States</displayName>
    </locationLabels>
    <coverage>0.9355</coverage>
  </station>
  <station>
    <id>GHCND:USC00502717</id>
    <displayName>EKLUTNA, AK US</displayName>
    <minDate>1941-05-01</minDate>
    <maxDate>1955-02-28</maxDate>
    <latitude>61.45</latitude>
    <longitude>-149.33333</longitude>
    <elevation>7.9</elevation>
    <locationLabels>
      <type>CNTRY</type>
      <id>FIPS:US</id>
      <displayName>United States</displayName>
    </locationLabels>
    <coverage>0.9891</coverage>
  </station>
  <station>
    <id>GHCND:US1KYMD0002</id>
    <displayName>EKRON 2.6 ESE, KY US</displayName>
    <minDate>2008-04-19</minDate>
    <maxDate>2013-01-16</maxDate>
    <latitude>37.9101</latitude>
    <longitude>-86.1364</longitude>
    <elevation>198.7</elevation>
    <locationLabels>
      <type>CNTRY</type>
      <id>FIPS:US</id>
      <displayName>United States</displayName>
    </locationLabels>
    <coverage>0.9862</coverage>
  </station>
  <station>
    <id>GHCND:US1CASD0036</id>
    <displayName>EL CAJON 0.7 S, CA US</displayName>
    <minDate>2009-09-09</minDate>
    <maxDate>2012-12-31</maxDate>
    <latitude>32.7921</latitude>
    <longitude>-116.9585</longitude>
    <elevation>135.3</elevation>
    <locationLabels>
      <type>CNTRY</type>
      <id>FIPS:US</id>
      <displayName>United States</displayName>
    </locationLabels>
    <coverage>0.1504</coverage>
  </station>
  <station>
    <id>GHCND:US1CASD0009</id>
    <displayName>EL CAJON 1.7 WSW, CA US</displayName>
    <minDate>2008-11-02</minDate>
    <maxDate>2013-01-15</maxDate>
    <latitude>32.7909</latitude>
    <longitude>-116.9859</longitude>
    <elevation>221.6</elevation>
    <locationLabels>
      <type>CNTRY</type>
      <id>FIPS:US</id>
      <displayName>United States</displayName>
    </locationLabels>
    <coverage>0.9967</coverage>
  </station>
  <station>
    <id>GHCND:USC00042705</id>
    <displayName>EL CAJON 2 E, CA US</displayName>
    <minDate>1899-02-01</minDate>
    <maxDate>1959-10-31</maxDate>
    <latitude>32.78333</latitude>
    <longitude>-116.91667</longitude>
    <elevation>161.8</elevation>
    <locationLabels>
      <type>CNTRY</type>
      <id>FIPS:US</id>
      <displayName>United States</displayName>
    </locationLabels>
    <coverage>0.9781</coverage>
  </station>
  <station>
    <id>GHCND:US1CASD0006</id>
    <displayName>EL CAJON 2.2 ENE, CA US</displayName>
    <minDate>2008-03-21</minDate>
    <maxDate>2013-01-16</maxDate>
    <latitude>32.8117</latitude>
    <longitude>-116.9253</longitude>
    <elevation>181.4</elevation>
    <locationLabels>
      <type>CNTRY</type>
      <id>FIPS:US</id>
      <displayName>United States</displayName>
    </locationLabels>
    <coverage>0.7362</coverage>
  </station>
  <station>
    <id>GHCND:US1CASD0040</id>
    <displayName>EL CAJON 2.3 S, CA US</displayName>
    <minDate>2009-12-15</minDate>
    <maxDate>2013-01-16</maxDate>
    <latitude>32.7698</latitude>
    <longitude>-116.9593</longitude>
    <elevation>224.9</elevation>
    <locationLabels>
      <type>CNTRY</type>
      <id>FIPS:US</id>
      <displayName>United States</displayName>
    </locationLabels>
    <coverage>0.946</coverage>
  </station>
  <station>
    <id>GHCND:USC00042706</id>
    <displayName>EL CAJON, CA US</displayName>
    <minDate>1979-11-01</minDate>
    <maxDate>2013-01-15</maxDate>
    <latitude>32.8138</latitude>
    <longitude>-116.975</longitude>
    <elevation>123.4</elevation>
    <locationLabels>
      <type>CNTRY</type>
      <id>FIPS:US</id>
      <displayName>United States</displayName>
    </locationLabels>
    <coverage>0.9315</coverage>
  </station>
  <station>
    <id>GHCND:US1TXWH0010</id>
    <displayName>EL CAMPO 0.5 ENE, TX US</displayName>
    <minDate>2011-05-01</minDate>
    <maxDate>2013-01-14</maxDate>
    <latitude>29.1981</latitude>
    <longitude>-96.2677</longitude>
    <elevation>32.3</elevation>
    <locationLabels>
      <type>CNTRY</type>
      <id>FIPS:US</id>
      <displayName>United States</displayName>
    </locationLabels>
    <coverage>0.968</coverage>
  </station>
</stationCollection>
