<?xml version="1.0" encoding="UTF-8" standalone="yes"?>
<stationCollection totalCount="46020" pageCount="461" pageSize="100" page="101">
  <station>
    <id>GHCND:USS0007J04S</id>
    <displayName>CROSHO, CO US</displayName>
    <minDate>1986-10-01</minDate>
    <maxDate>2013-01-13</maxDate>
    <latitude>40.1667</latitude>
    <longitude>-107.05</longitude>
    <elevation>2773.7</elevation>
    <locationLabels>
      <type>CNTRY</type>
      <id>FIPS:US</id>
      <displayName>United States</displayName>
    </locationLabels>
    <coverage>0.9486</coverage>
  </station>
  <station>
    <id>GHCND:US1TXMCM005</id>
    <displayName>CROSS 1.7 NNW, TX US</displayName>
    <minDate>2011-01-22</minDate>
    <maxDate>2013-01-09</maxDate>
    <latitude>28.6285</latitude>
    <longitude>-98.5521</longitude>
    <elevation>98.1</elevation>
    <locationLabels>
      <type>CNTRY</type>
      <id>FIPS:US</id>
      <displayName>United States</displayName>
    </locationLabels>
    <coverage>0.2058</coverage>
  </station>
  <station>
    <id>GHCND:USC00082008</id>
    <displayName>CROSS CITY 2 WNW, FL US</displayName>
    <minDate>1948-07-01</minDate>
    <maxDate>2013-01-16</maxDate>
    <latitude>29.6333</latitude>
    <longitude>-83.1053</longitude>
    <elevation>12.8</elevation>
    <locationLabels>
      <type>CNTRY</type>
      <id>FIPS:US</id>
      <displayName>United States</displayName>
    </locationLabels>
    <coverage>0.9519</coverage>
  </station>
  <station>
    <id>GHCND:USW00012833</id>
    <displayName>CROSS CITY AIRPORT, FL US</displayName>
    <minDate>1949-01-01</minDate>
    <maxDate>2013-01-14</maxDate>
    <latitude>29.63333</latitude>
    <longitude>-83.10528</longitude>
    <elevation>11.6</elevation>
    <locationLabels>
      <type>CNTRY</type>
      <id>FIPS:US</id>
      <displayName>United States</displayName>
    </locationLabels>
    <coverage>0.3204</coverage>
  </station>
  <station>
    <id>GHCND:US1TNST0001</id>
    <displayName>CROSS CREEK NWR, TN US</displayName>
    <minDate>2007-06-01</minDate>
    <maxDate>2007-12-21</maxDate>
    <latitude>36.4927</latitude>
    <longitude>-87.7919</longitude>
    <elevation>114</elevation>
    <locationLabels>
      <type>CNTRY</type>
      <id>FIPS:US</id>
      <displayName>United States</displayName>
    </locationLabels>
    <coverage>0.5</coverage>
  </station>
  <station>
    <id>GHCND:US1TNRB0024</id>
    <displayName>CROSS PLAINS 1.9 NNE, TN US</displayName>
    <minDate>2007-12-10</minDate>
    <maxDate>2009-05-09</maxDate>
    <latitude>36.5667</latitude>
    <longitude>-86.6743</longitude>
    <elevation>228</elevation>
    <locationLabels>
      <type>CNTRY</type>
      <id>FIPS:US</id>
      <displayName>United States</displayName>
    </locationLabels>
    <coverage>0.2979</coverage>
  </station>
  <station>
    <id>GHCND:USC00412131</id>
    <displayName>CROSS PLAINS 2, TX US</displayName>
    <minDate>1948-06-01</minDate>
    <maxDate>1951-09-30</maxDate>
    <latitude>32.1266</latitude>
    <longitude>-99.1605</longitude>
    <elevation>545.6</elevation>
    <locationLabels>
      <type>CNTRY</type>
      <id>FIPS:US</id>
      <displayName>United States</displayName>
    </locationLabels>
    <coverage>0.9137</coverage>
  </station>
  <station>
    <id>GHCND:US1TNRB0002</id>
    <displayName>CROSS PLAINS 3.7 W, TN US</displayName>
    <minDate>2007-04-07</minDate>
    <maxDate>2012-12-10</maxDate>
    <latitude>36.5502</latitude>
    <longitude>-86.7476</longitude>
    <elevation>223.1</elevation>
    <locationLabels>
      <type>CNTRY</type>
      <id>FIPS:US</id>
      <displayName>United States</displayName>
    </locationLabels>
    <coverage>0.587</coverage>
  </station>
  <station>
    <id>GHCND:USC00412128</id>
    <displayName>CROSS PLAINS, TX US</displayName>
    <minDate>1939-04-01</minDate>
    <maxDate>1976-09-30</maxDate>
    <latitude>32.11667</latitude>
    <longitude>-99.16667</longitude>
    <elevation>531</elevation>
    <locationLabels>
      <type>CNTRY</type>
      <id>FIPS:US</id>
      <displayName>United States</displayName>
    </locationLabels>
    <coverage>0.9623</coverage>
  </station>
  <station>
    <id>GHCND:USC00301896</id>
    <displayName>CROSS RIVER, NY US</displayName>
    <minDate>1948-05-01</minDate>
    <maxDate>1961-03-31</maxDate>
    <latitude>41.26667</latitude>
    <longitude>-73.68333</longitude>
    <elevation>73.2</elevation>
    <locationLabels>
      <type>CNTRY</type>
      <id>FIPS:US</id>
      <displayName>United States</displayName>
    </locationLabels>
    <coverage>1</coverage>
  </station>
  <station>
    <id>GHCND:US1MOHC0002</id>
    <displayName>CROSS TIMBERS 6.0 WNW, MO US</displayName>
    <minDate>2006-08-20</minDate>
    <maxDate>2011-01-26</maxDate>
    <latitude>38.0565</latitude>
    <longitude>-93.3305</longitude>
    <elevation>253</elevation>
    <locationLabels>
      <type>CNTRY</type>
      <id>FIPS:US</id>
      <displayName>United States</displayName>
    </locationLabels>
    <coverage>0.4269</coverage>
  </station>
  <station>
    <id>GHCND:USC00201896</id>
    <displayName>CROSS VILLAGE 1 E, MI US</displayName>
    <minDate>1953-09-01</minDate>
    <maxDate>2013-01-15</maxDate>
    <latitude>45.6413</latitude>
    <longitude>-85.0141</longitude>
    <elevation>219.8</elevation>
    <locationLabels>
      <type>CNTRY</type>
      <id>FIPS:US</id>
      <displayName>United States</displayName>
    </locationLabels>
    <coverage>0.9793</coverage>
  </station>
  <station>
    <id>GHCND:USC00392063</id>
    <displayName>CROSS, SD US</displayName>
    <minDate>1893-01-01</minDate>
    <maxDate>1897-12-31</maxDate>
    <latitude>43.8694</latitude>
    <longitude>-103.3667</longitude>
    <elevation>1828.8</elevation>
    <locationLabels>
      <type>CNTRY</type>
      <id>FIPS:US</id>
      <displayName>United States</displayName>
    </locationLabels>
    <coverage>1</coverage>
  </station>
  <station>
    <id>GHCND:USC00412125</id>
    <displayName>CROSS, TX US</displayName>
    <minDate>1997-01-01</minDate>
    <maxDate>2013-01-16</maxDate>
    <latitude>28.5978</latitude>
    <longitude>-98.5547</longitude>
    <elevation>86.9</elevation>
    <locationLabels>
      <type>CNTRY</type>
      <id>FIPS:US</id>
      <displayName>United States</displayName>
    </locationLabels>
    <coverage>0.9904</coverage>
  </station>
  <station>
    <id>GHCND:USC00412124</id>
    <displayName>CROSSBAR RANCH, TX US</displayName>
    <minDate>1905-03-01</minDate>
    <maxDate>1909-12-31</maxDate>
    <latitude>35.55</latitude>
    <longitude>-100.416667</longitude>
    <elevation>1101.9</elevation>
    <locationLabels>
      <type>CNTRY</type>
      <id>FIPS:US</id>
      <displayName>United States</displayName>
    </locationLabels>
    <coverage>0.6321</coverage>
  </station>
  <station>
    <id>GHCND:US1ARAS0005</id>
    <displayName>CROSSETT 0.8 S, AR US</displayName>
    <minDate>2011-01-01</minDate>
    <maxDate>2011-10-23</maxDate>
    <latitude>33.116</latitude>
    <longitude>-91.9675</longitude>
    <elevation>49.7</elevation>
    <locationLabels>
      <type>CNTRY</type>
      <id>FIPS:US</id>
      <displayName>United States</displayName>
    </locationLabels>
    <coverage>0.7297</coverage>
  </station>
  <station>
    <id>GHCND:US1ARAS0002</id>
    <displayName>CROSSETT 1.1 SE, AR US</displayName>
    <minDate>2009-04-06</minDate>
    <maxDate>2013-01-16</maxDate>
    <latitude>33.1179</latitude>
    <longitude>-91.9507</longitude>
    <elevation>61</elevation>
    <locationLabels>
      <type>CNTRY</type>
      <id>FIPS:US</id>
      <displayName>United States</displayName>
    </locationLabels>
    <coverage>0.8256</coverage>
  </station>
  <station>
    <id>GHCND:USC00031730</id>
    <displayName>CROSSETT 2 SSE, AR US</displayName>
    <minDate>1915-02-01</minDate>
    <maxDate>2013-01-16</maxDate>
    <latitude>33.1111</latitude>
    <longitude>-91.948</longitude>
    <elevation>54.9</elevation>
    <locationLabels>
      <type>CNTRY</type>
      <id>FIPS:US</id>
      <displayName>United States</displayName>
    </locationLabels>
    <coverage>0.8983</coverage>
  </station>
  <station>
    <id>GHCND:US1ARAS0001</id>
    <displayName>CROSSETT 2.5 NNE, AR US</displayName>
    <minDate>2009-04-10</minDate>
    <maxDate>2013-01-16</maxDate>
    <latitude>33.16</latitude>
    <longitude>-91.9464</longitude>
    <elevation>40.5</elevation>
    <locationLabels>
      <type>CNTRY</type>
      <id>FIPS:US</id>
      <displayName>United States</displayName>
    </locationLabels>
    <coverage>0.7134</coverage>
  </station>
  <station>
    <id>GHCND:US1ARAS0004</id>
    <displayName>CROSSETT 7.1 NNW, AR US</displayName>
    <minDate>2009-11-05</minDate>
    <maxDate>2012-08-31</maxDate>
    <latitude>33.2257</latitude>
    <longitude>-91.9998</longitude>
    <elevation>43.3</elevation>
    <locationLabels>
      <type>CNTRY</type>
      <id>FIPS:US</id>
      <displayName>United States</displayName>
    </locationLabels>
    <coverage>0.1358</coverage>
  </station>
  <station>
    <id>GHCND:USC00351996</id>
    <displayName>CROSSETT, OR US</displayName>
    <minDate>1929-07-01</minDate>
    <maxDate>1942-07-31</maxDate>
    <latitude>46.13333</latitude>
    <longitude>-123.53333</longitude>
    <elevation>128</elevation>
    <locationLabels>
      <type>CNTRY</type>
      <id>FIPS:US</id>
      <displayName>United States</displayName>
    </locationLabels>
    <coverage>0.9929</coverage>
  </station>
  <station>
    <id>GHCND:US1NCAV0003</id>
    <displayName>CROSSNORE 2.7 SSW, NC US</displayName>
    <minDate>2008-02-15</minDate>
    <maxDate>2013-01-16</maxDate>
    <latitude>35.985</latitude>
    <longitude>-81.9427</longitude>
    <elevation>998.2</elevation>
    <locationLabels>
      <type>CNTRY</type>
      <id>FIPS:US</id>
      <displayName>United States</displayName>
    </locationLabels>
    <coverage>0.3076</coverage>
  </station>
  <station>
    <id>GHCND:USC00312172</id>
    <displayName>CROSSNORE, NC US</displayName>
    <minDate>1938-01-01</minDate>
    <maxDate>1959-06-30</maxDate>
    <latitude>36.01667</latitude>
    <longitude>-81.93333</longitude>
    <elevation>1046.1</elevation>
    <locationLabels>
      <type>CNTRY</type>
      <id>FIPS:US</id>
      <displayName>United States</displayName>
    </locationLabels>
    <coverage>0.9726</coverage>
  </station>
  <station>
    <id>GHCND:USC00292207</id>
    <displayName>CROSSROADS 2, NM US</displayName>
    <minDate>1929-05-01</minDate>
    <maxDate>2001-05-31</maxDate>
    <latitude>33.51333</latitude>
    <longitude>-103.34028</longitude>
    <elevation>1261.3</elevation>
    <locationLabels>
      <type>CNTRY</type>
      <id>FIPS:US</id>
      <displayName>United States</displayName>
    </locationLabels>
    <coverage>0.91</coverage>
  </station>
  <station>
    <id>GHCND:US1TNCM0006</id>
    <displayName>CROSSVILLE 0.8 NE, TN US</displayName>
    <minDate>2007-04-02</minDate>
    <maxDate>2010-06-28</maxDate>
    <latitude>35.9598</latitude>
    <longitude>-85.0269</longitude>
    <elevation>552.9</elevation>
    <locationLabels>
      <type>CNTRY</type>
      <id>FIPS:US</id>
      <displayName>United States</displayName>
    </locationLabels>
    <coverage>0.9392</coverage>
  </station>
  <station>
    <id>GHCND:US1TNCM0002</id>
    <displayName>CROSSVILLE 0.9 S, TN US</displayName>
    <minDate>2007-05-06</minDate>
    <maxDate>2011-03-21</maxDate>
    <latitude>35.9382</latitude>
    <longitude>-85.0359</longitude>
    <elevation>561.1</elevation>
    <locationLabels>
      <type>CNTRY</type>
      <id>FIPS:US</id>
      <displayName>United States</displayName>
    </locationLabels>
    <coverage>0.1448</coverage>
  </station>
  <station>
    <id>GHCND:US1TNCM0023</id>
    <displayName>CROSSVILLE 1.6 NNE, TN US</displayName>
    <minDate>2011-10-12</minDate>
    <maxDate>2013-01-16</maxDate>
    <latitude>35.9737</latitude>
    <longitude>-85.0287</longitude>
    <elevation>532.5</elevation>
    <locationLabels>
      <type>CNTRY</type>
      <id>FIPS:US</id>
      <displayName>United States</displayName>
    </locationLabels>
    <coverage>0.9676</coverage>
  </station>
  <station>
    <id>GHCND:US1TNCM0013</id>
    <displayName>CROSSVILLE 2.2 SSW, TN US</displayName>
    <minDate>2007-08-23</minDate>
    <maxDate>2013-01-16</maxDate>
    <latitude>35.9234</latitude>
    <longitude>-85.0534</longitude>
    <elevation>579.1</elevation>
    <locationLabels>
      <type>CNTRY</type>
      <id>FIPS:US</id>
      <displayName>United States</displayName>
    </locationLabels>
    <coverage>0.958</coverage>
  </station>
  <station>
    <id>GHCND:US1TNCM0012</id>
    <displayName>CROSSVILLE 2.2 SW, TN US</displayName>
    <minDate>2007-08-03</minDate>
    <maxDate>2013-01-16</maxDate>
    <latitude>35.9267</latitude>
    <longitude>-85.0606</longitude>
    <elevation>562.1</elevation>
    <locationLabels>
      <type>CNTRY</type>
      <id>FIPS:US</id>
      <displayName>United States</displayName>
    </locationLabels>
    <coverage>0.6841</coverage>
  </station>
  <station>
    <id>GHCND:US1TNCM0008</id>
    <displayName>CROSSVILLE 2.4 WNW, TN US</displayName>
    <minDate>2007-06-10</minDate>
    <maxDate>2008-06-19</maxDate>
    <latitude>35.9628</latitude>
    <longitude>-85.0784</longitude>
    <elevation>568.5</elevation>
    <locationLabels>
      <type>CNTRY</type>
      <id>FIPS:US</id>
      <displayName>United States</displayName>
    </locationLabels>
    <coverage>0.8191</coverage>
  </station>
  <station>
    <id>GHCND:US1TNCM0017</id>
    <displayName>CROSSVILLE 3.9 S, TN US</displayName>
    <minDate>2009-05-13</minDate>
    <maxDate>2011-08-07</maxDate>
    <latitude>35.8953</latitude>
    <longitude>-85.0458</longitude>
    <elevation>561.4</elevation>
    <locationLabels>
      <type>CNTRY</type>
      <id>FIPS:US</id>
      <displayName>United States</displayName>
    </locationLabels>
    <coverage>0.3256</coverage>
  </station>
  <station>
    <id>GHCND:US1TNCM0005</id>
    <displayName>CROSSVILLE 5.1 N, TN US</displayName>
    <minDate>2007-04-01</minDate>
    <maxDate>2013-01-14</maxDate>
    <latitude>36.0252</latitude>
    <longitude>-85.0271</longitude>
    <elevation>555.3</elevation>
    <locationLabels>
      <type>CNTRY</type>
      <id>FIPS:US</id>
      <displayName>United States</displayName>
    </locationLabels>
    <coverage>0.7859</coverage>
  </station>
  <station>
    <id>GHCND:US1TNCM0020</id>
    <displayName>CROSSVILLE 5.8 SSW, TN US</displayName>
    <minDate>2010-03-02</minDate>
    <maxDate>2011-05-17</maxDate>
    <latitude>35.8765</latitude>
    <longitude>-85.0812</longitude>
    <elevation>573</elevation>
    <locationLabels>
      <type>CNTRY</type>
      <id>FIPS:US</id>
      <displayName>United States</displayName>
    </locationLabels>
    <coverage>0.4276</coverage>
  </station>
  <station>
    <id>GHCND:US1TNCM0001</id>
    <displayName>CROSSVILLE 5.8 SSW, TN US</displayName>
    <minDate>2007-04-02</minDate>
    <maxDate>2013-01-16</maxDate>
    <latitude>35.8725</latitude>
    <longitude>-85.0704</longitude>
    <elevation>573.9</elevation>
    <locationLabels>
      <type>CNTRY</type>
      <id>FIPS:US</id>
      <displayName>United States</displayName>
    </locationLabels>
    <coverage>0.7553</coverage>
  </station>
  <station>
    <id>GHCND:US1TNCM0021</id>
    <displayName>CROSSVILLE 6.0 W, TN US</displayName>
    <minDate>2011-04-18</minDate>
    <maxDate>2013-01-16</maxDate>
    <latitude>35.9638</latitude>
    <longitude>-85.1432</longitude>
    <elevation>519.1</elevation>
    <locationLabels>
      <type>CNTRY</type>
      <id>FIPS:US</id>
      <displayName>United States</displayName>
    </locationLabels>
    <coverage>0.9844</coverage>
  </station>
  <station>
    <id>GHCND:US1TNCM0022</id>
    <displayName>CROSSVILLE 6.7 ENE, TN US</displayName>
    <minDate>2011-10-01</minDate>
    <maxDate>2012-04-20</maxDate>
    <latitude>35.9927</latitude>
    <longitude>-84.9279</longitude>
    <elevation>570.9</elevation>
    <locationLabels>
      <type>CNTRY</type>
      <id>FIPS:US</id>
      <displayName>United States</displayName>
    </locationLabels>
    <coverage>1</coverage>
  </station>
  <station>
    <id>GHCND:US1TNCM0009</id>
    <displayName>CROSSVILLE 6.9 S, TN US</displayName>
    <minDate>2007-07-12</minDate>
    <maxDate>2013-01-16</maxDate>
    <latitude>35.8526</latitude>
    <longitude>-85.0526</longitude>
    <elevation>568.1</elevation>
    <locationLabels>
      <type>CNTRY</type>
      <id>FIPS:US</id>
      <displayName>United States</displayName>
    </locationLabels>
    <coverage>0.875</coverage>
  </station>
  <station>
    <id>GHCND:USW00063855</id>
    <displayName>CROSSVILLE 7 NW, TN US</displayName>
    <minDate>2004-12-04</minDate>
    <maxDate>2013-01-15</maxDate>
    <latitude>36.0138</latitude>
    <longitude>-85.1345</longitude>
    <elevation>583.1</elevation>
    <locationLabels>
      <type>CNTRY</type>
      <id>FIPS:US</id>
      <displayName>United States</displayName>
    </locationLabels>
    <coverage>0.9906</coverage>
  </station>
  <station>
    <id>GHCND:US1TNCM0024</id>
    <displayName>CROSSVILLE 7.7 ENE, TN US</displayName>
    <minDate>2012-01-19</minDate>
    <maxDate>2012-12-01</maxDate>
    <latitude>35.9902</latitude>
    <longitude>-84.9077</longitude>
    <elevation>548.9</elevation>
    <locationLabels>
      <type>CNTRY</type>
      <id>FIPS:US</id>
      <displayName>United States</displayName>
    </locationLabels>
    <coverage>0.5629</coverage>
  </station>
  <station>
    <id>GHCND:US1TNCM0003</id>
    <displayName>CROSSVILLE 8.4 S, TN US</displayName>
    <minDate>2007-04-01</minDate>
    <maxDate>2010-10-04</maxDate>
    <latitude>35.8314</latitude>
    <longitude>-85.0191</longitude>
    <elevation>572.1</elevation>
    <locationLabels>
      <type>CNTRY</type>
      <id>FIPS:US</id>
      <displayName>United States</displayName>
    </locationLabels>
    <coverage>0.9813</coverage>
  </station>
  <station>
    <id>GHCND:USR0000TCRO</id>
    <displayName>CROSSVILLE AREA OFFICE TENNESS, TN US</displayName>
    <minDate>2003-10-27</minDate>
    <maxDate>2012-08-31</maxDate>
    <latitude>35.9178</latitude>
    <longitude>-84.9972</longitude>
    <elevation>539.5</elevation>
    <locationLabels>
      <type>CNTRY</type>
      <id>FIPS:US</id>
      <displayName>United States</displayName>
    </locationLabels>
    <coverage>0.9273</coverage>
  </station>
  <station>
    <id>GHCND:USC00402202</id>
    <displayName>CROSSVILLE EXPERIMENTAL STATION, TN US</displayName>
    <minDate>1912-03-01</minDate>
    <maxDate>2013-01-15</maxDate>
    <latitude>36.0148</latitude>
    <longitude>-85.1313</longitude>
    <elevation>551.7</elevation>
    <locationLabels>
      <type>CNTRY</type>
      <id>FIPS:US</id>
      <displayName>United States</displayName>
    </locationLabels>
    <coverage>0.9828</coverage>
  </station>
  <station>
    <id>GHCND:USW00003847</id>
    <displayName>CROSSVILLE MEMORIAL AIRPORT, TN US</displayName>
    <minDate>1954-04-21</minDate>
    <maxDate>2013-01-14</maxDate>
    <latitude>35.9509</latitude>
    <longitude>-85.0813</longitude>
    <elevation>569.1</elevation>
    <locationLabels>
      <type>CNTRY</type>
      <id>FIPS:US</id>
      <displayName>United States</displayName>
    </locationLabels>
    <coverage>0.9995</coverage>
  </station>
  <station>
    <id>GHCND:USC00402207</id>
    <displayName>CROSSVILLE, TN US</displayName>
    <minDate>1949-01-01</minDate>
    <maxDate>1954-05-31</maxDate>
    <latitude>35.95</latitude>
    <longitude>-85.03333</longitude>
    <elevation>563.9</elevation>
    <locationLabels>
      <type>CNTRY</type>
      <id>FIPS:US</id>
      <displayName>United States</displayName>
    </locationLabels>
    <coverage>1</coverage>
  </station>
  <station>
    <id>GHCND:USC00201901</id>
    <displayName>CROSWELL, MI US</displayName>
    <minDate>1919-06-19</minDate>
    <maxDate>1939-07-31</maxDate>
    <latitude>43.26667</latitude>
    <longitude>-82.6</longitude>
    <elevation>222.8</elevation>
    <locationLabels>
      <type>CNTRY</type>
      <id>FIPS:US</id>
      <displayName>United States</displayName>
    </locationLabels>
    <coverage>0.7391</coverage>
  </station>
  <station>
    <id>GHCND:US1INJK0004</id>
    <displayName>CROTHERSVILLE 3.4 NNW, IN US</displayName>
    <minDate>2006-10-05</minDate>
    <maxDate>2009-01-28</maxDate>
    <latitude>38.8379</latitude>
    <longitude>-85.8747</longitude>
    <elevation>170.1</elevation>
    <locationLabels>
      <type>CNTRY</type>
      <id>FIPS:US</id>
      <displayName>United States</displayName>
    </locationLabels>
    <coverage>0.5159</coverage>
  </station>
  <station>
    <id>GHCND:USC00301904</id>
    <displayName>CROTON FALLS 1 NE, NY US</displayName>
    <minDate>1948-05-04</minDate>
    <maxDate>1961-03-31</maxDate>
    <latitude>41.35</latitude>
    <longitude>-73.66667</longitude>
    <elevation>67.1</elevation>
    <locationLabels>
      <type>CNTRY</type>
      <id>FIPS:US</id>
      <displayName>United States</displayName>
    </locationLabels>
    <coverage>0.9998</coverage>
  </station>
  <station>
    <id>GHCND:USC00301912</id>
    <displayName>CROTON LAKE, NY US</displayName>
    <minDate>1948-05-02</minDate>
    <maxDate>1961-03-31</maxDate>
    <latitude>41.23333</latitude>
    <longitude>-73.8</longitude>
    <elevation>75.9</elevation>
    <locationLabels>
      <type>CNTRY</type>
      <id>FIPS:US</id>
      <displayName>United States</displayName>
    </locationLabels>
    <coverage>0.9947</coverage>
  </station>
  <station>
    <id>GHCND:USC00102279</id>
    <displayName>CROUCH 2 NNW, ID US</displayName>
    <minDate>1941-03-01</minDate>
    <maxDate>1956-05-31</maxDate>
    <latitude>44.15</latitude>
    <longitude>-115.96667</longitude>
    <elevation>946.1</elevation>
    <locationLabels>
      <type>CNTRY</type>
      <id>FIPS:US</id>
      <displayName>United States</displayName>
    </locationLabels>
    <coverage>0.9788</coverage>
  </station>
  <station>
    <id>GHCND:USC00351998</id>
    <displayName>CROW 4 NE, OR US</displayName>
    <minDate>1947-10-01</minDate>
    <maxDate>1968-07-31</maxDate>
    <latitude>43.98333</latitude>
    <longitude>-123.23333</longitude>
    <elevation>153</elevation>
    <locationLabels>
      <type>CNTRY</type>
      <id>FIPS:US</id>
      <displayName>United States</displayName>
    </locationLabels>
    <coverage>0.9912</coverage>
  </station>
  <station>
    <id>GHCND:USC00242112</id>
    <displayName>CROW AGENCY, MT US</displayName>
    <minDate>1898-04-01</minDate>
    <maxDate>1991-07-31</maxDate>
    <latitude>45.6</latitude>
    <longitude>-107.45</longitude>
    <elevation>923.5</elevation>
    <locationLabels>
      <type>CNTRY</type>
      <id>FIPS:US</id>
      <displayName>United States</displayName>
    </locationLabels>
    <coverage>0.9521</coverage>
  </station>
  <station>
    <id>GHCND:USC00392068</id>
    <displayName>CROW CREEK 99, SD US</displayName>
    <minDate>1910-05-01</minDate>
    <maxDate>1929-09-30</maxDate>
    <latitude>44.033333</latitude>
    <longitude>-99.466667</longitude>
    <locationLabels>
      <type>CNTRY</type>
      <id>FIPS:US</id>
      <displayName>United States</displayName>
    </locationLabels>
    <coverage>0.3216</coverage>
  </station>
  <station>
    <id>GHCND:USS0005H02S</id>
    <displayName>CROW CREEK, WY US</displayName>
    <minDate>2003-08-07</minDate>
    <maxDate>2013-01-13</maxDate>
    <latitude>41.2167</latitude>
    <longitude>-105.3833</longitude>
    <elevation>2539</elevation>
    <locationLabels>
      <type>CNTRY</type>
      <id>FIPS:US</id>
      <displayName>United States</displayName>
    </locationLabels>
    <coverage>0.94</coverage>
  </station>
  <station>
    <id>GHCND:USR0000OCRO</id>
    <displayName>CROW FLAT OREGON, OR US</displayName>
    <minDate>1985-01-23</minDate>
    <maxDate>2012-08-31</maxDate>
    <latitude>43.8333</latitude>
    <longitude>-118.95</longitude>
    <elevation>1563.6</elevation>
    <locationLabels>
      <type>CNTRY</type>
      <id>FIPS:US</id>
      <displayName>United States</displayName>
    </locationLabels>
    <coverage>0.9379</coverage>
  </station>
  <station>
    <id>GHCND:USC00482230</id>
    <displayName>CROW HILL, WY US</displayName>
    <minDate>1916-04-01</minDate>
    <maxDate>1920-08-31</maxDate>
    <latitude>44.616667</latitude>
    <longitude>-106.933333</longitude>
    <elevation>1460</elevation>
    <locationLabels>
      <type>CNTRY</type>
      <id>FIPS:US</id>
      <displayName>United States</displayName>
    </locationLabels>
    <coverage>0.9548</coverage>
  </station>
  <station>
    <id>GHCND:USS0020H02S</id>
    <displayName>CROWDER FLAT, CA US</displayName>
    <minDate>2000-01-01</minDate>
    <maxDate>2013-01-13</maxDate>
    <latitude>41.8833</latitude>
    <longitude>-120.75</longitude>
    <elevation>1585</elevation>
    <locationLabels>
      <type>CNTRY</type>
      <id>FIPS:US</id>
      <displayName>United States</displayName>
    </locationLabels>
    <coverage>0.9601</coverage>
  </station>
  <station>
    <id>GHCND:USC00052000</id>
    <displayName>CROWDER RANCH, CO US</displayName>
    <minDate>1980-10-01</minDate>
    <maxDate>1983-03-31</maxDate>
    <latitude>37.38333</latitude>
    <longitude>-103.88333</longitude>
    <elevation>1563.9</elevation>
    <locationLabels>
      <type>CNTRY</type>
      <id>FIPS:US</id>
      <displayName>United States</displayName>
    </locationLabels>
    <coverage>0.932</coverage>
  </station>
  <station>
    <id>GHCND:USC00412142</id>
    <displayName>CROWELL, TX US</displayName>
    <minDate>1916-08-01</minDate>
    <maxDate>2013-01-16</maxDate>
    <latitude>33.9899</latitude>
    <longitude>-99.7304</longitude>
    <elevation>451.1</elevation>
    <locationLabels>
      <type>CNTRY</type>
      <id>FIPS:US</id>
      <displayName>United States</displayName>
    </locationLabels>
    <coverage>0.9732</coverage>
  </station>
  <station>
    <id>GHCND:USC00482228</id>
    <displayName>CROWHEART 2 E, WY US</displayName>
    <minDate>1950-06-11</minDate>
    <maxDate>1951-09-30</maxDate>
    <latitude>43.3</latitude>
    <longitude>-109.13333</longitude>
    <elevation>1815.1</elevation>
    <locationLabels>
      <type>CNTRY</type>
      <id>FIPS:US</id>
      <displayName>United States</displayName>
    </locationLabels>
    <coverage>0.7086</coverage>
  </station>
  <station>
    <id>GHCND:USC00482223</id>
    <displayName>CROWHEART, WY US</displayName>
    <minDate>1949-09-01</minDate>
    <maxDate>1950-02-28</maxDate>
    <latitude>43.3</latitude>
    <longitude>-109.18333</longitude>
    <elevation>1851.1</elevation>
    <locationLabels>
      <type>CNTRY</type>
      <id>FIPS:US</id>
      <displayName>United States</displayName>
    </locationLabels>
    <coverage>0.8011</coverage>
  </station>
  <station>
    <id>GHCND:US1COCR0008</id>
    <displayName>CROWLEY 0.2 E, CO US</displayName>
    <minDate>2009-08-12</minDate>
    <maxDate>2012-12-09</maxDate>
    <latitude>38.1935</latitude>
    <longitude>-103.854</longitude>
    <elevation>1326.5</elevation>
    <locationLabels>
      <type>CNTRY</type>
      <id>FIPS:US</id>
      <displayName>United States</displayName>
    </locationLabels>
    <coverage>0.5337</coverage>
  </station>
  <station>
    <id>GHCND:US1TXTN0028</id>
    <displayName>CROWLEY 0.4 S, TX US</displayName>
    <minDate>2008-04-01</minDate>
    <maxDate>2009-09-22</maxDate>
    <latitude>32.5711</latitude>
    <longitude>-97.3578</longitude>
    <elevation>230.7</elevation>
    <locationLabels>
      <type>CNTRY</type>
      <id>FIPS:US</id>
      <displayName>United States</displayName>
    </locationLabels>
    <coverage>0.8333</coverage>
  </station>
  <station>
    <id>GHCND:US1LAAC0001</id>
    <displayName>CROWLEY 0.9 NNW, LA US</displayName>
    <minDate>2010-03-22</minDate>
    <maxDate>2010-12-01</maxDate>
    <latitude>30.2242</latitude>
    <longitude>-92.3819</longitude>
    <elevation>5.8</elevation>
    <locationLabels>
      <type>CNTRY</type>
      <id>FIPS:US</id>
      <displayName>United States</displayName>
    </locationLabels>
    <coverage>0.5922</coverage>
  </station>
  <station>
    <id>GHCND:US1TXTN0036</id>
    <displayName>CROWLEY 1.1 NE, TX US</displayName>
    <minDate>2009-08-21</minDate>
    <maxDate>2011-04-11</maxDate>
    <latitude>32.5872</latitude>
    <longitude>-97.3434</longitude>
    <elevation>220.1</elevation>
    <locationLabels>
      <type>CNTRY</type>
      <id>FIPS:US</id>
      <displayName>United States</displayName>
    </locationLabels>
    <coverage>0.5876</coverage>
  </station>
  <station>
    <id>GHCND:USC00162212</id>
    <displayName>CROWLEY 2 NE, LA US</displayName>
    <minDate>1906-06-01</minDate>
    <maxDate>2013-01-16</maxDate>
    <latitude>30.2408</latitude>
    <longitude>-92.3477</longitude>
    <elevation>7.6</elevation>
    <locationLabels>
      <type>CNTRY</type>
      <id>FIPS:US</id>
      <displayName>United States</displayName>
    </locationLabels>
    <coverage>0.8136</coverage>
  </station>
  <station>
    <id>GHCND:USC00352000</id>
    <displayName>CROWLEY RANCH, OR US</displayName>
    <minDate>1961-10-14</minDate>
    <maxDate>1966-05-31</maxDate>
    <latitude>43.3</latitude>
    <longitude>-117.9</longitude>
    <elevation>1266.1</elevation>
    <locationLabels>
      <type>CNTRY</type>
      <id>FIPS:US</id>
      <displayName>United States</displayName>
    </locationLabels>
    <coverage>0.8179</coverage>
  </station>
  <station>
    <id>GHCND:USR0000ACRO</id>
    <displayName>CROWN KING ARIZONA, AZ US</displayName>
    <minDate>1995-02-13</minDate>
    <maxDate>2012-08-30</maxDate>
    <latitude>34.2083</latitude>
    <longitude>-112.3333</longitude>
    <elevation>1798.3</elevation>
    <locationLabels>
      <type>CNTRY</type>
      <id>FIPS:US</id>
      <displayName>United States</displayName>
    </locationLabels>
    <coverage>0.9501</coverage>
  </station>
  <station>
    <id>GHCND:USC00022329</id>
    <displayName>CROWN KING, AZ US</displayName>
    <minDate>1914-12-12</minDate>
    <maxDate>1995-01-31</maxDate>
    <latitude>34.2097</latitude>
    <longitude>-112.3453</longitude>
    <elevation>1804.4</elevation>
    <locationLabels>
      <type>CNTRY</type>
      <id>FIPS:US</id>
      <displayName>United States</displayName>
    </locationLabels>
    <coverage>0.9531</coverage>
  </station>
  <station>
    <id>GHCND:USC00121940</id>
    <displayName>CROWN POINT 1 N, IN US</displayName>
    <minDate>1992-01-01</minDate>
    <maxDate>2013-01-16</maxDate>
    <latitude>41.4352</latitude>
    <longitude>-87.3588</longitude>
    <elevation>209.7</elevation>
    <locationLabels>
      <type>CNTRY</type>
      <id>FIPS:US</id>
      <displayName>United States</displayName>
    </locationLabels>
    <coverage>0.8711</coverage>
  </station>
  <station>
    <id>GHCND:US1INLK0026</id>
    <displayName>CROWN POINT 1.1 N, IN US</displayName>
    <minDate>2007-07-27</minDate>
    <maxDate>2013-01-16</maxDate>
    <latitude>41.4393</latitude>
    <longitude>-87.3542</longitude>
    <elevation>217</elevation>
    <locationLabels>
      <type>CNTRY</type>
      <id>FIPS:US</id>
      <displayName>United States</displayName>
    </locationLabels>
    <coverage>0.947</coverage>
  </station>
  <station>
    <id>GHCND:US1INLK0024</id>
    <displayName>CROWN POINT 2.0 WSW, IN US</displayName>
    <minDate>2007-05-27</minDate>
    <maxDate>2013-01-16</maxDate>
    <latitude>41.4089</latitude>
    <longitude>-87.3899</longitude>
    <elevation>230.1</elevation>
    <locationLabels>
      <type>CNTRY</type>
      <id>FIPS:US</id>
      <displayName>United States</displayName>
    </locationLabels>
    <coverage>0.9976</coverage>
  </station>
  <station>
    <id>GHCND:US1INLK0051</id>
    <displayName>CROWN POINT 2.1 ENE, IN US</displayName>
    <minDate>2010-05-26</minDate>
    <maxDate>2012-07-31</maxDate>
    <latitude>41.4375</latitude>
    <longitude>-87.3222</longitude>
    <elevation>211.8</elevation>
    <locationLabels>
      <type>CNTRY</type>
      <id>FIPS:US</id>
      <displayName>United States</displayName>
    </locationLabels>
    <coverage>0.2005</coverage>
  </station>
  <station>
    <id>GHCND:US1INLK0029</id>
    <displayName>CROWN POINT 3.1 WSW, IN US</displayName>
    <minDate>2000-11-16</minDate>
    <maxDate>2011-12-09</maxDate>
    <latitude>41.4125</latitude>
    <longitude>-87.4157</longitude>
    <elevation>218.5</elevation>
    <locationLabels>
      <type>CNTRY</type>
      <id>FIPS:US</id>
      <displayName>United States</displayName>
    </locationLabels>
    <coverage>0.1203</coverage>
  </station>
  <station>
    <id>GHCND:US1INLK0006</id>
    <displayName>CROWN POINT 6.6 ESE, IN US</displayName>
    <minDate>2006-09-04</minDate>
    <maxDate>2009-11-04</maxDate>
    <latitude>41.4026</latitude>
    <longitude>-87.2327</longitude>
    <elevation>230.1</elevation>
    <locationLabels>
      <type>CNTRY</type>
      <id>FIPS:US</id>
      <displayName>United States</displayName>
    </locationLabels>
    <coverage>0.7962</coverage>
  </station>
  <station>
    <id>GHCND:US1INPT0113</id>
    <displayName>CROWN POINT 7.3 E, IN US</displayName>
    <minDate>2010-03-16</minDate>
    <maxDate>2011-09-28</maxDate>
    <latitude>41.4129</latitude>
    <longitude>-87.217</longitude>
    <elevation>229.2</elevation>
    <locationLabels>
      <type>CNTRY</type>
      <id>FIPS:US</id>
      <displayName>United States</displayName>
    </locationLabels>
    <coverage>0.5587</coverage>
  </station>
  <station>
    <id>GHCND:US1INPT0044</id>
    <displayName>CROWN POINT 7.6 ESE, IN US</displayName>
    <minDate>2006-09-19</minDate>
    <maxDate>2013-01-16</maxDate>
    <latitude>41.3929</latitude>
    <longitude>-87.2165</longitude>
    <elevation>231</elevation>
    <locationLabels>
      <type>CNTRY</type>
      <id>FIPS:US</id>
      <displayName>United States</displayName>
    </locationLabels>
    <coverage>0.8932</coverage>
  </station>
  <station>
    <id>GHCND:US1INPT0106</id>
    <displayName>CROWN POINT 7.8 E, IN US</displayName>
    <minDate>2009-12-14</minDate>
    <maxDate>2013-01-13</maxDate>
    <latitude>41.4026</latitude>
    <longitude>-87.2105</longitude>
    <elevation>232.9</elevation>
    <locationLabels>
      <type>CNTRY</type>
      <id>FIPS:US</id>
      <displayName>United States</displayName>
    </locationLabels>
    <coverage>0.8722</coverage>
  </station>
  <station>
    <id>GHCND:USC00121938</id>
    <displayName>CROWN POINT, IN US</displayName>
    <minDate>1916-03-12</minDate>
    <maxDate>1918-03-31</maxDate>
    <latitude>41.416667</latitude>
    <longitude>-87.366667</longitude>
    <elevation>214</elevation>
    <locationLabels>
      <type>CNTRY</type>
      <id>FIPS:US</id>
      <displayName>United States</displayName>
    </locationLabels>
    <coverage>1</coverage>
  </station>
  <station>
    <id>GHCND:USC00292219</id>
    <displayName>CROWNPOINT, NM US</displayName>
    <minDate>1914-07-01</minDate>
    <maxDate>1969-11-13</maxDate>
    <latitude>35.68333</latitude>
    <longitude>-108.15</longitude>
    <elevation>2122.9</elevation>
    <locationLabels>
      <type>CNTRY</type>
      <id>FIPS:US</id>
      <displayName>United States</displayName>
    </locationLabels>
    <coverage>0.9175</coverage>
  </station>
  <station>
    <id>GHCND:USW00023240</id>
    <displayName>CROWS LANDING, CA US</displayName>
    <minDate>1945-03-01</minDate>
    <maxDate>1987-02-27</maxDate>
    <latitude>37.4</latitude>
    <longitude>-121.13333</longitude>
    <elevation>50.3</elevation>
    <locationLabels>
      <type>CNTRY</type>
      <id>FIPS:US</id>
      <displayName>United States</displayName>
    </locationLabels>
    <coverage>0.048</coverage>
  </station>
  <station>
    <id>GHCND:USC00162219</id>
    <displayName>CROWVILLE 1 N, LA US</displayName>
    <minDate>1948-06-01</minDate>
    <maxDate>1951-09-30</maxDate>
    <latitude>32.25</latitude>
    <longitude>-91.58333</longitude>
    <elevation>31.1</elevation>
    <locationLabels>
      <type>CNTRY</type>
      <id>FIPS:US</id>
      <displayName>United States</displayName>
    </locationLabels>
    <coverage>0.9688</coverage>
  </station>
  <station>
    <id>GHCND:USC00162217</id>
    <displayName>CROWVILLE, LA US</displayName>
    <minDate>2004-12-01</minDate>
    <maxDate>2006-10-31</maxDate>
    <latitude>32.24278</latitude>
    <longitude>-91.58889</longitude>
    <elevation>27.1</elevation>
    <locationLabels>
      <type>CNTRY</type>
      <id>FIPS:US</id>
      <displayName>United States</displayName>
    </locationLabels>
    <coverage>0.6943</coverage>
  </station>
  <station>
    <id>GHCND:USC00421850</id>
    <displayName>CROYDEN, UT US</displayName>
    <minDate>1897-03-01</minDate>
    <maxDate>1900-01-31</maxDate>
    <latitude>41.683333</latitude>
    <longitude>-111.516667</longitude>
    <elevation>1598.7</elevation>
    <locationLabels>
      <type>CNTRY</type>
      <id>FIPS:US</id>
      <displayName>United States</displayName>
    </locationLabels>
    <coverage>0.6138</coverage>
  </station>
  <station>
    <id>GHCND:USC00442138</id>
    <displayName>CROZET 2 N, VA US</displayName>
    <minDate>1941-05-25</minDate>
    <maxDate>1961-01-31</maxDate>
    <latitude>38.08333</latitude>
    <longitude>-78.7</longitude>
    <elevation>214</elevation>
    <locationLabels>
      <type>CNTRY</type>
      <id>FIPS:US</id>
      <displayName>United States</displayName>
    </locationLabels>
    <coverage>0.9684</coverage>
  </station>
  <station>
    <id>GHCND:USC00292220</id>
    <displayName>CROZIER, NM US</displayName>
    <minDate>1915-07-01</minDate>
    <maxDate>1918-12-31</maxDate>
    <latitude>36.23333</latitude>
    <longitude>-108.8</longitude>
    <elevation>1767.8</elevation>
    <locationLabels>
      <type>CNTRY</type>
      <id>FIPS:US</id>
      <displayName>United States</displayName>
    </locationLabels>
    <coverage>0.9547</coverage>
  </station>
  <station>
    <id>GHCND:USC00448054</id>
    <displayName>CROZIER, VA US</displayName>
    <minDate>1938-06-01</minDate>
    <maxDate>1976-05-31</maxDate>
    <latitude>37.6664</latitude>
    <longitude>-77.8769</longitude>
    <elevation>106.7</elevation>
    <locationLabels>
      <type>CNTRY</type>
      <id>FIPS:US</id>
      <displayName>United States</displayName>
    </locationLabels>
    <coverage>0.9889</coverage>
  </station>
  <station>
    <id>GHCND:USC00442142</id>
    <displayName>CROZIER, VA US</displayName>
    <minDate>1976-06-01</minDate>
    <maxDate>2013-01-16</maxDate>
    <latitude>37.6664</latitude>
    <longitude>-77.8769</longitude>
    <elevation>106.7</elevation>
    <locationLabels>
      <type>CNTRY</type>
      <id>FIPS:US</id>
      <displayName>United States</displayName>
    </locationLabels>
    <coverage>0.9761</coverage>
  </station>
  <station>
    <id>GHCND:USC00151948</id>
    <displayName>CRUTCHFIELD, KY US</displayName>
    <minDate>2004-06-01</minDate>
    <maxDate>2013-01-16</maxDate>
    <latitude>36.5761</latitude>
    <longitude>-88.9355</longitude>
    <elevation>112.2</elevation>
    <locationLabels>
      <type>CNTRY</type>
      <id>FIPS:US</id>
      <displayName>United States</displayName>
    </locationLabels>
    <coverage>0.9746</coverage>
  </station>
  <station>
    <id>GHCND:VQC00671980</id>
    <displayName>CRUZ BAY, US</displayName>
    <minDate>1972-01-01</minDate>
    <maxDate>2012-10-31</maxDate>
    <latitude>18.3347</latitude>
    <longitude>-64.7941</longitude>
    <elevation>2.4</elevation>
    <locationLabels>
      <type>CNTRY</type>
      <id>FIPS:US</id>
      <displayName>United States</displayName>
    </locationLabels>
    <coverage>0.9079</coverage>
  </station>
  <station>
    <id>GHCND:USC00352003</id>
    <displayName>CRUZATTE, OR US</displayName>
    <minDate>1927-01-01</minDate>
    <maxDate>1930-07-31</maxDate>
    <latitude>43.6</latitude>
    <longitude>-122.08333</longitude>
    <elevation>1250.9</elevation>
    <locationLabels>
      <type>CNTRY</type>
      <id>FIPS:US</id>
      <displayName>United States</displayName>
    </locationLabels>
    <coverage>0.9228</coverage>
  </station>
  <station>
    <id>GHCND:USC00412150</id>
    <displayName>CRYER CREEK SOIL CONSERVATION SERVICE NUMBER 1, TX US</displayName>
    <minDate>1940-08-01</minDate>
    <maxDate>1942-04-20</maxDate>
    <latitude>32.133333</latitude>
    <longitude>-96.65</longitude>
    <locationLabels>
      <type>CNTRY</type>
      <id>FIPS:US</id>
      <displayName>United States</displayName>
    </locationLabels>
    <coverage>0.9586</coverage>
  </station>
  <station>
    <id>GHCND:US1MNHN0020</id>
    <displayName>CRYSTAL 0.2 WSW, MN US</displayName>
    <minDate>2010-04-27</minDate>
    <maxDate>2011-07-16</maxDate>
    <latitude>45.0364</latitude>
    <longitude>-93.3642</longitude>
    <elevation>275.2</elevation>
    <locationLabels>
      <type>CNTRY</type>
      <id>FIPS:US</id>
      <displayName>United States</displayName>
    </locationLabels>
    <coverage>0.4955</coverage>
  </station>
  <station>
    <id>GHCND:USC00211935</id>
    <displayName>CRYSTAL BAY, MN US</displayName>
    <minDate>1914-07-01</minDate>
    <maxDate>1920-07-31</maxDate>
    <latitude>44.93333</latitude>
    <longitude>-93.58333</longitude>
    <elevation>289.3</elevation>
    <locationLabels>
      <type>CNTRY</type>
      <id>FIPS:US</id>
      <displayName>United States</displayName>
    </locationLabels>
    <coverage>0.4031</coverage>
  </station>
  <station>
    <id>GHCND:US1TXZV0015</id>
    <displayName>CRYSTAL CITY 0.5 ESE, TX US</displayName>
    <minDate>2008-08-22</minDate>
    <maxDate>2013-01-14</maxDate>
    <latitude>28.6859</latitude>
    <longitude>-99.8185</longitude>
    <elevation>184.1</elevation>
    <locationLabels>
      <type>CNTRY</type>
      <id>FIPS:US</id>
      <displayName>United States</displayName>
    </locationLabels>
    <coverage>0.3578</coverage>
  </station>
  <station>
    <id>GHCND:USC00232031</id>
    <displayName>CRYSTAL CITY, MO US</displayName>
    <minDate>1934-05-01</minDate>
    <maxDate>1959-01-30</maxDate>
    <latitude>38.23333</latitude>
    <longitude>-90.38333</longitude>
    <elevation>128</elevation>
    <locationLabels>
      <type>CNTRY</type>
      <id>FIPS:US</id>
      <displayName>United States</displayName>
    </locationLabels>
    <coverage>0.9173</coverage>
  </station>
  <station>
    <id>GHCND:USC00412160</id>
    <displayName>CRYSTAL CITY, TX US</displayName>
    <minDate>1941-01-03</minDate>
    <maxDate>2008-12-31</maxDate>
    <latitude>28.6794</latitude>
    <longitude>-99.8311</longitude>
    <elevation>176.8</elevation>
    <locationLabels>
      <type>CNTRY</type>
      <id>FIPS:US</id>
      <displayName>United States</displayName>
    </locationLabels>
    <coverage>0.9848</coverage>
  </station>
  <station>
    <id>GHCND:USC00201922</id>
    <displayName>CRYSTAL FALLS 6 NE, MI US</displayName>
    <minDate>1893-01-01</minDate>
    <maxDate>1989-12-31</maxDate>
    <latitude>46.16667</latitude>
    <longitude>-88.23333</longitude>
    <elevation>414.5</elevation>
    <locationLabels>
      <type>CNTRY</type>
      <id>FIPS:US</id>
      <displayName>United States</displayName>
    </locationLabels>
    <coverage>0.4301</coverage>
  </station>
  <station>
    <id>GHCND:USR0000ICRY</id>
    <displayName>CRYSTAL IDAHO, ID US</displayName>
    <minDate>1985-01-23</minDate>
    <maxDate>2012-08-31</maxDate>
    <latitude>42.99</latitude>
    <longitude>-113.16</longitude>
    <elevation>1543.5</elevation>
    <locationLabels>
      <type>CNTRY</type>
      <id>FIPS:US</id>
      <displayName>United States</displayName>
    </locationLabels>
    <coverage>0.9287</coverage>
  </station>
  <station>
    <id>GHCND:US1ILMCH003</id>
    <displayName>CRYSTAL LAKE 1.8 SW, IL US</displayName>
    <minDate>2007-01-03</minDate>
    <maxDate>2007-06-25</maxDate>
    <latitude>42.2126</latitude>
    <longitude>-88.3542</longitude>
    <elevation>273.1</elevation>
    <locationLabels>
      <type>CNTRY</type>
      <id>FIPS:US</id>
      <displayName>United States</displayName>
    </locationLabels>
    <coverage>0.6552</coverage>
  </station>
  <station>
    <id>GHCND:USC00042199</id>
    <displayName>CRYSTAL LAKE EAST PINE FLAT, CA US</displayName>
    <minDate>1955-01-01</minDate>
    <maxDate>1959-10-31</maxDate>
    <latitude>34.33333</latitude>
    <longitude>-117.83333</longitude>
    <elevation>1759.9</elevation>
    <locationLabels>
      <type>CNTRY</type>
      <id>FIPS:US</id>
      <displayName>United States</displayName>
    </locationLabels>
    <coverage>0.9768</coverage>
  </station>
</stationCollection>
