<?xml version="1.0" encoding="UTF-8" standalone="yes"?>
<stationCollection totalCount="46020" pageCount="461" pageSize="100" page="319">
  <station>
    <id>GHCND:USC00416781</id>
    <displayName>PANDALE 11 NE, TX US</displayName>
    <minDate>1981-12-01</minDate>
    <maxDate>2003-01-31</maxDate>
    <latitude>30.26778</latitude>
    <longitude>-101.45333</longitude>
    <elevation>507.5</elevation>
    <locationLabels>
      <type>CNTRY</type>
      <id>FIPS:US</id>
      <displayName>United States</displayName>
    </locationLabels>
    <coverage>0.9886</coverage>
  </station>
  <station>
    <id>GHCND:USC00336405</id>
    <displayName>PANDORA, OH US</displayName>
    <minDate>1949-12-01</minDate>
    <maxDate>2013-01-15</maxDate>
    <latitude>40.9462</latitude>
    <longitude>-83.9614</longitude>
    <elevation>234.7</elevation>
    <locationLabels>
      <type>CNTRY</type>
      <id>FIPS:US</id>
      <displayName>United States</displayName>
    </locationLabels>
    <coverage>0.9926</coverage>
  </station>
  <station>
    <id>GHCND:USC00426601</id>
    <displayName>PANGUITCH, UT US</displayName>
    <minDate>1904-05-01</minDate>
    <maxDate>2013-01-15</maxDate>
    <latitude>37.8156</latitude>
    <longitude>-112.4386</longitude>
    <elevation>2026</elevation>
    <locationLabels>
      <type>CNTRY</type>
      <id>FIPS:US</id>
      <displayName>United States</displayName>
    </locationLabels>
    <coverage>0.8096</coverage>
  </station>
  <station>
    <id>GHCND:US1TXCRS001</id>
    <displayName>PANHANDLE 0.5 WSW, TX US</displayName>
    <minDate>2009-01-02</minDate>
    <maxDate>2012-12-31</maxDate>
    <latitude>35.3441</latitude>
    <longitude>-101.3881</longitude>
    <elevation>1057</elevation>
    <locationLabels>
      <type>CNTRY</type>
      <id>FIPS:US</id>
      <displayName>United States</displayName>
    </locationLabels>
    <coverage>0.1377</coverage>
  </station>
  <station>
    <id>GHCND:USR0000OPAN</id>
    <displayName>PANHANDLE OREGON, OR US</displayName>
    <minDate>1991-09-09</minDate>
    <maxDate>2005-11-14</maxDate>
    <latitude>42.7694</latitude>
    <longitude>-122.0639</longitude>
    <elevation>1341.1</elevation>
    <locationLabels>
      <type>CNTRY</type>
      <id>FIPS:US</id>
      <displayName>United States</displayName>
    </locationLabels>
    <coverage>0.4534</coverage>
  </station>
  <station>
    <id>GHCND:USC00416785</id>
    <displayName>PANHANDLE, TX US</displayName>
    <minDate>1911-08-01</minDate>
    <maxDate>2013-01-16</maxDate>
    <latitude>35.4138</latitude>
    <longitude>-101.3416</longitude>
    <elevation>1076.6</elevation>
    <locationLabels>
      <type>CNTRY</type>
      <id>FIPS:US</id>
      <displayName>United States</displayName>
    </locationLabels>
    <coverage>0.8348</coverage>
  </station>
  <station>
    <id>GHCND:USC00517674</id>
    <displayName>PANILEIHULU 259.2, HI US</displayName>
    <minDate>1964-10-02</minDate>
    <maxDate>2005-12-31</maxDate>
    <latitude>20.67806</latitude>
    <longitude>-156.13972</longitude>
    <elevation>1088.1</elevation>
    <locationLabels>
      <type>CNTRY</type>
      <id>FIPS:US</id>
      <displayName>United States</displayName>
    </locationLabels>
    <coverage>0.9938</coverage>
  </station>
  <station>
    <id>GHCND:USC00296562</id>
    <displayName>PANKEY RANCH, NM US</displayName>
    <minDate>1938-04-01</minDate>
    <maxDate>1954-05-31</maxDate>
    <latitude>33.46667</latitude>
    <longitude>-107.25</longitude>
    <elevation>1357</elevation>
    <locationLabels>
      <type>CNTRY</type>
      <id>FIPS:US</id>
      <displayName>United States</displayName>
    </locationLabels>
    <coverage>0.8811</coverage>
  </station>
  <station>
    <id>GHCND:USC00046675</id>
    <displayName>PANOCHE 2 W, CA US</displayName>
    <minDate>1949-12-01</minDate>
    <maxDate>2012-09-30</maxDate>
    <latitude>36.6066</latitude>
    <longitude>-120.8841</longitude>
    <elevation>426.7</elevation>
    <locationLabels>
      <type>CNTRY</type>
      <id>FIPS:US</id>
      <displayName>United States</displayName>
    </locationLabels>
    <coverage>0.9752</coverage>
  </station>
  <station>
    <id>GHCND:USC00046677</id>
    <displayName>PANOCHE CREEK, CA US</displayName>
    <minDate>1953-02-20</minDate>
    <maxDate>1968-08-31</maxDate>
    <latitude>36.68333</latitude>
    <longitude>-120.58333</longitude>
    <elevation>113.1</elevation>
    <locationLabels>
      <type>CNTRY</type>
      <id>FIPS:US</id>
      <displayName>United States</displayName>
    </locationLabels>
    <coverage>0.3218</coverage>
  </station>
  <station>
    <id>GHCND:USC00046678</id>
    <displayName>PANOCHE JUNCTION, CA US</displayName>
    <minDate>1938-01-01</minDate>
    <maxDate>1962-09-30</maxDate>
    <latitude>36.53333</latitude>
    <longitude>-120.45</longitude>
    <elevation>128</elevation>
    <locationLabels>
      <type>CNTRY</type>
      <id>FIPS:US</id>
      <displayName>United States</displayName>
    </locationLabels>
    <coverage>0.9302</coverage>
  </station>
  <station>
    <id>GHCND:USR0000CPRD</id>
    <displayName>PANOCHE ROAD CALIFORNIA, CA US</displayName>
    <minDate>1990-05-02</minDate>
    <maxDate>2012-08-30</maxDate>
    <latitude>36.7269</latitude>
    <longitude>-120.7658</longitude>
    <elevation>619.4</elevation>
    <locationLabels>
      <type>CNTRY</type>
      <id>FIPS:US</id>
      <displayName>United States</displayName>
    </locationLabels>
    <coverage>0.7981</coverage>
  </station>
  <station>
    <id>GHCND:USC00446506</id>
    <displayName>PANORAMA, VA US</displayName>
    <minDate>1935-08-01</minDate>
    <maxDate>1940-07-30</maxDate>
    <latitude>38.666667</latitude>
    <longitude>-78.316667</longitude>
    <elevation>702.3</elevation>
    <locationLabels>
      <type>CNTRY</type>
      <id>FIPS:US</id>
      <displayName>United States</displayName>
    </locationLabels>
    <coverage>0.4545</coverage>
  </station>
  <station>
    <id>GHCND:USC00416790</id>
    <displayName>PANTER, TX US</displayName>
    <minDate>1893-01-01</minDate>
    <maxDate>1917-10-31</maxDate>
    <latitude>32.33333</latitude>
    <longitude>-97.86667</longitude>
    <elevation>305.1</elevation>
    <locationLabels>
      <type>CNTRY</type>
      <id>FIPS:US</id>
      <displayName>United States</displayName>
    </locationLabels>
    <coverage>0.8271</coverage>
  </station>
  <station>
    <id>GHCND:USW00022016</id>
    <displayName>PANTHER JUNCTION 2 N, TX US</displayName>
    <minDate>2007-02-26</minDate>
    <maxDate>2013-01-15</maxDate>
    <latitude>29.3483</latitude>
    <longitude>-103.2093</longitude>
    <elevation>1065</elevation>
    <locationLabels>
      <type>CNTRY</type>
      <id>FIPS:US</id>
      <displayName>United States</displayName>
    </locationLabels>
    <coverage>0.9944</coverage>
  </station>
  <station>
    <id>GHCND:USR0000TPAN</id>
    <displayName>PANTHER JUNCTION TEXAS, TX US</displayName>
    <minDate>2003-04-28</minDate>
    <maxDate>2012-08-31</maxDate>
    <latitude>29.3167</latitude>
    <longitude>-103.2</longitude>
    <elevation>1143</elevation>
    <locationLabels>
      <type>CNTRY</type>
      <id>FIPS:US</id>
      <displayName>United States</displayName>
    </locationLabels>
    <coverage>0.9268</coverage>
  </station>
  <station>
    <id>GHCND:USC00416792</id>
    <displayName>PANTHER JUNCTION, TX US</displayName>
    <minDate>1955-04-01</minDate>
    <maxDate>2013-01-16</maxDate>
    <latitude>29.3273</latitude>
    <longitude>-103.2062</longitude>
    <elevation>1140</elevation>
    <locationLabels>
      <type>CNTRY</type>
      <id>FIPS:US</id>
      <displayName>United States</displayName>
    </locationLabels>
    <coverage>0.997</coverage>
  </station>
  <station>
    <id>GHCND:US1KSMI0003</id>
    <displayName>PAOLA 0.9 SW, KS US</displayName>
    <minDate>2008-06-30</minDate>
    <maxDate>2009-06-10</maxDate>
    <latitude>38.5669</latitude>
    <longitude>-94.8778</longitude>
    <elevation>269.1</elevation>
    <locationLabels>
      <type>CNTRY</type>
      <id>FIPS:US</id>
      <displayName>United States</displayName>
    </locationLabels>
    <coverage>0.4653</coverage>
  </station>
  <station>
    <id>GHCND:USC00146209</id>
    <displayName>PAOLA, KS US</displayName>
    <minDate>1895-08-01</minDate>
    <maxDate>2009-08-31</maxDate>
    <latitude>38.5912</latitude>
    <longitude>-94.8778</longitude>
    <elevation>262.1</elevation>
    <locationLabels>
      <type>CNTRY</type>
      <id>FIPS:US</id>
      <displayName>United States</displayName>
    </locationLabels>
    <coverage>0.8601</coverage>
  </station>
  <station>
    <id>GHCND:US1INOR0025</id>
    <displayName>PAOLI 0.4 ESE, IN US</displayName>
    <minDate>2010-04-29</minDate>
    <maxDate>2012-12-05</maxDate>
    <latitude>38.5561</latitude>
    <longitude>-86.4619</longitude>
    <elevation>218.2</elevation>
    <locationLabels>
      <type>CNTRY</type>
      <id>FIPS:US</id>
      <displayName>United States</displayName>
    </locationLabels>
    <coverage>0.1071</coverage>
  </station>
  <station>
    <id>GHCND:US1INOR0003</id>
    <displayName>PAOLI 0.8 E, IN US</displayName>
    <minDate>2006-07-21</minDate>
    <maxDate>2008-12-03</maxDate>
    <latitude>38.5568</latitude>
    <longitude>-86.4538</longitude>
    <elevation>196.9</elevation>
    <locationLabels>
      <type>CNTRY</type>
      <id>FIPS:US</id>
      <displayName>United States</displayName>
    </locationLabels>
    <coverage>0.6678</coverage>
  </station>
  <station>
    <id>GHCND:US1INOR0021</id>
    <displayName>PAOLI 1.3 E, IN US</displayName>
    <minDate>2009-06-18</minDate>
    <maxDate>2011-10-17</maxDate>
    <latitude>38.557</latitude>
    <longitude>-86.4456</longitude>
    <elevation>191.7</elevation>
    <locationLabels>
      <type>CNTRY</type>
      <id>FIPS:US</id>
      <displayName>United States</displayName>
    </locationLabels>
    <coverage>0.6303</coverage>
  </station>
  <station>
    <id>GHCND:US1INOR0013</id>
    <displayName>PAOLI 1.6 SSE, IN US</displayName>
    <minDate>2007-05-17</minDate>
    <maxDate>2009-04-14</maxDate>
    <latitude>38.5355</latitude>
    <longitude>-86.4619</longitude>
    <elevation>246.9</elevation>
    <locationLabels>
      <type>CNTRY</type>
      <id>FIPS:US</id>
      <displayName>United States</displayName>
    </locationLabels>
    <coverage>0.4177</coverage>
  </station>
  <station>
    <id>GHCND:US1INOR0027</id>
    <displayName>PAOLI 1.9 WSW, IN US</displayName>
    <minDate>2011-04-11</minDate>
    <maxDate>2011-12-14</maxDate>
    <latitude>38.5458</latitude>
    <longitude>-86.5002</longitude>
    <elevation>178.3</elevation>
    <locationLabels>
      <type>CNTRY</type>
      <id>FIPS:US</id>
      <displayName>United States</displayName>
    </locationLabels>
    <coverage>0.7097</coverage>
  </station>
  <station>
    <id>GHCND:USC00346859</id>
    <displayName>PAOLI 2 W, OK US</displayName>
    <minDate>1948-03-02</minDate>
    <maxDate>1951-09-30</maxDate>
    <latitude>34.823</latitude>
    <longitude>-97.285</longitude>
    <elevation>283.8</elevation>
    <locationLabels>
      <type>CNTRY</type>
      <id>FIPS:US</id>
      <displayName>United States</displayName>
    </locationLabels>
    <coverage>0.9121</coverage>
  </station>
  <station>
    <id>GHCND:US1INOR0012</id>
    <displayName>PAOLI 2.9 NE, IN US</displayName>
    <minDate>2007-05-07</minDate>
    <maxDate>2009-10-28</maxDate>
    <latitude>38.584</latitude>
    <longitude>-86.4274</longitude>
    <elevation>207.9</elevation>
    <locationLabels>
      <type>CNTRY</type>
      <id>FIPS:US</id>
      <displayName>United States</displayName>
    </locationLabels>
    <coverage>0.2748</coverage>
  </station>
  <station>
    <id>GHCND:US1COPH0010</id>
    <displayName>PAOLI 4 WSW, CO US</displayName>
    <minDate>2002-07-07</minDate>
    <maxDate>2012-12-20</maxDate>
    <latitude>40.5957</latitude>
    <longitude>-102.5478</longitude>
    <elevation>1207</elevation>
    <locationLabels>
      <type>CNTRY</type>
      <id>FIPS:US</id>
      <displayName>United States</displayName>
    </locationLabels>
    <coverage>0.139</coverage>
  </station>
  <station>
    <id>GHCND:US1INOR0022</id>
    <displayName>PAOLI 5.2 NNW, IN US</displayName>
    <minDate>2009-06-14</minDate>
    <maxDate>2011-04-27</maxDate>
    <latitude>38.6295</latitude>
    <longitude>-86.4972</longitude>
    <elevation>190.5</elevation>
    <locationLabels>
      <type>CNTRY</type>
      <id>FIPS:US</id>
      <displayName>United States</displayName>
    </locationLabels>
    <coverage>0.2723</coverage>
  </station>
  <station>
    <id>GHCND:US1INOR0026</id>
    <displayName>PAOLI 5.6 S, IN US</displayName>
    <minDate>2010-06-28</minDate>
    <maxDate>2013-01-01</maxDate>
    <latitude>38.4773</latitude>
    <longitude>-86.4887</longitude>
    <elevation>206.7</elevation>
    <locationLabels>
      <type>CNTRY</type>
      <id>FIPS:US</id>
      <displayName>United States</displayName>
    </locationLabels>
    <coverage>0.7356</coverage>
  </station>
  <station>
    <id>GHCND:US1INOR0006</id>
    <displayName>PAOLI 5.8 ESE, IN US</displayName>
    <minDate>2006-08-09</minDate>
    <maxDate>2008-12-03</maxDate>
    <latitude>38.5362</latitude>
    <longitude>-86.3644</longitude>
    <elevation>214.9</elevation>
    <locationLabels>
      <type>CNTRY</type>
      <id>FIPS:US</id>
      <displayName>United States</displayName>
    </locationLabels>
    <coverage>0.5955</coverage>
  </station>
  <station>
    <id>GHCND:US1INOR0011</id>
    <displayName>PAOLI 5.9 S, IN US</displayName>
    <minDate>2006-07-01</minDate>
    <maxDate>2013-01-15</maxDate>
    <latitude>38.4737</latitude>
    <longitude>-86.4497</longitude>
    <elevation>189.9</elevation>
    <locationLabels>
      <type>CNTRY</type>
      <id>FIPS:US</id>
      <displayName>United States</displayName>
    </locationLabels>
    <coverage>0.9732</coverage>
  </station>
  <station>
    <id>GHCND:USC00056299</id>
    <displayName>PAOLI, CO US</displayName>
    <minDate>1948-08-01</minDate>
    <maxDate>1953-06-30</maxDate>
    <latitude>40.61667</latitude>
    <longitude>-102.46667</longitude>
    <elevation>1189.9</elevation>
    <locationLabels>
      <type>CNTRY</type>
      <id>FIPS:US</id>
      <displayName>United States</displayName>
    </locationLabels>
    <coverage>0.9799</coverage>
  </station>
  <station>
    <id>GHCND:USC00126710</id>
    <displayName>PAOLI, IN US</displayName>
    <minDate>1948-07-01</minDate>
    <maxDate>1951-09-30</maxDate>
    <latitude>38.53333</latitude>
    <longitude>-86.48333</longitude>
    <elevation>195.1</elevation>
    <locationLabels>
      <type>CNTRY</type>
      <id>FIPS:US</id>
      <displayName>United States</displayName>
    </locationLabels>
    <coverage>0.8298</coverage>
  </station>
  <station>
    <id>GHCND:USC00126705</id>
    <displayName>PAOLI, IN US</displayName>
    <minDate>1898-03-01</minDate>
    <maxDate>2012-11-30</maxDate>
    <latitude>38.5555</latitude>
    <longitude>-86.4858</longitude>
    <elevation>170.7</elevation>
    <locationLabels>
      <type>CNTRY</type>
      <id>FIPS:US</id>
      <displayName>United States</displayName>
    </locationLabels>
    <coverage>0.9807</coverage>
  </station>
  <station>
    <id>GHCND:US1CODL0009</id>
    <displayName>PAONIA .55 ESE, CO US</displayName>
    <minDate>2005-03-27</minDate>
    <maxDate>2006-03-23</maxDate>
    <latitude>38.8661</latitude>
    <longitude>-107.5821</longitude>
    <elevation>1756.9</elevation>
    <locationLabels>
      <type>CNTRY</type>
      <id>FIPS:US</id>
      <displayName>United States</displayName>
    </locationLabels>
    <coverage>0.9558</coverage>
  </station>
  <station>
    <id>GHCND:US1CODL0017</id>
    <displayName>PAONIA 0.4 W, CO US</displayName>
    <minDate>2006-09-04</minDate>
    <maxDate>2009-07-27</maxDate>
    <latitude>38.8702</latitude>
    <longitude>-107.5978</longitude>
    <elevation>1730</elevation>
    <locationLabels>
      <type>CNTRY</type>
      <id>FIPS:US</id>
      <displayName>United States</displayName>
    </locationLabels>
    <coverage>0.8119</coverage>
  </station>
  <station>
    <id>GHCND:USC00056307</id>
    <displayName>PAONIA 1 SW, CO US</displayName>
    <minDate>1930-05-29</minDate>
    <maxDate>1957-04-30</maxDate>
    <latitude>38.8522</latitude>
    <longitude>-107.6236</longitude>
    <elevation>1699.6</elevation>
    <locationLabels>
      <type>CNTRY</type>
      <id>FIPS:US</id>
      <displayName>United States</displayName>
    </locationLabels>
    <coverage>0.9475</coverage>
  </station>
  <station>
    <id>GHCND:USC00056306</id>
    <displayName>PAONIA 1 SW, CO US</displayName>
    <minDate>1893-01-01</minDate>
    <maxDate>2013-01-13</maxDate>
    <latitude>38.8522</latitude>
    <longitude>-107.6236</longitude>
    <elevation>1699.6</elevation>
    <locationLabels>
      <type>CNTRY</type>
      <id>FIPS:US</id>
      <displayName>United States</displayName>
    </locationLabels>
    <coverage>0.7027</coverage>
  </station>
  <station>
    <id>GHCND:US1CODL0030</id>
    <displayName>PAONIA 1.3 NNW, CO US</displayName>
    <minDate>2012-05-01</minDate>
    <maxDate>2013-01-15</maxDate>
    <latitude>38.8856</latitude>
    <longitude>-107.6013</longitude>
    <elevation>1817.2</elevation>
    <locationLabels>
      <type>CNTRY</type>
      <id>FIPS:US</id>
      <displayName>United States</displayName>
    </locationLabels>
    <coverage>0.8423</coverage>
  </station>
  <station>
    <id>GHCND:US1CODL0025</id>
    <displayName>PAONIA 2.1 SSE, CO US</displayName>
    <minDate>2010-05-11</minDate>
    <maxDate>2013-01-16</maxDate>
    <latitude>38.8421</latitude>
    <longitude>-107.5748</longitude>
    <elevation>1859.3</elevation>
    <locationLabels>
      <type>CNTRY</type>
      <id>FIPS:US</id>
      <displayName>United States</displayName>
    </locationLabels>
    <coverage>0.9399</coverage>
  </station>
  <station>
    <id>GHCND:USC00026233</id>
    <displayName>PAPAGO FARMS, AZ US</displayName>
    <minDate>1959-03-01</minDate>
    <maxDate>1960-05-31</maxDate>
    <latitude>31.78333</latitude>
    <longitude>-112.28333</longitude>
    <elevation>555</elevation>
    <locationLabels>
      <type>CNTRY</type>
      <id>FIPS:US</id>
      <displayName>United States</displayName>
    </locationLabels>
    <coverage>0.9323</coverage>
  </station>
  <station>
    <id>GHCND:US1HIHI0011</id>
    <displayName>PAPAIKOU 1.1 N, HI US</displayName>
    <minDate>2011-03-23</minDate>
    <maxDate>2013-01-10</maxDate>
    <latitude>19.8095</latitude>
    <longitude>-155.0988</longitude>
    <elevation>108.2</elevation>
    <locationLabels>
      <type>CNTRY</type>
      <id>FIPS:US</id>
      <displayName>United States</displayName>
    </locationLabels>
    <coverage>0.8227</coverage>
  </station>
  <station>
    <id>GHCND:USC00517711</id>
    <displayName>PAPAIKOU 144.1, HI US</displayName>
    <minDate>1905-01-01</minDate>
    <maxDate>2013-01-15</maxDate>
    <latitude>19.7842</latitude>
    <longitude>-155.0937</longitude>
    <elevation>61</elevation>
    <locationLabels>
      <type>CNTRY</type>
      <id>FIPS:US</id>
      <displayName>United States</displayName>
    </locationLabels>
    <coverage>0.8142</coverage>
  </station>
  <station>
    <id>GHCND:USC00517721</id>
    <displayName>PAPAIKOU MAUKA 140.1, HI US</displayName>
    <minDate>1949-10-01</minDate>
    <maxDate>1990-01-31</maxDate>
    <latitude>19.78333</latitude>
    <longitude>-155.13333</longitude>
    <elevation>391.7</elevation>
    <locationLabels>
      <type>CNTRY</type>
      <id>FIPS:US</id>
      <displayName>United States</displayName>
    </locationLabels>
    <coverage>0.9955</coverage>
  </station>
  <station>
    <id>GHCND:USC00517724</id>
    <displayName>PAPAIKOU MAUKA NUMBER 2, HI US</displayName>
    <minDate>1993-09-01</minDate>
    <maxDate>2012-10-31</maxDate>
    <latitude>19.7923</latitude>
    <longitude>-155.1142</longitude>
    <elevation>207.3</elevation>
    <locationLabels>
      <type>CNTRY</type>
      <id>FIPS:US</id>
      <displayName>United States</displayName>
    </locationLabels>
    <coverage>0.9939</coverage>
  </station>
  <station>
    <id>GHCND:US10sarp031</id>
    <displayName>PAPILLION 1.2 WSW, NE US</displayName>
    <minDate>2010-10-14</minDate>
    <maxDate>2013-01-16</maxDate>
    <latitude>41.1431</latitude>
    <longitude>-96.0597</longitude>
    <elevation>0</elevation>
    <locationLabels>
      <type>CNTRY</type>
      <id>FIPS:US</id>
      <displayName>United States</displayName>
    </locationLabels>
    <coverage>0.9746</coverage>
  </station>
  <station>
    <id>GHCND:US10sarp024</id>
    <displayName>PAPILLION 1.3 NE, NE US</displayName>
    <minDate>2011-05-11</minDate>
    <maxDate>2013-01-16</maxDate>
    <latitude>41.1684</latitude>
    <longitude>-96.026</longitude>
    <elevation>0</elevation>
    <locationLabels>
      <type>CNTRY</type>
      <id>FIPS:US</id>
      <displayName>United States</displayName>
    </locationLabels>
    <coverage>0.9368</coverage>
  </station>
  <station>
    <id>GHCND:US10sarp022</id>
    <displayName>PAPILLION 1.4 WSW, NE US</displayName>
    <minDate>2007-01-01</minDate>
    <maxDate>2012-12-15</maxDate>
    <latitude>41.1469</latitude>
    <longitude>-96.0668</longitude>
    <elevation>327.1</elevation>
    <locationLabels>
      <type>CNTRY</type>
      <id>FIPS:US</id>
      <displayName>United States</displayName>
    </locationLabels>
    <coverage>0.9219</coverage>
  </station>
  <station>
    <id>GHCND:US10sarp028</id>
    <displayName>PAPILLION 1.8 SW, NE US</displayName>
    <minDate>2008-07-15</minDate>
    <maxDate>2009-11-24</maxDate>
    <latitude>41.1319</latitude>
    <longitude>-96.0593</longitude>
    <elevation>359.1</elevation>
    <locationLabels>
      <type>CNTRY</type>
      <id>FIPS:US</id>
      <displayName>United States</displayName>
    </locationLabels>
    <coverage>0.5803</coverage>
  </station>
  <station>
    <id>GHCND:US10sarp011</id>
    <displayName>PAPILLION 2.4 ESE, NE US</displayName>
    <minDate>2007-01-01</minDate>
    <maxDate>2009-04-13</maxDate>
    <latitude>41.1344</latitude>
    <longitude>-96.0037</longitude>
    <elevation>340.2</elevation>
    <locationLabels>
      <type>CNTRY</type>
      <id>FIPS:US</id>
      <displayName>United States</displayName>
    </locationLabels>
    <coverage>0.3609</coverage>
  </station>
  <station>
    <id>GHCND:USC00256534</id>
    <displayName>PAPILLION, NE US</displayName>
    <minDate>2004-03-01</minDate>
    <maxDate>2013-01-16</maxDate>
    <latitude>41.1519</latitude>
    <longitude>-96.0491</longitude>
    <elevation>320</elevation>
    <locationLabels>
      <type>CNTRY</type>
      <id>FIPS:US</id>
      <displayName>United States</displayName>
    </locationLabels>
    <coverage>0.9843</coverage>
  </station>
  <station>
    <id>GHCND:USC00517777</id>
    <displayName>PAPUAA 997, HI US</displayName>
    <minDate>1949-10-01</minDate>
    <maxDate>1963-04-30</maxDate>
    <latitude>21.96667</latitude>
    <longitude>-159.46667</longitude>
    <elevation>167.9</elevation>
    <locationLabels>
      <type>CNTRY</type>
      <id>FIPS:US</id>
      <displayName>United States</displayName>
    </locationLabels>
    <coverage>0.998</coverage>
  </station>
  <station>
    <id>GHCND:US1COGF0026</id>
    <displayName>PARACHUTE 3.5 E, CO US</displayName>
    <minDate>2004-08-23</minDate>
    <maxDate>2012-10-13</maxDate>
    <latitude>39.4537</latitude>
    <longitude>-107.9869</longitude>
    <elevation>1841</elevation>
    <locationLabels>
      <type>CNTRY</type>
      <id>FIPS:US</id>
      <displayName>United States</displayName>
    </locationLabels>
    <coverage>0.0817</coverage>
  </station>
  <station>
    <id>GHCND:USC00056311</id>
    <displayName>PARACHUTE, CO US</displayName>
    <minDate>1981-06-01</minDate>
    <maxDate>1992-05-31</maxDate>
    <latitude>39.45</latitude>
    <longitude>-108.05</longitude>
    <elevation>1551.4</elevation>
    <locationLabels>
      <type>CNTRY</type>
      <id>FIPS:US</id>
      <displayName>United States</displayName>
    </locationLabels>
    <coverage>0.6625</coverage>
  </station>
  <station>
    <id>GHCND:USC00167096</id>
    <displayName>PARADIS 7 S, LA US</displayName>
    <minDate>1911-07-01</minDate>
    <maxDate>2011-11-09</maxDate>
    <latitude>29.7892</latitude>
    <longitude>-90.4286</longitude>
    <elevation>1.5</elevation>
    <locationLabels>
      <type>CNTRY</type>
      <id>FIPS:US</id>
      <displayName>United States</displayName>
    </locationLabels>
    <coverage>0.9595</coverage>
  </station>
  <station>
    <id>GHCND:US1MICP0005</id>
    <displayName>PARADISE 0.1 N, MI US</displayName>
    <minDate>2009-10-26</minDate>
    <maxDate>2013-01-16</maxDate>
    <latitude>46.6289</latitude>
    <longitude>-85.0371</longitude>
    <elevation>189</elevation>
    <locationLabels>
      <type>CNTRY</type>
      <id>FIPS:US</id>
      <displayName>United States</displayName>
    </locationLabels>
    <coverage>0.8668</coverage>
  </station>
  <station>
    <id>GHCND:US1KSRS0001</id>
    <displayName>PARADISE 1.0 SW, KS US</displayName>
    <minDate>2005-08-23</minDate>
    <maxDate>2007-09-25</maxDate>
    <latitude>39.1047</latitude>
    <longitude>-98.9331</longitude>
    <elevation>551.1</elevation>
    <locationLabels>
      <type>CNTRY</type>
      <id>FIPS:US</id>
      <displayName>United States</displayName>
    </locationLabels>
    <coverage>0.6662</coverage>
  </station>
  <station>
    <id>GHCND:US1TXWS0006</id>
    <displayName>PARADISE 6.5 SSW, TX US</displayName>
    <minDate>2009-09-12</minDate>
    <maxDate>2012-01-25</maxDate>
    <latitude>33.0575</latitude>
    <longitude>-97.7061</longitude>
    <elevation>235.3</elevation>
    <locationLabels>
      <type>CNTRY</type>
      <id>FIPS:US</id>
      <displayName>United States</displayName>
    </locationLabels>
    <coverage>0.8129</coverage>
  </station>
  <station>
    <id>GHCND:USC00206353</id>
    <displayName>PARADISE 9 WSW, MI US</displayName>
    <minDate>1947-10-01</minDate>
    <maxDate>1952-03-31</maxDate>
    <latitude>46.6</latitude>
    <longitude>-85.23333</longitude>
    <elevation>189</elevation>
    <locationLabels>
      <type>CNTRY</type>
      <id>FIPS:US</id>
      <displayName>United States</displayName>
    </locationLabels>
    <coverage>0.9489</coverage>
  </station>
  <station>
    <id>GHCND:USC00517781</id>
    <displayName>PARADISE COVE 726.1, HI US</displayName>
    <minDate>1999-10-01</minDate>
    <maxDate>2003-10-31</maxDate>
    <latitude>21.34472</latitude>
    <longitude>-158.12778</longitude>
    <elevation>2.4</elevation>
    <locationLabels>
      <type>CNTRY</type>
      <id>FIPS:US</id>
      <displayName>United States</displayName>
    </locationLabels>
    <coverage>0.6334</coverage>
  </station>
  <station>
    <id>GHCND:USC00265990</id>
    <displayName>PARADISE HILL, NV US</displayName>
    <minDate>1902-06-19</minDate>
    <maxDate>1968-08-31</maxDate>
    <latitude>41.28333</latitude>
    <longitude>-117.7</longitude>
    <elevation>1373.1</elevation>
    <locationLabels>
      <type>CNTRY</type>
      <id>FIPS:US</id>
      <displayName>United States</displayName>
    </locationLabels>
    <coverage>0.1002</coverage>
  </station>
  <station>
    <id>GHCND:US1NMBR0099</id>
    <displayName>PARADISE HILLS 0.6 NW, NM US</displayName>
    <minDate>2007-06-01</minDate>
    <maxDate>2013-01-15</maxDate>
    <latitude>35.2016</latitude>
    <longitude>-106.7027</longitude>
    <elevation>1617</elevation>
    <locationLabels>
      <type>CNTRY</type>
      <id>FIPS:US</id>
      <displayName>United States</displayName>
    </locationLabels>
    <coverage>0.9548</coverage>
  </station>
  <station>
    <id>GHCND:US1NMBR0074</id>
    <displayName>PARADISE HILLS 1.4 SSE, NM US</displayName>
    <minDate>2006-08-14</minDate>
    <maxDate>2012-10-13</maxDate>
    <latitude>35.1791</latitude>
    <longitude>-106.6825</longitude>
    <elevation>1559.1</elevation>
    <locationLabels>
      <type>CNTRY</type>
      <id>FIPS:US</id>
      <displayName>United States</displayName>
    </locationLabels>
    <coverage>0.8464</coverage>
  </station>
  <station>
    <id>GHCND:US1NMBR0051</id>
    <displayName>PARADISE HILLS 3.5 S, NM US</displayName>
    <minDate>1998-06-17</minDate>
    <maxDate>2010-12-01</maxDate>
    <latitude>35.146</latitude>
    <longitude>-106.6939</longitude>
    <elevation>1544.1</elevation>
    <locationLabels>
      <type>CNTRY</type>
      <id>FIPS:US</id>
      <displayName>United States</displayName>
    </locationLabels>
    <coverage>0.2802</coverage>
  </station>
  <station>
    <id>GHCND:USC00156155</id>
    <displayName>PARADISE STEAM PLANT, KY US</displayName>
    <minDate>1960-10-01</minDate>
    <maxDate>2011-11-22</maxDate>
    <latitude>37.2591</latitude>
    <longitude>-86.9777</longitude>
    <elevation>122.5</elevation>
    <locationLabels>
      <type>CNTRY</type>
      <id>FIPS:US</id>
      <displayName>United States</displayName>
    </locationLabels>
    <coverage>0.9237</coverage>
  </station>
  <station>
    <id>GHCND:USC00266005</id>
    <displayName>PARADISE VALLEY 1 NW, NV US</displayName>
    <minDate>1894-02-01</minDate>
    <maxDate>2010-04-30</maxDate>
    <latitude>41.50222</latitude>
    <longitude>-117.54778</longitude>
    <elevation>1389.9</elevation>
    <locationLabels>
      <type>CNTRY</type>
      <id>FIPS:US</id>
      <displayName>United States</displayName>
    </locationLabels>
    <coverage>0.8021</coverage>
  </station>
  <station>
    <id>GHCND:US1AZMR0058</id>
    <displayName>PARADISE VALLEY 1.9 NW, AZ US</displayName>
    <minDate>2008-10-02</minDate>
    <maxDate>2013-01-16</maxDate>
    <latitude>33.5617</latitude>
    <longitude>-111.9739</longitude>
    <elevation>422.5</elevation>
    <locationLabels>
      <type>CNTRY</type>
      <id>FIPS:US</id>
      <displayName>United States</displayName>
    </locationLabels>
    <coverage>0.6805</coverage>
  </station>
  <station>
    <id>GHCND:US1AZMR0115</id>
    <displayName>PARADISE VALLEY 1.9 SW, AZ US</displayName>
    <minDate>2009-09-12</minDate>
    <maxDate>2012-08-18</maxDate>
    <latitude>33.521</latitude>
    <longitude>-111.9796</longitude>
    <elevation>409.7</elevation>
    <locationLabels>
      <type>CNTRY</type>
      <id>FIPS:US</id>
      <displayName>United States</displayName>
    </locationLabels>
    <coverage>0.4459</coverage>
  </station>
  <station>
    <id>GHCND:US1AZMR0072</id>
    <displayName>PARADISE VALLEY 2.8 NNW, AZ US</displayName>
    <minDate>2009-09-19</minDate>
    <maxDate>2012-12-31</maxDate>
    <latitude>33.5781</latitude>
    <longitude>-111.9697</longitude>
    <elevation>415.4</elevation>
    <locationLabels>
      <type>CNTRY</type>
      <id>FIPS:US</id>
      <displayName>United States</displayName>
    </locationLabels>
    <coverage>0.0892</coverage>
  </station>
  <station>
    <id>GHCND:US1NVHT0004</id>
    <displayName>PARADISE VALLEY 5.4 ENE, NV US</displayName>
    <minDate>2012-05-02</minDate>
    <maxDate>2012-12-24</maxDate>
    <latitude>41.5231</latitude>
    <longitude>-117.4381</longitude>
    <elevation>1427.7</elevation>
    <locationLabels>
      <type>CNTRY</type>
      <id>FIPS:US</id>
      <displayName>United States</displayName>
    </locationLabels>
    <coverage>0.8608</coverage>
  </station>
  <station>
    <id>GHCND:USC00026246</id>
    <displayName>PARADISE VALLEY NUMBER 2, AZ US</displayName>
    <minDate>1973-03-01</minDate>
    <maxDate>1976-09-30</maxDate>
    <latitude>33.56667</latitude>
    <longitude>-111.96667</longitude>
    <elevation>420.9</elevation>
    <locationLabels>
      <type>CNTRY</type>
      <id>FIPS:US</id>
      <displayName>United States</displayName>
    </locationLabels>
    <coverage>1</coverage>
  </station>
  <station>
    <id>GHCND:USC00025765</id>
    <displayName>PARADISE VALLEY NUMBER 2, AZ US</displayName>
    <minDate>1969-12-01</minDate>
    <maxDate>1973-01-31</maxDate>
    <latitude>33.56667</latitude>
    <longitude>-111.96667</longitude>
    <elevation>420.9</elevation>
    <locationLabels>
      <type>CNTRY</type>
      <id>FIPS:US</id>
      <displayName>United States</displayName>
    </locationLabels>
    <coverage>1</coverage>
  </station>
  <station>
    <id>GHCND:USC00026244</id>
    <displayName>PARADISE VALLEY NUMBER 2, AZ US</displayName>
    <minDate>1955-06-01</minDate>
    <maxDate>1970-01-31</maxDate>
    <latitude>33.56667</latitude>
    <longitude>-111.96667</longitude>
    <elevation>420.9</elevation>
    <locationLabels>
      <type>CNTRY</type>
      <id>FIPS:US</id>
      <displayName>United States</displayName>
    </locationLabels>
    <coverage>0.9942</coverage>
  </station>
  <station>
    <id>GHCND:USC00266000</id>
    <displayName>PARADISE VALLEY, NV US</displayName>
    <minDate>1948-07-01</minDate>
    <maxDate>1960-07-02</maxDate>
    <latitude>41.5</latitude>
    <longitude>-117.53333</longitude>
    <elevation>1417.9</elevation>
    <locationLabels>
      <type>CNTRY</type>
      <id>FIPS:US</id>
      <displayName>United States</displayName>
    </locationLabels>
    <coverage>0.2513</coverage>
  </station>
  <station>
    <id>GHCND:USC00026242</id>
    <displayName>PARADISE, AZ US</displayName>
    <minDate>1906-01-01</minDate>
    <maxDate>2013-01-16</maxDate>
    <latitude>31.9352</latitude>
    <longitude>-109.2187</longitude>
    <elevation>1664.2</elevation>
    <locationLabels>
      <type>CNTRY</type>
      <id>FIPS:US</id>
      <displayName>United States</displayName>
    </locationLabels>
    <coverage>0.3285</coverage>
  </station>
  <station>
    <id>GHCND:USC00046685</id>
    <displayName>PARADISE, CA US</displayName>
    <minDate>1957-05-01</minDate>
    <maxDate>2013-01-14</maxDate>
    <latitude>39.75361</latitude>
    <longitude>-121.62389</longitude>
    <elevation>533.4</elevation>
    <locationLabels>
      <type>CNTRY</type>
      <id>FIPS:US</id>
      <displayName>United States</displayName>
    </locationLabels>
    <coverage>0.9863</coverage>
  </station>
  <station>
    <id>GHCND:USC00246364</id>
    <displayName>PARADISE, MT US</displayName>
    <minDate>1962-07-01</minDate>
    <maxDate>1973-12-31</maxDate>
    <latitude>47.38333</latitude>
    <longitude>-114.8</longitude>
    <elevation>880.9</elevation>
    <locationLabels>
      <type>CNTRY</type>
      <id>FIPS:US</id>
      <displayName>United States</displayName>
    </locationLabels>
    <coverage>0.9798</coverage>
  </station>
  <station>
    <id>GHCND:USS0021C35S</id>
    <displayName>PARADISE, WA US</displayName>
    <minDate>1980-10-01</minDate>
    <maxDate>2013-01-14</maxDate>
    <latitude>46.8333</latitude>
    <longitude>-121.7167</longitude>
    <elevation>1560.6</elevation>
    <locationLabels>
      <type>CNTRY</type>
      <id>FIPS:US</id>
      <displayName>United States</displayName>
    </locationLabels>
    <coverage>0.8932</coverage>
  </station>
  <station>
    <id>GHCND:USC00056315</id>
    <displayName>PARADOX 1 E, CO US</displayName>
    <minDate>1948-08-01</minDate>
    <maxDate>1977-10-31</maxDate>
    <latitude>38.36667</latitude>
    <longitude>-108.95</longitude>
    <elevation>1610</elevation>
    <locationLabels>
      <type>CNTRY</type>
      <id>FIPS:US</id>
      <displayName>United States</displayName>
    </locationLabels>
    <coverage>0.9494</coverage>
  </station>
  <station>
    <id>GHCND:USC00056318</id>
    <displayName>PARADOX 1 W, CO US</displayName>
    <minDate>1977-11-01</minDate>
    <maxDate>1995-09-30</maxDate>
    <latitude>38.38333</latitude>
    <longitude>-108.98333</longitude>
    <elevation>1685.5</elevation>
    <locationLabels>
      <type>CNTRY</type>
      <id>FIPS:US</id>
      <displayName>United States</displayName>
    </locationLabels>
    <coverage>0.9745</coverage>
  </station>
  <station>
    <id>GHCND:US1COMT0012</id>
    <displayName>PARADOX 1.7 NNW, CO US</displayName>
    <minDate>2005-10-04</minDate>
    <maxDate>2011-08-29</maxDate>
    <latitude>38.3941</latitude>
    <longitude>-108.959</longitude>
    <elevation>1703.5</elevation>
    <locationLabels>
      <type>CNTRY</type>
      <id>FIPS:US</id>
      <displayName>United States</displayName>
    </locationLabels>
    <coverage>0.3029</coverage>
  </station>
  <station>
    <id>GHCND:USC00056320</id>
    <displayName>PARADOX 2 N, CO US</displayName>
    <minDate>2005-07-01</minDate>
    <maxDate>2013-01-16</maxDate>
    <latitude>38.3897</latitude>
    <longitude>-108.9494</longitude>
    <elevation>1660.2</elevation>
    <locationLabels>
      <type>CNTRY</type>
      <id>FIPS:US</id>
      <displayName>United States</displayName>
    </locationLabels>
    <coverage>0.9964</coverage>
  </station>
  <station>
    <id>GHCND:USC00035563</id>
    <displayName>PARAGOULD 1 S, AR US</displayName>
    <minDate>1979-07-01</minDate>
    <maxDate>2013-01-16</maxDate>
    <latitude>36.0336</latitude>
    <longitude>-90.4978</longitude>
    <elevation>82.3</elevation>
    <locationLabels>
      <type>CNTRY</type>
      <id>FIPS:US</id>
      <displayName>United States</displayName>
    </locationLabels>
    <coverage>0.9931</coverage>
  </station>
  <station>
    <id>GHCND:USC00035562</id>
    <displayName>PARAGOULD, AR US</displayName>
    <minDate>1892-01-01</minDate>
    <maxDate>1979-06-30</maxDate>
    <latitude>36.0327</latitude>
    <longitude>-90.4913</longitude>
    <elevation>79.2</elevation>
    <locationLabels>
      <type>CNTRY</type>
      <id>FIPS:US</id>
      <displayName>United States</displayName>
    </locationLabels>
    <coverage>0.5888</coverage>
  </station>
  <station>
    <id>GHCND:RQC00666805</id>
    <displayName>PARAISO, PR US</displayName>
    <minDate>1956-01-01</minDate>
    <maxDate>2012-11-30</maxDate>
    <latitude>18.265</latitude>
    <longitude>-65.7208</longitude>
    <elevation>109.7</elevation>
    <locationLabels>
      <type>CNTRY</type>
      <id>FIPS:US</id>
      <displayName>United States</displayName>
    </locationLabels>
    <coverage>0.9743</coverage>
  </station>
  <station>
    <id>GHCND:USC00146217</id>
    <displayName>PARALLEL, KS US</displayName>
    <minDate>1959-08-01</minDate>
    <maxDate>2013-01-11</maxDate>
    <latitude>39.5533</latitude>
    <longitude>-96.8754</longitude>
    <elevation>398.7</elevation>
    <locationLabels>
      <type>CNTRY</type>
      <id>FIPS:US</id>
      <displayName>United States</displayName>
    </locationLabels>
    <coverage>0.9523</coverage>
  </station>
  <station>
    <id>GHCND:US1NJBG0020</id>
    <displayName>PARAMUS 1.8 NNW, NJ US</displayName>
    <minDate>2008-09-01</minDate>
    <maxDate>2010-12-11</maxDate>
    <latitude>40.9682</latitude>
    <longitude>-74.0902</longitude>
    <elevation>25</elevation>
    <locationLabels>
      <type>CNTRY</type>
      <id>FIPS:US</id>
      <displayName>United States</displayName>
    </locationLabels>
    <coverage>0.6526</coverage>
  </station>
  <station>
    <id>GHCND:USR0000MPAR</id>
    <displayName>PARDEE MONTANA, MT US</displayName>
    <minDate>1998-05-29</minDate>
    <maxDate>2012-08-31</maxDate>
    <latitude>47.2697</latitude>
    <longitude>-114.9161</longitude>
    <elevation>1414.3</elevation>
    <locationLabels>
      <type>CNTRY</type>
      <id>FIPS:US</id>
      <displayName>United States</displayName>
    </locationLabels>
    <coverage>0.8641</coverage>
  </station>
  <station>
    <id>GHCND:USR0000APAR</id>
    <displayName>PARIA POINT ARIZONA, AZ US</displayName>
    <minDate>1994-09-26</minDate>
    <maxDate>2012-08-30</maxDate>
    <latitude>36.7278</latitude>
    <longitude>-111.8219</longitude>
    <elevation>2205.2</elevation>
    <locationLabels>
      <type>CNTRY</type>
      <id>FIPS:US</id>
      <displayName>United States</displayName>
    </locationLabels>
    <coverage>0.9634</coverage>
  </station>
  <station>
    <id>GHCND:USC00426640</id>
    <displayName>PARIA RANGER STATION, UT US</displayName>
    <minDate>1999-02-01</minDate>
    <maxDate>2012-11-10</maxDate>
    <latitude>37.1047</latitude>
    <longitude>-111.9</longitude>
    <elevation>1341.1</elevation>
    <locationLabels>
      <type>CNTRY</type>
      <id>FIPS:US</id>
      <displayName>United States</displayName>
    </locationLabels>
    <coverage>0.8786</coverage>
  </station>
  <station>
    <id>GHCND:USR0000PARI</id>
    <displayName>PARIETTE DRAW, UT US</displayName>
    <minDate>1992-12-08</minDate>
    <maxDate>2000-06-22</maxDate>
    <latitude>40.0694</latitude>
    <longitude>-109.8569</longitude>
    <elevation>1456.9</elevation>
    <locationLabels>
      <type>CNTRY</type>
      <id>FIPS:US</id>
      <displayName>United States</displayName>
    </locationLabels>
    <coverage>0.9953</coverage>
  </station>
  <station>
    <id>GHCND:US1ARLG0008</id>
    <displayName>PARIS 0.2 NW, AR US</displayName>
    <minDate>2012-07-01</minDate>
    <maxDate>2012-11-19</maxDate>
    <latitude>35.2916</latitude>
    <longitude>-93.7272</longitude>
    <elevation>122.8</elevation>
    <locationLabels>
      <type>CNTRY</type>
      <id>FIPS:US</id>
      <displayName>United States</displayName>
    </locationLabels>
    <coverage>0.993</coverage>
  </station>
  <station>
    <id>GHCND:US1ILED0004</id>
    <displayName>PARIS 0.3 ESE, IL US</displayName>
    <minDate>2008-11-20</minDate>
    <maxDate>2012-11-30</maxDate>
    <latitude>39.6137</latitude>
    <longitude>-87.6865</longitude>
    <elevation>216.1</elevation>
    <locationLabels>
      <type>CNTRY</type>
      <id>FIPS:US</id>
      <displayName>United States</displayName>
    </locationLabels>
    <coverage>0.9654</coverage>
  </station>
  <station>
    <id>GHCND:US1ILED0002</id>
    <displayName>PARIS 0.4 NNW, IL US</displayName>
    <minDate>2008-11-22</minDate>
    <maxDate>2011-11-29</maxDate>
    <latitude>39.6208</latitude>
    <longitude>-87.695</longitude>
    <elevation>214.9</elevation>
    <locationLabels>
      <type>CNTRY</type>
      <id>FIPS:US</id>
      <displayName>United States</displayName>
    </locationLabels>
    <coverage>0.4279</coverage>
  </station>
  <station>
    <id>GHCND:US1MOFSA137</id>
    <displayName>PARIS 0.7 S, MO US</displayName>
    <minDate>2006-05-01</minDate>
    <maxDate>2013-01-16</maxDate>
    <latitude>39.4675</latitude>
    <longitude>-92.0023</longitude>
    <elevation>218.8</elevation>
    <locationLabels>
      <type>CNTRY</type>
      <id>FIPS:US</id>
      <displayName>United States</displayName>
    </locationLabels>
    <coverage>0.9939</coverage>
  </station>
  <station>
    <id>GHCND:USC00116605</id>
    <displayName>PARIS 1 N, IL US</displayName>
    <minDate>1948-07-01</minDate>
    <maxDate>1951-09-30</maxDate>
    <latitude>39.63333</latitude>
    <longitude>-87.7</longitude>
    <elevation>222.5</elevation>
    <locationLabels>
      <type>CNTRY</type>
      <id>FIPS:US</id>
      <displayName>United States</displayName>
    </locationLabels>
    <coverage>0.7077</coverage>
  </station>
  <station>
    <id>GHCND:US1TNHY0003</id>
    <displayName>PARIS 1.0 W, TN US</displayName>
    <minDate>2009-03-19</minDate>
    <maxDate>2013-01-15</maxDate>
    <latitude>36.2976</latitude>
    <longitude>-88.3246</longitude>
    <elevation>167.9</elevation>
    <locationLabels>
      <type>CNTRY</type>
      <id>FIPS:US</id>
      <displayName>United States</displayName>
    </locationLabels>
    <coverage>0.9385</coverage>
  </station>
  <station>
    <id>GHCND:USC00406977</id>
    <displayName>PARIS 2 SE, TN US</displayName>
    <minDate>1922-12-17</minDate>
    <maxDate>2013-01-16</maxDate>
    <latitude>36.2872</latitude>
    <longitude>-88.2958</longitude>
    <elevation>135</elevation>
    <locationLabels>
      <type>CNTRY</type>
      <id>FIPS:US</id>
      <displayName>United States</displayName>
    </locationLabels>
    <coverage>0.8395</coverage>
  </station>
  <station>
    <id>GHCND:US1TNHY0004</id>
    <displayName>PARIS 2.2 SE, TN US</displayName>
    <minDate>2010-07-28</minDate>
    <maxDate>2011-01-01</maxDate>
    <latitude>36.2792</latitude>
    <longitude>-88.2774</longitude>
    <elevation>137.8</elevation>
    <locationLabels>
      <type>CNTRY</type>
      <id>FIPS:US</id>
      <displayName>United States</displayName>
    </locationLabels>
    <coverage>0.981</coverage>
  </station>
  <station>
    <id>GHCND:US1ILED0007</id>
    <displayName>PARIS 4.0 NNW, IL US</displayName>
    <minDate>2012-04-25</minDate>
    <maxDate>2013-01-14</maxDate>
    <latitude>39.6683</latitude>
    <longitude>-87.7231</longitude>
    <elevation>204.8</elevation>
    <locationLabels>
      <type>CNTRY</type>
      <id>FIPS:US</id>
      <displayName>United States</displayName>
    </locationLabels>
    <coverage>0.8792</coverage>
  </station>
</stationCollection>
