<?xml version="1.0" encoding="UTF-8" standalone="yes"?>
<stationCollection totalCount="46020" pageCount="461" pageSize="100" page="349">
  <station>
    <id>GHCND:USC00417530</id>
    <displayName>REFUGIO 3 SW, TX US</displayName>
    <minDate>1991-05-01</minDate>
    <maxDate>2013-01-15</maxDate>
    <latitude>28.2939</latitude>
    <longitude>-97.3297</longitude>
    <elevation>16.5</elevation>
    <locationLabels>
      <type>CNTRY</type>
      <id>FIPS:US</id>
      <displayName>United States</displayName>
    </locationLabels>
    <coverage>0.9493</coverage>
  </station>
  <station>
    <id>GHCND:USC00417529</id>
    <displayName>REFUGIO, TX US</displayName>
    <minDate>1948-01-01</minDate>
    <maxDate>1984-11-30</maxDate>
    <latitude>28.3</latitude>
    <longitude>-97.28333</longitude>
    <elevation>14.9</elevation>
    <locationLabels>
      <type>CNTRY</type>
      <id>FIPS:US</id>
      <displayName>United States</displayName>
    </locationLabels>
    <coverage>0.9922</coverage>
  </station>
  <station>
    <id>GHCND:USC00327461</id>
    <displayName>REGAN 6 NE, ND US</displayName>
    <minDate>1989-06-01</minDate>
    <maxDate>1998-10-31</maxDate>
    <latitude>47.23333</latitude>
    <longitude>-100.43333</longitude>
    <elevation>624.8</elevation>
    <locationLabels>
      <type>CNTRY</type>
      <id>FIPS:US</id>
      <displayName>United States</displayName>
    </locationLabels>
    <coverage>0.9799</coverage>
  </station>
  <station>
    <id>GHCND:US1NDHT0001</id>
    <displayName>REGENT 4.2 E, ND US</displayName>
    <minDate>2009-04-04</minDate>
    <maxDate>2013-01-16</maxDate>
    <latitude>46.4288</latitude>
    <longitude>-102.4705</longitude>
    <elevation>771.1</elevation>
    <locationLabels>
      <type>CNTRY</type>
      <id>FIPS:US</id>
      <displayName>United States</displayName>
    </locationLabels>
    <coverage>0.9545</coverage>
  </station>
  <station>
    <id>GHCND:USC00327465</id>
    <displayName>REGENT, ND US</displayName>
    <minDate>2002-11-01</minDate>
    <maxDate>2012-11-30</maxDate>
    <latitude>46.4199</latitude>
    <longitude>-102.5611</longitude>
    <elevation>743.7</elevation>
    <locationLabels>
      <type>CNTRY</type>
      <id>FIPS:US</id>
      <displayName>United States</displayName>
    </locationLabels>
    <coverage>0.8998</coverage>
  </station>
  <station>
    <id>GHCND:USC00297346</id>
    <displayName>REGINA, NM US</displayName>
    <minDate>1914-08-01</minDate>
    <maxDate>1969-08-31</maxDate>
    <latitude>36.18333</latitude>
    <longitude>-106.95</longitude>
    <elevation>2272</elevation>
    <locationLabels>
      <type>CNTRY</type>
      <id>FIPS:US</id>
      <displayName>United States</displayName>
    </locationLabels>
    <coverage>0.9329</coverage>
  </station>
  <station>
    <id>GHCND:USC00347534</id>
    <displayName>REGNIER, OK US</displayName>
    <minDate>1890-04-06</minDate>
    <maxDate>2006-02-28</maxDate>
    <latitude>36.9425</latitude>
    <longitude>-102.63139</longitude>
    <elevation>1225.3</elevation>
    <locationLabels>
      <type>CNTRY</type>
      <id>FIPS:US</id>
      <displayName>United States</displayName>
    </locationLabels>
    <coverage>0.5392</coverage>
  </station>
  <station>
    <id>GHCND:US1MABR0002</id>
    <displayName>REHOBOTH 2.1 N, MA US</displayName>
    <minDate>2003-03-18</minDate>
    <maxDate>2013-01-16</maxDate>
    <latitude>41.863</latitude>
    <longitude>-71.2729</longitude>
    <elevation>46.6</elevation>
    <locationLabels>
      <type>CNTRY</type>
      <id>FIPS:US</id>
      <displayName>United States</displayName>
    </locationLabels>
    <coverage>0.3379</coverage>
  </station>
  <station>
    <id>GHCND:US1NCRG0006</id>
    <displayName>REIDSVILLE 1.3 ENE, NC US</displayName>
    <minDate>2010-04-01</minDate>
    <maxDate>2013-01-01</maxDate>
    <latitude>36.3527</latitude>
    <longitude>-79.6498</longitude>
    <elevation>242</elevation>
    <locationLabels>
      <type>CNTRY</type>
      <id>FIPS:US</id>
      <displayName>United States</displayName>
    </locationLabels>
    <coverage>0.9245</coverage>
  </station>
  <station>
    <id>GHCND:USC00317202</id>
    <displayName>REIDSVILLE 2 NW, NC US</displayName>
    <minDate>1962-02-01</minDate>
    <maxDate>2013-01-16</maxDate>
    <latitude>36.3825</latitude>
    <longitude>-79.6947</longitude>
    <elevation>271.3</elevation>
    <locationLabels>
      <type>CNTRY</type>
      <id>FIPS:US</id>
      <displayName>United States</displayName>
    </locationLabels>
    <coverage>0.9944</coverage>
  </station>
  <station>
    <id>GHCND:USC00097439</id>
    <displayName>REIDSVILLE, GA US</displayName>
    <minDate>1941-02-14</minDate>
    <maxDate>1942-10-31</maxDate>
    <latitude>32.086861</latitude>
    <longitude>-82.117898</longitude>
    <elevation>63.1</elevation>
    <locationLabels>
      <type>CNTRY</type>
      <id>FIPS:US</id>
      <displayName>United States</displayName>
    </locationLabels>
    <coverage>0.3424</coverage>
  </station>
  <station>
    <id>GHCND:USC00317197</id>
    <displayName>REIDSVILLE, NC US</displayName>
    <minDate>1901-11-01</minDate>
    <maxDate>1963-08-31</maxDate>
    <latitude>36.35</latitude>
    <longitude>-79.63333</longitude>
    <elevation>253</elevation>
    <locationLabels>
      <type>CNTRY</type>
      <id>FIPS:US</id>
      <displayName>United States</displayName>
    </locationLabels>
    <coverage>0.9957</coverage>
  </station>
  <station>
    <id>GHCND:USC00417534</id>
    <displayName>REILEY RANCH, TX US</displayName>
    <minDate>1948-04-01</minDate>
    <maxDate>1950-07-11</maxDate>
    <latitude>30.63333</latitude>
    <longitude>-100.25</longitude>
    <elevation>747.1</elevation>
    <locationLabels>
      <type>CNTRY</type>
      <id>FIPS:US</id>
      <displayName>United States</displayName>
    </locationLabels>
    <coverage>0.4255</coverage>
  </station>
  <station>
    <id>GHCND:USC00136969</id>
    <displayName>REINBECK 2 W, IA US</displayName>
    <minDate>1896-02-01</minDate>
    <maxDate>1897-08-31</maxDate>
    <latitude>42.31667</latitude>
    <longitude>-92.63333</longitude>
    <elevation>289.9</elevation>
    <locationLabels>
      <type>CNTRY</type>
      <id>FIPS:US</id>
      <displayName>United States</displayName>
    </locationLabels>
    <coverage>0.5104</coverage>
  </station>
  <station>
    <id>GHCND:USR0000AREI</id>
    <displayName>REINDEER RIVER ALASKA, AK US</displayName>
    <minDate>1993-08-02</minDate>
    <maxDate>2012-08-30</maxDate>
    <latitude>61.7161</latitude>
    <longitude>-162.665</longitude>
    <elevation>42.7</elevation>
    <locationLabels>
      <type>CNTRY</type>
      <id>FIPS:US</id>
      <displayName>United States</displayName>
    </locationLabels>
    <coverage>0.8056</coverage>
  </station>
  <station>
    <id>GHCND:US1MDBL0026</id>
    <displayName>REISTERSTOWN 0.4 NE, MD US</displayName>
    <minDate>2010-04-30</minDate>
    <maxDate>2013-01-15</maxDate>
    <latitude>39.461</latitude>
    <longitude>-76.8085</longitude>
    <elevation>193.9</elevation>
    <locationLabels>
      <type>CNTRY</type>
      <id>FIPS:US</id>
      <displayName>United States</displayName>
    </locationLabels>
    <coverage>0.9456</coverage>
  </station>
  <station>
    <id>GHCND:US1TXCHK002</id>
    <displayName>REKLAW 1.7 SSE, TX US</displayName>
    <minDate>2008-06-22</minDate>
    <maxDate>2010-04-13</maxDate>
    <latitude>31.8435</latitude>
    <longitude>-94.9684</longitude>
    <elevation>92.4</elevation>
    <locationLabels>
      <type>CNTRY</type>
      <id>FIPS:US</id>
      <displayName>United States</displayName>
    </locationLabels>
    <coverage>0.9728</coverage>
  </station>
  <station>
    <id>GHCND:USC00417547</id>
    <displayName>REKLAW 3 NNE, TX US</displayName>
    <minDate>1958-09-01</minDate>
    <maxDate>1988-03-31</maxDate>
    <latitude>31.9</latitude>
    <longitude>-94.98333</longitude>
    <elevation>100.6</elevation>
    <locationLabels>
      <type>CNTRY</type>
      <id>FIPS:US</id>
      <displayName>United States</displayName>
    </locationLabels>
    <coverage>0.9674</coverage>
  </station>
  <station>
    <id>GHCND:USC00306999</id>
    <displayName>RELAY, NY US</displayName>
    <minDate>1948-05-01</minDate>
    <maxDate>1959-06-30</maxDate>
    <latitude>42.31667</latitude>
    <longitude>-74.63333</longitude>
    <elevation>622.1</elevation>
    <locationLabels>
      <type>CNTRY</type>
      <id>FIPS:US</id>
      <displayName>United States</displayName>
    </locationLabels>
    <coverage>0.9988</coverage>
  </station>
  <station>
    <id>GHCND:US1SDLY0012</id>
    <displayName>RELIANCE 0.1 ESE, SD US</displayName>
    <minDate>2007-07-10</minDate>
    <maxDate>2012-12-03</maxDate>
    <latitude>43.8799</latitude>
    <longitude>-99.6</longitude>
    <elevation>540.1</elevation>
    <locationLabels>
      <type>CNTRY</type>
      <id>FIPS:US</id>
      <displayName>United States</displayName>
    </locationLabels>
    <coverage>0.4326</coverage>
  </station>
  <station>
    <id>GHCND:US1SDLY0014</id>
    <displayName>RELIANCE 0.3 ESE, SD US</displayName>
    <minDate>2007-08-16</minDate>
    <maxDate>2011-10-10</maxDate>
    <latitude>43.8791</latitude>
    <longitude>-99.5961</longitude>
    <elevation>535.8</elevation>
    <locationLabels>
      <type>CNTRY</type>
      <id>FIPS:US</id>
      <displayName>United States</displayName>
    </locationLabels>
    <coverage>0.1701</coverage>
  </station>
  <station>
    <id>GHCND:US1SDLY0018</id>
    <displayName>RELIANCE 9.8 S, SD US</displayName>
    <minDate>2010-07-26</minDate>
    <maxDate>2012-12-27</maxDate>
    <latitude>43.7373</latitude>
    <longitude>-99.5988</longitude>
    <elevation>436.5</elevation>
    <locationLabels>
      <type>CNTRY</type>
      <id>FIPS:US</id>
      <displayName>United States</displayName>
    </locationLabels>
    <coverage>0.6648</coverage>
  </station>
  <station>
    <id>GHCND:USC00156732</id>
    <displayName>RELIEF NUMBER 2, KY US</displayName>
    <minDate>2011-01-01</minDate>
    <maxDate>2011-10-02</maxDate>
    <latitude>37.96056</latitude>
    <longitude>-83.005</longitude>
    <elevation>256</elevation>
    <locationLabels>
      <type>CNTRY</type>
      <id>FIPS:US</id>
      <displayName>United States</displayName>
    </locationLabels>
    <coverage>0.9455</coverage>
  </station>
  <station>
    <id>GHCND:USC00156728</id>
    <displayName>RELIEF, KY US</displayName>
    <minDate>1978-10-01</minDate>
    <maxDate>1985-06-30</maxDate>
    <latitude>37.95</latitude>
    <longitude>-83</longitude>
    <elevation>204.2</elevation>
    <locationLabels>
      <type>CNTRY</type>
      <id>FIPS:US</id>
      <displayName>United States</displayName>
    </locationLabels>
    <coverage>0.2982</coverage>
  </station>
  <station>
    <id>GHCND:US1MNCS0002</id>
    <displayName>REMER 2.5 N, MN US</displayName>
    <minDate>2010-04-22</minDate>
    <maxDate>2012-05-29</maxDate>
    <latitude>47.0922</latitude>
    <longitude>-93.9195</longitude>
    <elevation>419.4</elevation>
    <locationLabels>
      <type>CNTRY</type>
      <id>FIPS:US</id>
      <displayName>United States</displayName>
    </locationLabels>
    <coverage>0.3472</coverage>
  </station>
  <station>
    <id>GHCND:USC00216849</id>
    <displayName>REMER NUMBER 2, MN US</displayName>
    <minDate>1957-01-01</minDate>
    <maxDate>2000-05-31</maxDate>
    <latitude>47.06222</latitude>
    <longitude>-93.915</longitude>
    <elevation>410</elevation>
    <locationLabels>
      <type>CNTRY</type>
      <id>FIPS:US</id>
      <displayName>United States</displayName>
    </locationLabels>
    <coverage>0.7938</coverage>
  </station>
  <station>
    <id>GHCND:USC00216848</id>
    <displayName>REMER NUMBER 2, MN US</displayName>
    <minDate>1948-08-01</minDate>
    <maxDate>1956-12-31</maxDate>
    <latitude>47.06222</latitude>
    <longitude>-93.915</longitude>
    <elevation>410</elevation>
    <locationLabels>
      <type>CNTRY</type>
      <id>FIPS:US</id>
      <displayName>United States</displayName>
    </locationLabels>
    <coverage>0.9437</coverage>
  </station>
  <station>
    <id>GHCND:US1INJS0047</id>
    <displayName>REMINGTON 0.3 N, IN US</displayName>
    <minDate>2010-03-18</minDate>
    <maxDate>2013-01-16</maxDate>
    <latitude>40.7666</latitude>
    <longitude>-87.152</longitude>
    <elevation>223.7</elevation>
    <locationLabels>
      <type>CNTRY</type>
      <id>FIPS:US</id>
      <displayName>United States</displayName>
    </locationLabels>
    <coverage>0.972</coverage>
  </station>
  <station>
    <id>GHCND:US1INJS0023</id>
    <displayName>REMINGTON 0.3 SSE, IN US</displayName>
    <minDate>2007-02-22</minDate>
    <maxDate>2010-03-16</maxDate>
    <latitude>40.7584</latitude>
    <longitude>-87.1484</longitude>
    <elevation>223.1</elevation>
    <locationLabels>
      <type>CNTRY</type>
      <id>FIPS:US</id>
      <displayName>United States</displayName>
    </locationLabels>
    <coverage>0.9589</coverage>
  </station>
  <station>
    <id>GHCND:US1VAFQ0002</id>
    <displayName>REMINGTON 0.9 E, VA US</displayName>
    <minDate>2005-11-21</minDate>
    <maxDate>2007-01-29</maxDate>
    <latitude>38.534</latitude>
    <longitude>-77.7924</longitude>
    <elevation>86</elevation>
    <locationLabels>
      <type>CNTRY</type>
      <id>FIPS:US</id>
      <displayName>United States</displayName>
    </locationLabels>
    <coverage>0.8437</coverage>
  </station>
  <station>
    <id>GHCND:USC00127267</id>
    <displayName>REMINGTON 2 NNW, IN US</displayName>
    <minDate>1992-07-01</minDate>
    <maxDate>2013-01-16</maxDate>
    <latitude>40.7942</latitude>
    <longitude>-87.1719</longitude>
    <elevation>214.9</elevation>
    <locationLabels>
      <type>CNTRY</type>
      <id>FIPS:US</id>
      <displayName>United States</displayName>
    </locationLabels>
    <coverage>0.9992</coverage>
  </station>
  <station>
    <id>GHCND:USC00447130</id>
    <displayName>REMINGTON 2, VA US</displayName>
    <minDate>2007-04-01</minDate>
    <maxDate>2013-01-01</maxDate>
    <latitude>38.5325</latitude>
    <longitude>-77.8167</longitude>
    <elevation>85.3</elevation>
    <locationLabels>
      <type>CNTRY</type>
      <id>FIPS:US</id>
      <displayName>United States</displayName>
    </locationLabels>
    <coverage>0.5511</coverage>
  </station>
  <station>
    <id>GHCND:US1VAFQ0004</id>
    <displayName>REMINGTON 4.0 ENE, VA US</displayName>
    <minDate>2005-11-15</minDate>
    <maxDate>2013-01-16</maxDate>
    <latitude>38.5616</latitude>
    <longitude>-77.7439</longitude>
    <elevation>96.9</elevation>
    <locationLabels>
      <type>CNTRY</type>
      <id>FIPS:US</id>
      <displayName>United States</displayName>
    </locationLabels>
    <coverage>0.9603</coverage>
  </station>
  <station>
    <id>GHCND:US1INJS0025</id>
    <displayName>REMINGTON 4.8 NE, IN US</displayName>
    <minDate>2007-04-24</minDate>
    <maxDate>2008-10-16</maxDate>
    <latitude>40.8208</latitude>
    <longitude>-87.0998</longitude>
    <elevation>213.1</elevation>
    <locationLabels>
      <type>CNTRY</type>
      <id>FIPS:US</id>
      <displayName>United States</displayName>
    </locationLabels>
    <coverage>0.6513</coverage>
  </station>
  <station>
    <id>GHCND:US1VAFQ0005</id>
    <displayName>REMINGTON 5.5 NNE, VA US</displayName>
    <minDate>2005-11-20</minDate>
    <maxDate>2012-12-20</maxDate>
    <latitude>38.6006</latitude>
    <longitude>-77.7523</longitude>
    <elevation>100</elevation>
    <locationLabels>
      <type>CNTRY</type>
      <id>FIPS:US</id>
      <displayName>United States</displayName>
    </locationLabels>
    <coverage>0.9274</coverage>
  </station>
  <station>
    <id>GHCND:US1VAFQ0010</id>
    <displayName>REMINGTON 7.8 ESE, VA US</displayName>
    <minDate>2006-08-10</minDate>
    <maxDate>2008-04-21</maxDate>
    <latitude>38.5057</latitude>
    <longitude>-77.6698</longitude>
    <elevation>118</elevation>
    <locationLabels>
      <type>CNTRY</type>
      <id>FIPS:US</id>
      <displayName>United States</displayName>
    </locationLabels>
    <coverage>0.2866</coverage>
  </station>
  <station>
    <id>GHCND:USC00447129</id>
    <displayName>REMINGTON, VA US</displayName>
    <minDate>1943-08-29</minDate>
    <maxDate>1948-09-30</maxDate>
    <latitude>38.53333</latitude>
    <longitude>-77.81667</longitude>
    <elevation>85</elevation>
    <locationLabels>
      <type>CNTRY</type>
      <id>FIPS:US</id>
      <displayName>United States</displayName>
    </locationLabels>
    <coverage>0.0984</coverage>
  </station>
  <station>
    <id>GHCND:USC00036102</id>
    <displayName>REMMEL DAM, AR US</displayName>
    <minDate>1948-06-01</minDate>
    <maxDate>1975-11-30</maxDate>
    <latitude>34.43333</latitude>
    <longitude>-92.9</longitude>
    <elevation>98.1</elevation>
    <locationLabels>
      <type>CNTRY</type>
      <id>FIPS:US</id>
      <displayName>United States</displayName>
    </locationLabels>
    <coverage>0.4549</coverage>
  </station>
  <station>
    <id>GHCND:USC00136976</id>
    <displayName>REMSEN NUMBER 2, IA US</displayName>
    <minDate>2010-06-01</minDate>
    <maxDate>2013-01-16</maxDate>
    <latitude>42.81028</latitude>
    <longitude>-95.975</longitude>
    <elevation>405.4</elevation>
    <locationLabels>
      <type>CNTRY</type>
      <id>FIPS:US</id>
      <displayName>United States</displayName>
    </locationLabels>
    <coverage>0.9938</coverage>
  </station>
  <station>
    <id>GHCND:USC00136975</id>
    <displayName>REMSEN, IA US</displayName>
    <minDate>1948-08-01</minDate>
    <maxDate>1951-09-30</maxDate>
    <latitude>42.8169</latitude>
    <longitude>-95.9711</longitude>
    <elevation>405.4</elevation>
    <locationLabels>
      <type>CNTRY</type>
      <id>FIPS:US</id>
      <displayName>United States</displayName>
    </locationLabels>
    <coverage>0.9784</coverage>
  </station>
  <station>
    <id>GHCND:USC00417550</id>
    <displayName>REMUDA, TX US</displayName>
    <minDate>2002-08-01</minDate>
    <maxDate>2011-12-10</maxDate>
    <latitude>32.81361</latitude>
    <longitude>-97.57556</longitude>
    <elevation>259.1</elevation>
    <locationLabels>
      <type>CNTRY</type>
      <id>FIPS:US</id>
      <displayName>United States</displayName>
    </locationLabels>
    <coverage>0.9909</coverage>
  </station>
  <station>
    <id>GHCND:USC00297380</id>
    <displayName>RENCONA, NM US</displayName>
    <minDate>1923-12-01</minDate>
    <maxDate>1962-08-31</maxDate>
    <latitude>35.28333</latitude>
    <longitude>-105.6</longitude>
    <elevation>2135.1</elevation>
    <locationLabels>
      <type>CNTRY</type>
      <id>FIPS:US</id>
      <displayName>United States</displayName>
    </locationLabels>
    <coverage>0.7543</coverage>
  </station>
  <station>
    <id>GHCND:USC00117187</id>
    <displayName>REND LAKE DAM, IL US</displayName>
    <minDate>1974-03-01</minDate>
    <maxDate>2012-11-30</maxDate>
    <latitude>38.0405</latitude>
    <longitude>-88.9883</longitude>
    <elevation>138.7</elevation>
    <locationLabels>
      <type>CNTRY</type>
      <id>FIPS:US</id>
      <displayName>United States</displayName>
    </locationLabels>
    <coverage>0.9024</coverage>
  </station>
  <station>
    <id>GHCND:USR0000NREN</id>
    <displayName>RENDEZVOUS MOUNTAIN NORTH CAROLINA, NC US</displayName>
    <minDate>2002-07-31</minDate>
    <maxDate>2012-08-31</maxDate>
    <latitude>36.2275</latitude>
    <longitude>-81.2975</longitude>
    <elevation>726.6</elevation>
    <locationLabels>
      <type>CNTRY</type>
      <id>FIPS:US</id>
      <displayName>United States</displayName>
    </locationLabels>
    <coverage>0.9311</coverage>
  </station>
  <station>
    <id>GHCND:USC00417552</id>
    <displayName>RENDHAM, TX US</displayName>
    <minDate>1943-11-01</minDate>
    <maxDate>1958-01-31</maxDate>
    <latitude>33.58333</latitude>
    <longitude>-99.15</longitude>
    <elevation>412.1</elevation>
    <locationLabels>
      <type>CNTRY</type>
      <id>FIPS:US</id>
      <displayName>United States</displayName>
    </locationLabels>
    <coverage>0.9024</coverage>
  </station>
  <station>
    <id>GHCND:US1TXTN0018</id>
    <displayName>RENDON 0.5 NNE, TX US</displayName>
    <minDate>2007-09-05</minDate>
    <maxDate>2012-12-26</maxDate>
    <latitude>32.5876</latitude>
    <longitude>-97.2337</longitude>
    <elevation>231</elevation>
    <locationLabels>
      <type>CNTRY</type>
      <id>FIPS:US</id>
      <displayName>United States</displayName>
    </locationLabels>
    <coverage>0.0799</coverage>
  </station>
  <station>
    <id>GHCND:USR0000AREN</id>
    <displayName>RENEE ALASKA, AK US</displayName>
    <minDate>1999-06-07</minDate>
    <maxDate>2012-08-30</maxDate>
    <latitude>62.71</latitude>
    <longitude>-146.6181</longitude>
    <elevation>792.5</elevation>
    <locationLabels>
      <type>CNTRY</type>
      <id>FIPS:US</id>
      <displayName>United States</displayName>
    </locationLabels>
    <coverage>0.7069</coverage>
  </station>
  <station>
    <id>GHCND:USC00156748</id>
    <displayName>RENFRO VALLEY, KY US</displayName>
    <minDate>1961-10-01</minDate>
    <maxDate>1962-09-28</maxDate>
    <latitude>37.38333</latitude>
    <longitude>-84.33333</longitude>
    <elevation>323.1</elevation>
    <locationLabels>
      <type>CNTRY</type>
      <id>FIPS:US</id>
      <displayName>United States</displayName>
    </locationLabels>
    <coverage>0.8044</coverage>
  </station>
  <station>
    <id>GHCND:USC00347556</id>
    <displayName>RENFROW, OK US</displayName>
    <minDate>1941-09-01</minDate>
    <maxDate>1991-03-31</maxDate>
    <latitude>36.92639</latitude>
    <longitude>-97.63139</longitude>
    <elevation>370.3</elevation>
    <locationLabels>
      <type>CNTRY</type>
      <id>FIPS:US</id>
      <displayName>United States</displayName>
    </locationLabels>
    <coverage>0.8983</coverage>
  </station>
  <station>
    <id>GHCND:USC00467444</id>
    <displayName>RENICK 2 S, WV US</displayName>
    <minDate>1948-08-01</minDate>
    <maxDate>1967-07-31</maxDate>
    <latitude>37.96667</latitude>
    <longitude>-80.35</longitude>
    <elevation>580</elevation>
    <locationLabels>
      <type>CNTRY</type>
      <id>FIPS:US</id>
      <displayName>United States</displayName>
    </locationLabels>
    <coverage>0.9867</coverage>
  </station>
  <station>
    <id>GHCND:USC00467449</id>
    <displayName>RENICK 2, WV US</displayName>
    <minDate>1967-08-01</minDate>
    <maxDate>1984-04-30</maxDate>
    <latitude>38</latitude>
    <longitude>-80.36667</longitude>
    <elevation>655.9</elevation>
    <locationLabels>
      <type>CNTRY</type>
      <id>FIPS:US</id>
      <displayName>United States</displayName>
    </locationLabels>
    <coverage>0.9477</coverage>
  </station>
  <station>
    <id>GHCND:USC00467455</id>
    <displayName>RENICK 3, WV US</displayName>
    <minDate>1985-03-01</minDate>
    <maxDate>2012-03-31</maxDate>
    <latitude>37.9914</latitude>
    <longitude>-80.3644</longitude>
    <elevation>634</elevation>
    <locationLabels>
      <type>CNTRY</type>
      <id>FIPS:US</id>
      <displayName>United States</displayName>
    </locationLabels>
    <coverage>0.9727</coverage>
  </station>
  <station>
    <id>GHCND:US1NVWH0071</id>
    <displayName>RENO 0.3 NNW, NV US</displayName>
    <minDate>2008-01-01</minDate>
    <maxDate>2011-02-25</maxDate>
    <latitude>39.5433</latitude>
    <longitude>-119.8251</longitude>
    <elevation>1419.1</elevation>
    <locationLabels>
      <type>CNTRY</type>
      <id>FIPS:US</id>
      <displayName>United States</displayName>
    </locationLabels>
    <coverage>0.8038</coverage>
  </station>
  <station>
    <id>GHCND:US1NVWH0107</id>
    <displayName>RENO 1.1 WNW, NV US</displayName>
    <minDate>2011-02-26</minDate>
    <maxDate>2013-01-13</maxDate>
    <latitude>39.5424</latitude>
    <longitude>-119.8433</longitude>
    <elevation>1454.8</elevation>
    <locationLabels>
      <type>CNTRY</type>
      <id>FIPS:US</id>
      <displayName>United States</displayName>
    </locationLabels>
    <coverage>0.8474</coverage>
  </station>
  <station>
    <id>GHCND:US1NVWH0002</id>
    <displayName>RENO 1.4 NNE, NV US</displayName>
    <minDate>2007-03-01</minDate>
    <maxDate>2013-01-16</maxDate>
    <latitude>39.5573</latitude>
    <longitude>-119.8144</longitude>
    <elevation>1494.1</elevation>
    <locationLabels>
      <type>CNTRY</type>
      <id>FIPS:US</id>
      <displayName>United States</displayName>
    </locationLabels>
    <coverage>0.9981</coverage>
  </station>
  <station>
    <id>GHCND:US1NVWH0091</id>
    <displayName>RENO 1.8 SSW, NV US</displayName>
    <minDate>2008-11-27</minDate>
    <maxDate>2012-12-05</maxDate>
    <latitude>39.5169</latitude>
    <longitude>-119.8406</longitude>
    <elevation>1385.6</elevation>
    <locationLabels>
      <type>CNTRY</type>
      <id>FIPS:US</id>
      <displayName>United States</displayName>
    </locationLabels>
    <coverage>0.0939</coverage>
  </station>
  <station>
    <id>GHCND:US1NVWH0003</id>
    <displayName>RENO 10.0 S, NV US</displayName>
    <minDate>2007-03-01</minDate>
    <maxDate>2012-12-31</maxDate>
    <latitude>39.3954</latitude>
    <longitude>-119.79</longitude>
    <elevation>1554.5</elevation>
    <locationLabels>
      <type>CNTRY</type>
      <id>FIPS:US</id>
      <displayName>United States</displayName>
    </locationLabels>
    <coverage>0.993</coverage>
  </station>
  <station>
    <id>GHCND:US1NVWH0096</id>
    <displayName>RENO 10.3 SSE, NV US</displayName>
    <minDate>2010-02-01</minDate>
    <maxDate>2013-01-16</maxDate>
    <latitude>39.4069</latitude>
    <longitude>-119.7313</longitude>
    <elevation>1385.3</elevation>
    <locationLabels>
      <type>CNTRY</type>
      <id>FIPS:US</id>
      <displayName>United States</displayName>
    </locationLabels>
    <coverage>0.9167</coverage>
  </station>
  <station>
    <id>GHCND:US1NVWH0018</id>
    <displayName>RENO 11.6 SSE, NV US</displayName>
    <minDate>2007-04-08</minDate>
    <maxDate>2012-12-23</maxDate>
    <latitude>39.387</latitude>
    <longitude>-119.729</longitude>
    <elevation>1428</elevation>
    <locationLabels>
      <type>CNTRY</type>
      <id>FIPS:US</id>
      <displayName>United States</displayName>
    </locationLabels>
    <coverage>0.6608</coverage>
  </station>
  <station>
    <id>GHCND:US1NVWH0103</id>
    <displayName>RENO 11.6 SSE, NV US</displayName>
    <minDate>2010-12-18</minDate>
    <maxDate>2013-01-16</maxDate>
    <latitude>39.3868</latitude>
    <longitude>-119.7291</longitude>
    <elevation>1428</elevation>
    <locationLabels>
      <type>CNTRY</type>
      <id>FIPS:US</id>
      <displayName>United States</displayName>
    </locationLabels>
    <coverage>0.6032</coverage>
  </station>
  <station>
    <id>GHCND:US1NVWH0015</id>
    <displayName>RENO 11.7 NW, NV US</displayName>
    <minDate>2007-03-14</minDate>
    <maxDate>2011-06-06</maxDate>
    <latitude>39.6703</latitude>
    <longitude>-119.9624</longitude>
    <elevation>1540.5</elevation>
    <locationLabels>
      <type>CNTRY</type>
      <id>FIPS:US</id>
      <displayName>United States</displayName>
    </locationLabels>
    <coverage>0.4715</coverage>
  </station>
  <station>
    <id>GHCND:US1NVWH0013</id>
    <displayName>RENO 13.2 NW, NV US</displayName>
    <minDate>2007-05-27</minDate>
    <maxDate>2008-12-17</maxDate>
    <latitude>39.6898</latitude>
    <longitude>-119.9751</longitude>
    <elevation>1545.9</elevation>
    <locationLabels>
      <type>CNTRY</type>
      <id>FIPS:US</id>
      <displayName>United States</displayName>
    </locationLabels>
    <coverage>0.2767</coverage>
  </station>
  <station>
    <id>GHCND:US1NVWH0045</id>
    <displayName>RENO 15.8 NNW, NV US</displayName>
    <minDate>2007-04-30</minDate>
    <maxDate>2009-03-02</maxDate>
    <latitude>39.7626</latitude>
    <longitude>-119.8808</longitude>
    <elevation>1729.1</elevation>
    <locationLabels>
      <type>CNTRY</type>
      <id>FIPS:US</id>
      <displayName>United States</displayName>
    </locationLabels>
    <coverage>0.3195</coverage>
  </station>
  <station>
    <id>GHCND:US1NVWH0006</id>
    <displayName>RENO 16.1 N, NV US</displayName>
    <minDate>2007-03-01</minDate>
    <maxDate>2008-10-21</maxDate>
    <latitude>39.7701</latitude>
    <longitude>-119.7932</longitude>
    <elevation>1653.8</elevation>
    <locationLabels>
      <type>CNTRY</type>
      <id>FIPS:US</id>
      <displayName>United States</displayName>
    </locationLabels>
    <coverage>0.9584</coverage>
  </station>
  <station>
    <id>GHCND:US1NVWH0007</id>
    <displayName>RENO 16.3 N, NV US</displayName>
    <minDate>2007-03-01</minDate>
    <maxDate>2007-10-14</maxDate>
    <latitude>39.7753</latitude>
    <longitude>-119.8169</longitude>
    <elevation>1577.3</elevation>
    <locationLabels>
      <type>CNTRY</type>
      <id>FIPS:US</id>
      <displayName>United States</displayName>
    </locationLabels>
    <coverage>0.943</coverage>
  </station>
  <station>
    <id>GHCND:US1NVWH0079</id>
    <displayName>RENO 17.8 NNW, NV US</displayName>
    <minDate>2007-12-21</minDate>
    <maxDate>2012-12-30</maxDate>
    <latitude>39.7903</latitude>
    <longitude>-119.8947</longitude>
    <elevation>1760.2</elevation>
    <locationLabels>
      <type>CNTRY</type>
      <id>FIPS:US</id>
      <displayName>United States</displayName>
    </locationLabels>
    <coverage>0.9766</coverage>
  </station>
  <station>
    <id>GHCND:US1NVWH0014</id>
    <displayName>RENO 2.1 W, NV US</displayName>
    <minDate>2007-03-19</minDate>
    <maxDate>2008-03-27</maxDate>
    <latitude>39.542</latitude>
    <longitude>-119.8608</longitude>
    <elevation>1522.5</elevation>
    <locationLabels>
      <type>CNTRY</type>
      <id>FIPS:US</id>
      <displayName>United States</displayName>
    </locationLabels>
    <coverage>0.9253</coverage>
  </station>
  <station>
    <id>GHCND:US1NVWH0001</id>
    <displayName>RENO 2.1 W, NV US</displayName>
    <minDate>2007-03-01</minDate>
    <maxDate>2011-10-24</maxDate>
    <latitude>39.5423</latitude>
    <longitude>-119.8623</longitude>
    <elevation>1524.3</elevation>
    <locationLabels>
      <type>CNTRY</type>
      <id>FIPS:US</id>
      <displayName>United States</displayName>
    </locationLabels>
    <coverage>0.5756</coverage>
  </station>
  <station>
    <id>GHCND:US1NVWH0109</id>
    <displayName>RENO 2.2 SSW, NV US</displayName>
    <minDate>2011-09-25</minDate>
    <maxDate>2013-01-16</maxDate>
    <latitude>39.5114</latitude>
    <longitude>-119.8454</longitude>
    <elevation>1392.3</elevation>
    <locationLabels>
      <type>CNTRY</type>
      <id>FIPS:US</id>
      <displayName>United States</displayName>
    </locationLabels>
    <coverage>0.9146</coverage>
  </station>
  <station>
    <id>GHCND:US1NVWH0011</id>
    <displayName>RENO 2.4 SSW, NV US</displayName>
    <minDate>2007-03-02</minDate>
    <maxDate>2013-01-16</maxDate>
    <latitude>39.5084</latitude>
    <longitude>-119.8442</longitude>
    <elevation>1393.9</elevation>
    <locationLabels>
      <type>CNTRY</type>
      <id>FIPS:US</id>
      <displayName>United States</displayName>
    </locationLabels>
    <coverage>0.9967</coverage>
  </station>
  <station>
    <id>GHCND:US1NVWH0093</id>
    <displayName>RENO 2.5 NNE, NV US</displayName>
    <minDate>2009-01-01</minDate>
    <maxDate>2012-12-28</maxDate>
    <latitude>39.5713</latitude>
    <longitude>-119.8001</longitude>
    <elevation>1524.9</elevation>
    <locationLabels>
      <type>CNTRY</type>
      <id>FIPS:US</id>
      <displayName>United States</displayName>
    </locationLabels>
    <coverage>0.9753</coverage>
  </station>
  <station>
    <id>GHCND:US1NVWH0062</id>
    <displayName>RENO 2.7 WSW, NV US</displayName>
    <minDate>2008-01-01</minDate>
    <maxDate>2012-12-27</maxDate>
    <latitude>39.5308</latitude>
    <longitude>-119.872</longitude>
    <elevation>1515.5</elevation>
    <locationLabels>
      <type>CNTRY</type>
      <id>FIPS:US</id>
      <displayName>United States</displayName>
    </locationLabels>
    <coverage>0.8053</coverage>
  </station>
  <station>
    <id>GHCND:US1NVWH0100</id>
    <displayName>RENO 22.2 NNE, NV US</displayName>
    <minDate>2010-10-28</minDate>
    <maxDate>2013-01-16</maxDate>
    <latitude>39.8294</latitude>
    <longitude>-119.6445</longitude>
    <elevation>1306.7</elevation>
    <locationLabels>
      <type>CNTRY</type>
      <id>FIPS:US</id>
      <displayName>United States</displayName>
    </locationLabels>
    <coverage>0.9323</coverage>
  </station>
  <station>
    <id>GHCND:US1NVWH0099</id>
    <displayName>RENO 26.1 NNW, NV US</displayName>
    <minDate>2010-10-01</minDate>
    <maxDate>2013-01-16</maxDate>
    <latitude>39.8986</latitude>
    <longitude>-119.97</longitude>
    <elevation>1418.5</elevation>
    <locationLabels>
      <type>CNTRY</type>
      <id>FIPS:US</id>
      <displayName>United States</displayName>
    </locationLabels>
    <coverage>0.8558</coverage>
  </station>
  <station>
    <id>GHCND:US1NVWH0092</id>
    <displayName>RENO 3.3 SSW, NV US</displayName>
    <minDate>2009-01-21</minDate>
    <maxDate>2010-08-09</maxDate>
    <latitude>39.499</latitude>
    <longitude>-119.8559</longitude>
    <elevation>1444.1</elevation>
    <locationLabels>
      <type>CNTRY</type>
      <id>FIPS:US</id>
      <displayName>United States</displayName>
    </locationLabels>
    <coverage>0.6095</coverage>
  </station>
  <station>
    <id>GHCND:US1NVWH0088</id>
    <displayName>RENO 3.3 WSW, NV US</displayName>
    <minDate>2008-05-29</minDate>
    <maxDate>2009-12-11</maxDate>
    <latitude>39.5284</latitude>
    <longitude>-119.8825</longitude>
    <elevation>1505.7</elevation>
    <locationLabels>
      <type>CNTRY</type>
      <id>FIPS:US</id>
      <displayName>United States</displayName>
    </locationLabels>
    <coverage>0.3683</coverage>
  </station>
  <station>
    <id>GHCND:US1NVWH0067</id>
    <displayName>RENO 3.4 W, NV US</displayName>
    <minDate>2008-01-26</minDate>
    <maxDate>2012-12-30</maxDate>
    <latitude>39.531</latitude>
    <longitude>-119.885</longitude>
    <elevation>1501.7</elevation>
    <locationLabels>
      <type>CNTRY</type>
      <id>FIPS:US</id>
      <displayName>United States</displayName>
    </locationLabels>
    <coverage>0.2599</coverage>
  </station>
  <station>
    <id>GHCND:US1NVWH0075</id>
    <displayName>RENO 3.5 W, NV US</displayName>
    <minDate>2008-01-03</minDate>
    <maxDate>2009-05-05</maxDate>
    <latitude>39.5336</latitude>
    <longitude>-119.8876</longitude>
    <elevation>1521.9</elevation>
    <locationLabels>
      <type>CNTRY</type>
      <id>FIPS:US</id>
      <displayName>United States</displayName>
    </locationLabels>
    <coverage>0.7873</coverage>
  </station>
  <station>
    <id>GHCND:US1NVWH0025</id>
    <displayName>RENO 3.9 W, NV US</displayName>
    <minDate>1998-06-17</minDate>
    <maxDate>2013-01-16</maxDate>
    <latitude>39.542</latitude>
    <longitude>-119.8958</longitude>
    <elevation>1570</elevation>
    <locationLabels>
      <type>CNTRY</type>
      <id>FIPS:US</id>
      <displayName>United States</displayName>
    </locationLabels>
    <coverage>0.3617</coverage>
  </station>
  <station>
    <id>GHCND:US1NVWH0057</id>
    <displayName>RENO 4.0 N, NV US</displayName>
    <minDate>2007-10-19</minDate>
    <maxDate>2013-01-16</maxDate>
    <latitude>39.5961</latitude>
    <longitude>-119.81</longitude>
    <elevation>1572.2</elevation>
    <locationLabels>
      <type>CNTRY</type>
      <id>FIPS:US</id>
      <displayName>United States</displayName>
    </locationLabels>
    <coverage>0.9812</coverage>
  </station>
  <station>
    <id>GHCND:US1NVWH0035</id>
    <displayName>RENO 4.5 S, NV US</displayName>
    <minDate>2007-04-26</minDate>
    <maxDate>2013-01-16</maxDate>
    <latitude>39.4736</latitude>
    <longitude>-119.8286</longitude>
    <elevation>1486.8</elevation>
    <locationLabels>
      <type>CNTRY</type>
      <id>FIPS:US</id>
      <displayName>United States</displayName>
    </locationLabels>
    <coverage>0.9216</coverage>
  </station>
  <station>
    <id>GHCND:US1NVWH0097</id>
    <displayName>RENO 5.2 W, NV US</displayName>
    <minDate>2010-06-15</minDate>
    <maxDate>2010-11-21</maxDate>
    <latitude>39.531</latitude>
    <longitude>-119.911</longitude>
    <elevation>1536.8</elevation>
    <locationLabels>
      <type>CNTRY</type>
      <id>FIPS:US</id>
      <displayName>United States</displayName>
    </locationLabels>
    <coverage>0.8813</coverage>
  </station>
  <station>
    <id>GHCND:US1NVWH0074</id>
    <displayName>RENO 5.6 WSW, NV US</displayName>
    <minDate>2008-01-14</minDate>
    <maxDate>2013-01-16</maxDate>
    <latitude>39.519</latitude>
    <longitude>-119.9253</longitude>
    <elevation>1438</elevation>
    <locationLabels>
      <type>CNTRY</type>
      <id>FIPS:US</id>
      <displayName>United States</displayName>
    </locationLabels>
    <coverage>0.2339</coverage>
  </station>
  <station>
    <id>GHCND:US1NVWH0089</id>
    <displayName>RENO 7.1 N, NV US</displayName>
    <minDate>2008-10-22</minDate>
    <maxDate>2013-01-16</maxDate>
    <latitude>39.6418</latitude>
    <longitude>-119.8299</longitude>
    <elevation>1523.1</elevation>
    <locationLabels>
      <type>CNTRY</type>
      <id>FIPS:US</id>
      <displayName>United States</displayName>
    </locationLabels>
    <coverage>0.9121</coverage>
  </station>
  <station>
    <id>GHCND:US1NVWH0078</id>
    <displayName>RENO 7.1 SE, NV US</displayName>
    <minDate>2007-12-28</minDate>
    <maxDate>2013-01-16</maxDate>
    <latitude>39.4767</latitude>
    <longitude>-119.716</longitude>
    <elevation>1394.2</elevation>
    <locationLabels>
      <type>CNTRY</type>
      <id>FIPS:US</id>
      <displayName>United States</displayName>
    </locationLabels>
    <coverage>0.8305</coverage>
  </station>
  <station>
    <id>GHCND:US1NVWH0059</id>
    <displayName>RENO 8.0 S, NV US</displayName>
    <minDate>2007-06-29</minDate>
    <maxDate>2013-01-14</maxDate>
    <latitude>39.4242</latitude>
    <longitude>-119.8</longitude>
    <elevation>1478</elevation>
    <locationLabels>
      <type>CNTRY</type>
      <id>FIPS:US</id>
      <displayName>United States</displayName>
    </locationLabels>
    <coverage>0.8303</coverage>
  </station>
  <station>
    <id>GHCND:US1NVWH0039</id>
    <displayName>RENO 8.4 SSE, NV US</displayName>
    <minDate>2007-05-04</minDate>
    <maxDate>2012-12-17</maxDate>
    <latitude>39.4214</latitude>
    <longitude>-119.7819</longitude>
    <elevation>1449</elevation>
    <locationLabels>
      <type>CNTRY</type>
      <id>FIPS:US</id>
      <displayName>United States</displayName>
    </locationLabels>
    <coverage>0.0657</coverage>
  </station>
  <station>
    <id>GHCND:US1NVWH0070</id>
    <displayName>RENO 8.5 SSE, NV US</displayName>
    <minDate>2008-01-27</minDate>
    <maxDate>2012-01-18</maxDate>
    <latitude>39.4219</latitude>
    <longitude>-119.772</longitude>
    <elevation>1412.4</elevation>
    <locationLabels>
      <type>CNTRY</type>
      <id>FIPS:US</id>
      <displayName>United States</displayName>
    </locationLabels>
    <coverage>0.4116</coverage>
  </station>
  <station>
    <id>GHCND:US1NVWH0022</id>
    <displayName>RENO 8.6 SSE, NV US</displayName>
    <minDate>2007-04-10</minDate>
    <maxDate>2008-02-03</maxDate>
    <latitude>39.4313</latitude>
    <longitude>-119.7425</longitude>
    <elevation>1361.8</elevation>
    <locationLabels>
      <type>CNTRY</type>
      <id>FIPS:US</id>
      <displayName>United States</displayName>
    </locationLabels>
    <coverage>0.8967</coverage>
  </station>
  <station>
    <id>GHCND:US1NVWH0019</id>
    <displayName>RENO 9.0 W, NV US</displayName>
    <minDate>2007-03-30</minDate>
    <maxDate>2013-01-07</maxDate>
    <latitude>39.5184</latitude>
    <longitude>-119.9935</longitude>
    <elevation>1493.5</elevation>
    <locationLabels>
      <type>CNTRY</type>
      <id>FIPS:US</id>
      <displayName>United States</displayName>
    </locationLabels>
    <coverage>0.9867</coverage>
  </station>
  <station>
    <id>GHCND:US1NVWH0086</id>
    <displayName>RENO 9.1 N, NV US</displayName>
    <minDate>2008-02-17</minDate>
    <maxDate>2013-01-15</maxDate>
    <latitude>39.6699</latitude>
    <longitude>-119.8155</longitude>
    <elevation>1506.6</elevation>
    <locationLabels>
      <type>CNTRY</type>
      <id>FIPS:US</id>
      <displayName>United States</displayName>
    </locationLabels>
    <coverage>0.9811</coverage>
  </station>
  <station>
    <id>GHCND:US1NVWH0047</id>
    <displayName>RENO 9.7 SE, NV US</displayName>
    <minDate>2007-10-28</minDate>
    <maxDate>2012-12-30</maxDate>
    <latitude>39.4237</latitude>
    <longitude>-119.7188</longitude>
    <elevation>1362.2</elevation>
    <locationLabels>
      <type>CNTRY</type>
      <id>FIPS:US</id>
      <displayName>United States</displayName>
    </locationLabels>
    <coverage>0.3485</coverage>
  </station>
  <station>
    <id>GHCND:USS0006G02S</id>
    <displayName>RENO HILL, WY US</displayName>
    <minDate>1982-10-01</minDate>
    <maxDate>2013-01-13</maxDate>
    <latitude>42.5667</latitude>
    <longitude>-106.0833</longitude>
    <elevation>2590.8</elevation>
    <locationLabels>
      <type>CNTRY</type>
      <id>FIPS:US</id>
      <displayName>United States</displayName>
    </locationLabels>
    <coverage>0.928</coverage>
  </station>
  <station>
    <id>GHCND:USW00023185</id>
    <displayName>RENO TAHOE INTERNATIONAL AIRPORT, NV US</displayName>
    <minDate>1937-03-01</minDate>
    <maxDate>2013-01-15</maxDate>
    <latitude>39.4838</latitude>
    <longitude>-119.7711</longitude>
    <elevation>1344.2</elevation>
    <locationLabels>
      <type>CNTRY</type>
      <id>FIPS:US</id>
      <displayName>United States</displayName>
    </locationLabels>
    <coverage>0.9998</coverage>
  </station>
  <station>
    <id>GHCND:USC00266782</id>
    <displayName>RENO WEATHER BUREAU OFFICE, NV US</displayName>
    <minDate>1893-01-01</minDate>
    <maxDate>1921-08-31</maxDate>
    <latitude>39.53333</latitude>
    <longitude>-119.81667</longitude>
    <elevation>1369.5</elevation>
    <locationLabels>
      <type>CNTRY</type>
      <id>FIPS:US</id>
      <displayName>United States</displayName>
    </locationLabels>
    <coverage>0.8188</coverage>
  </station>
  <station>
    <id>GHCND:USC00266791</id>
    <displayName>RENO WEATHER FORECAST OFFICE, NV US</displayName>
    <minDate>1996-05-01</minDate>
    <maxDate>2013-01-15</maxDate>
    <latitude>39.5683</latitude>
    <longitude>-119.7956</longitude>
    <elevation>1520</elevation>
    <locationLabels>
      <type>CNTRY</type>
      <id>FIPS:US</id>
      <displayName>United States</displayName>
    </locationLabels>
    <coverage>0.9984</coverage>
  </station>
  <station>
    <id>GHCND:USC00417556</id>
    <displayName>RENO, TX US</displayName>
    <minDate>1948-06-01</minDate>
    <maxDate>1951-09-30</maxDate>
    <latitude>32.95361</latitude>
    <longitude>-97.57389</longitude>
    <elevation>234.7</elevation>
    <locationLabels>
      <type>CNTRY</type>
      <id>FIPS:US</id>
      <displayName>United States</displayName>
    </locationLabels>
    <coverage>0.9844</coverage>
  </station>
  <station>
    <id>GHCND:USC00487683</id>
    <displayName>RENO, WY US</displayName>
    <minDate>1963-05-01</minDate>
    <maxDate>1983-11-30</maxDate>
    <latitude>43.68333</latitude>
    <longitude>-105.51667</longitude>
    <elevation>1548.7</elevation>
    <locationLabels>
      <type>CNTRY</type>
      <id>FIPS:US</id>
      <displayName>United States</displayName>
    </locationLabels>
    <coverage>0.8133</coverage>
  </station>
  <station>
    <id>GHCND:USC00246964</id>
    <displayName>RENOVA, MT US</displayName>
    <minDate>1898-01-01</minDate>
    <maxDate>1932-12-31</maxDate>
    <latitude>45.816667</latitude>
    <longitude>-112.15</longitude>
    <elevation>1335.9</elevation>
    <locationLabels>
      <type>CNTRY</type>
      <id>FIPS:US</id>
      <displayName>United States</displayName>
    </locationLabels>
    <coverage>0.9686</coverage>
  </station>
  <station>
    <id>GHCND:USC00367411</id>
    <displayName>RENOVO 3 NNE, PA US</displayName>
    <minDate>1972-11-01</minDate>
    <maxDate>1973-05-31</maxDate>
    <latitude>41.36667</latitude>
    <longitude>-77.73333</longitude>
    <elevation>499.9</elevation>
    <locationLabels>
      <type>CNTRY</type>
      <id>FIPS:US</id>
      <displayName>United States</displayName>
    </locationLabels>
    <coverage>0.7642</coverage>
  </station>
</stationCollection>
