<?xml version="1.0" encoding="UTF-8" standalone="yes"?>
<stationCollection totalCount="46020" pageCount="461" pageSize="100" page="143">
  <station>
    <id>GHCND:US1COKC0081</id>
    <displayName>FLAGLER 7.2 SSW, CO US</displayName>
    <minDate>2003-05-30</minDate>
    <maxDate>2012-10-07</maxDate>
    <latitude>39.1948</latitude>
    <longitude>-103.118</longitude>
    <elevation>1503</elevation>
    <locationLabels>
      <type>CNTRY</type>
      <id>FIPS:US</id>
      <displayName>United States</displayName>
    </locationLabels>
    <coverage>0.1509</coverage>
  </station>
  <station>
    <id>GHCND:USC00343169</id>
    <displayName>FLAGPOLE TOWER, OK US</displayName>
    <minDate>1987-06-01</minDate>
    <maxDate>1992-06-30</maxDate>
    <latitude>34.6</latitude>
    <longitude>-95.41667</longitude>
    <elevation>542.5</elevation>
    <locationLabels>
      <type>CNTRY</type>
      <id>FIPS:US</id>
      <displayName>United States</displayName>
    </locationLabels>
    <coverage>0.6037</coverage>
  </station>
  <station>
    <id>GHCND:US1AZCN0028</id>
    <displayName>FLAGSTAFF 1.3 NNE, AZ US</displayName>
    <minDate>2011-07-01</minDate>
    <maxDate>2012-10-13</maxDate>
    <latitude>35.206</latitude>
    <longitude>-111.638</longitude>
    <elevation>2119.6</elevation>
    <locationLabels>
      <type>CNTRY</type>
      <id>FIPS:US</id>
      <displayName>United States</displayName>
    </locationLabels>
    <coverage>0.4013</coverage>
  </station>
  <station>
    <id>GHCND:US1AZCN0007</id>
    <displayName>FLAGSTAFF 1.4 W, AZ US</displayName>
    <minDate>2009-11-01</minDate>
    <maxDate>2013-01-16</maxDate>
    <latitude>35.1904</latitude>
    <longitude>-111.6742</longitude>
    <elevation>2120.8</elevation>
    <locationLabels>
      <type>CNTRY</type>
      <id>FIPS:US</id>
      <displayName>United States</displayName>
    </locationLabels>
    <coverage>0.786</coverage>
  </station>
  <station>
    <id>GHCND:US1AZCN0013</id>
    <displayName>FLAGSTAFF 10.4 NE, AZ US</displayName>
    <minDate>2009-09-21</minDate>
    <maxDate>2010-01-16</maxDate>
    <latitude>35.277</latitude>
    <longitude>-111.499</longitude>
    <elevation>1997</elevation>
    <locationLabels>
      <type>CNTRY</type>
      <id>FIPS:US</id>
      <displayName>United States</displayName>
    </locationLabels>
    <coverage>0.9407</coverage>
  </station>
  <station>
    <id>GHCND:US1AZCN0012</id>
    <displayName>FLAGSTAFF 2.4 SSW, AZ US</displayName>
    <minDate>2009-09-24</minDate>
    <maxDate>2011-01-29</maxDate>
    <latitude>35.159</latitude>
    <longitude>-111.6686</longitude>
    <elevation>2120.2</elevation>
    <locationLabels>
      <type>CNTRY</type>
      <id>FIPS:US</id>
      <displayName>United States</displayName>
    </locationLabels>
    <coverage>0.8499</coverage>
  </station>
  <station>
    <id>GHCND:US1AZCN0026</id>
    <displayName>FLAGSTAFF 3.1 NE, AZ US</displayName>
    <minDate>2011-06-01</minDate>
    <maxDate>2012-12-13</maxDate>
    <latitude>35.2207</latitude>
    <longitude>-111.6088</longitude>
    <elevation>2114.7</elevation>
    <locationLabels>
      <type>CNTRY</type>
      <id>FIPS:US</id>
      <displayName>United States</displayName>
    </locationLabels>
    <coverage>0.6619</coverage>
  </station>
  <station>
    <id>GHCND:US1AZCN0022</id>
    <displayName>FLAGSTAFF 3.1 NNW, AZ US</displayName>
    <minDate>2009-12-01</minDate>
    <maxDate>2013-01-16</maxDate>
    <latitude>35.2306</latitude>
    <longitude>-111.6731</longitude>
    <elevation>2175.1</elevation>
    <locationLabels>
      <type>CNTRY</type>
      <id>FIPS:US</id>
      <displayName>United States</displayName>
    </locationLabels>
    <coverage>0.8346</coverage>
  </station>
  <station>
    <id>GHCND:US1AZCN0006</id>
    <displayName>FLAGSTAFF 3.2 NNW, AZ US</displayName>
    <minDate>2009-10-04</minDate>
    <maxDate>2013-01-11</maxDate>
    <latitude>35.233</latitude>
    <longitude>-111.6687</longitude>
    <elevation>2160.4</elevation>
    <locationLabels>
      <type>CNTRY</type>
      <id>FIPS:US</id>
      <displayName>United States</displayName>
    </locationLabels>
    <coverage>0.3478</coverage>
  </station>
  <station>
    <id>GHCND:US1AZCN0014</id>
    <displayName>FLAGSTAFF 3.4 NE, AZ US</displayName>
    <minDate>2009-09-26</minDate>
    <maxDate>2012-12-31</maxDate>
    <latitude>35.2191</latitude>
    <longitude>-111.6013</longitude>
    <elevation>2124.5</elevation>
    <locationLabels>
      <type>CNTRY</type>
      <id>FIPS:US</id>
      <displayName>United States</displayName>
    </locationLabels>
    <coverage>0.8265</coverage>
  </station>
  <station>
    <id>GHCND:US1AZCN0019</id>
    <displayName>FLAGSTAFF 3.5 E, AZ US</displayName>
    <minDate>2009-02-13</minDate>
    <maxDate>2013-01-16</maxDate>
    <latitude>35.1926</latitude>
    <longitude>-111.5874</longitude>
    <elevation>2097</elevation>
    <locationLabels>
      <type>CNTRY</type>
      <id>FIPS:US</id>
      <displayName>United States</displayName>
    </locationLabels>
    <coverage>0.7266</coverage>
  </station>
  <station>
    <id>GHCND:USC00023009</id>
    <displayName>FLAGSTAFF 4 SW, AZ US</displayName>
    <minDate>1984-05-01</minDate>
    <maxDate>2013-01-13</maxDate>
    <latitude>35.1611</latitude>
    <longitude>-111.7311</longitude>
    <elevation>2171.7</elevation>
    <locationLabels>
      <type>CNTRY</type>
      <id>FIPS:US</id>
      <displayName>United States</displayName>
    </locationLabels>
    <coverage>0.9762</coverage>
  </station>
  <station>
    <id>GHCND:US1AZCN0021</id>
    <displayName>FLAGSTAFF 6.8 NW, AZ US</displayName>
    <minDate>2009-10-22</minDate>
    <maxDate>2013-01-16</maxDate>
    <latitude>35.256</latitude>
    <longitude>-111.7404</longitude>
    <elevation>2231.1</elevation>
    <locationLabels>
      <type>CNTRY</type>
      <id>FIPS:US</id>
      <displayName>United States</displayName>
    </locationLabels>
    <coverage>0.9467</coverage>
  </station>
  <station>
    <id>GHCND:US1AZCN0002</id>
    <displayName>FLAGSTAFF 7.8 SSW, AZ US</displayName>
    <minDate>2009-09-01</minDate>
    <maxDate>2013-01-15</maxDate>
    <latitude>35.0938</latitude>
    <longitude>-111.6954</longitude>
    <elevation>2078.7</elevation>
    <locationLabels>
      <type>CNTRY</type>
      <id>FIPS:US</id>
      <displayName>United States</displayName>
    </locationLabels>
    <coverage>0.9919</coverage>
  </station>
  <station>
    <id>GHCND:US1AZCN0027</id>
    <displayName>FLAGSTAFF 8.2 NE, AZ US</displayName>
    <minDate>2011-07-01</minDate>
    <maxDate>2013-01-11</maxDate>
    <latitude>35.2617</latitude>
    <longitude>-111.5343</longitude>
    <elevation>2018.7</elevation>
    <locationLabels>
      <type>CNTRY</type>
      <id>FIPS:US</id>
      <displayName>United States</displayName>
    </locationLabels>
    <coverage>0.9804</coverage>
  </station>
  <station>
    <id>GHCND:USC00023011</id>
    <displayName>FLAGSTAFF A, AZ US</displayName>
    <minDate>1907-07-01</minDate>
    <maxDate>1911-08-31</maxDate>
    <latitude>35.2</latitude>
    <longitude>-111.6</longitude>
    <locationLabels>
      <type>CNTRY</type>
      <id>FIPS:US</id>
      <displayName>United States</displayName>
    </locationLabels>
    <coverage>0.9186</coverage>
  </station>
  <station>
    <id>GHCND:USR0000AFLG</id>
    <displayName>FLAGSTAFF ARIZONA, AZ US</displayName>
    <minDate>1986-01-17</minDate>
    <maxDate>2012-08-30</maxDate>
    <latitude>35.145</latitude>
    <longitude>-111.675</longitude>
    <elevation>2133.6</elevation>
    <locationLabels>
      <type>CNTRY</type>
      <id>FIPS:US</id>
      <displayName>United States</displayName>
    </locationLabels>
    <coverage>0.7403</coverage>
  </station>
  <station>
    <id>GHCND:USR0000OFLA</id>
    <displayName>FLAGSTAFF HILL OREGON, OR US</displayName>
    <minDate>1999-03-11</minDate>
    <maxDate>2012-08-31</maxDate>
    <latitude>44.8142</latitude>
    <longitude>-117.7289</longitude>
    <elevation>1202.4</elevation>
    <locationLabels>
      <type>CNTRY</type>
      <id>FIPS:US</id>
      <displayName>United States</displayName>
    </locationLabels>
    <coverage>0.9437</coverage>
  </station>
  <station>
    <id>GHCND:USW00003103</id>
    <displayName>FLAGSTAFF PULLIAM AIRPORT, AZ US</displayName>
    <minDate>1893-01-01</minDate>
    <maxDate>2013-01-15</maxDate>
    <latitude>35.1441</latitude>
    <longitude>-111.6663</longitude>
    <elevation>2134.5</elevation>
    <locationLabels>
      <type>CNTRY</type>
      <id>FIPS:US</id>
      <displayName>United States</displayName>
    </locationLabels>
    <coverage>0.7264</coverage>
  </station>
  <station>
    <id>GHCND:USW00023166</id>
    <displayName>FLAGSTAFF WEATHER BUREAU CITY, AZ US</displayName>
    <minDate>1943-06-01</minDate>
    <maxDate>1951-03-07</maxDate>
    <latitude>35.2</latitude>
    <longitude>-111.66667</longitude>
    <elevation>2110.1</elevation>
    <locationLabels>
      <type>CNTRY</type>
      <id>FIPS:US</id>
      <displayName>United States</displayName>
    </locationLabels>
    <coverage>0.682</coverage>
  </station>
  <station>
    <id>GHCND:USC00172805</id>
    <displayName>FLAGSTAFF, ME US</displayName>
    <minDate>1895-06-01</minDate>
    <maxDate>1901-12-31</maxDate>
    <latitude>45.216667</latitude>
    <longitude>-70.2</longitude>
    <locationLabels>
      <type>CNTRY</type>
      <id>FIPS:US</id>
      <displayName>United States</displayName>
    </locationLabels>
    <coverage>0.9301</coverage>
  </station>
  <station>
    <id>GHCND:USC00472814</id>
    <displayName>FLAMBEAU RESERVOIR, WI US</displayName>
    <minDate>1926-05-17</minDate>
    <maxDate>1981-07-31</maxDate>
    <latitude>46.06667</latitude>
    <longitude>-90.23333</longitude>
    <elevation>478.8</elevation>
    <locationLabels>
      <type>CNTRY</type>
      <id>FIPS:US</id>
      <displayName>United States</displayName>
    </locationLabels>
    <coverage>0.9681</coverage>
  </station>
  <station>
    <id>GHCND:USC00422864</id>
    <displayName>FLAMING GORGE, UT US</displayName>
    <minDate>1957-12-01</minDate>
    <maxDate>2013-01-15</maxDate>
    <latitude>40.9316</latitude>
    <longitude>-109.4116</longitude>
    <elevation>1903.2</elevation>
    <locationLabels>
      <type>CNTRY</type>
      <id>FIPS:US</id>
      <displayName>United States</displayName>
    </locationLabels>
    <coverage>0.9881</coverage>
  </station>
  <station>
    <id>GHCND:USC00081305</id>
    <displayName>FLAMINGO RANGER STATION, FL US</displayName>
    <minDate>1951-01-01</minDate>
    <maxDate>1962-02-28</maxDate>
    <latitude>25.1422</latitude>
    <longitude>-80.9144</longitude>
    <elevation>0.9</elevation>
    <locationLabels>
      <type>CNTRY</type>
      <id>FIPS:US</id>
      <displayName>United States</displayName>
    </locationLabels>
    <coverage>0.9929</coverage>
  </station>
  <station>
    <id>GHCND:USC00083020</id>
    <displayName>FLAMINGO RANGER STATION, FL US</displayName>
    <minDate>1962-03-01</minDate>
    <maxDate>2012-12-31</maxDate>
    <latitude>25.1422</latitude>
    <longitude>-80.9144</longitude>
    <elevation>0.9</elevation>
    <locationLabels>
      <type>CNTRY</type>
      <id>FIPS:US</id>
      <displayName>United States</displayName>
    </locationLabels>
    <coverage>0.9545</coverage>
  </station>
  <station>
    <id>GHCND:US1ILLV0016</id>
    <displayName>FLANAGAN 6.2 NNE, IL US</displayName>
    <minDate>2010-05-15</minDate>
    <maxDate>2012-07-29</maxDate>
    <latitude>40.9556</latitude>
    <longitude>-88.8009</longitude>
    <elevation>192</elevation>
    <locationLabels>
      <type>CNTRY</type>
      <id>FIPS:US</id>
      <displayName>United States</displayName>
    </locationLabels>
    <coverage>0.3048</coverage>
  </station>
  <station>
    <id>GHCND:USC00392984</id>
    <displayName>FLANDREAU, SD US</displayName>
    <minDate>1893-01-01</minDate>
    <maxDate>2012-12-31</maxDate>
    <latitude>44.0516</latitude>
    <longitude>-96.5927</longitude>
    <elevation>487.7</elevation>
    <locationLabels>
      <type>CNTRY</type>
      <id>FIPS:US</id>
      <displayName>United States</displayName>
    </locationLabels>
    <coverage>0.9725</coverage>
  </station>
  <station>
    <id>GHCND:USC00323009</id>
    <displayName>FLASHER 4 SE, ND US</displayName>
    <minDate>1906-01-01</minDate>
    <maxDate>1975-05-31</maxDate>
    <latitude>46.4</latitude>
    <longitude>-101.2</longitude>
    <elevation>573</elevation>
    <locationLabels>
      <type>CNTRY</type>
      <id>FIPS:US</id>
      <displayName>United States</displayName>
    </locationLabels>
    <coverage>0.39</coverage>
  </station>
  <station>
    <id>GHCND:USC00323004</id>
    <displayName>FLASHER, ND US</displayName>
    <minDate>1999-05-01</minDate>
    <maxDate>2013-01-16</maxDate>
    <latitude>46.458</latitude>
    <longitude>-101.2</longitude>
    <elevation>603.5</elevation>
    <locationLabels>
      <type>CNTRY</type>
      <id>FIPS:US</id>
      <displayName>United States</displayName>
    </locationLabels>
    <coverage>0.9858</coverage>
  </station>
  <station>
    <id>GHCND:USC00343182</id>
    <displayName>FLASHMAN TOWER, OK US</displayName>
    <minDate>1938-11-01</minDate>
    <maxDate>1984-02-29</maxDate>
    <latitude>34.48333</latitude>
    <longitude>-95</longitude>
    <elevation>534</elevation>
    <locationLabels>
      <type>CNTRY</type>
      <id>FIPS:US</id>
      <displayName>United States</displayName>
    </locationLabels>
    <coverage>0.8871</coverage>
  </station>
  <station>
    <id>GHCND:USR0000AFLT</id>
    <displayName>FLAT ALASKA, AK US</displayName>
    <minDate>1996-08-28</minDate>
    <maxDate>2012-08-30</maxDate>
    <latitude>62.8228</latitude>
    <longitude>-156.6139</longitude>
    <elevation>451.1</elevation>
    <locationLabels>
      <type>CNTRY</type>
      <id>FIPS:US</id>
      <displayName>United States</displayName>
    </locationLabels>
    <coverage>0.7941</coverage>
  </station>
  <station>
    <id>GHCND:USC00403139</id>
    <displayName>FLAT GAP, TN US</displayName>
    <minDate>1949-01-01</minDate>
    <maxDate>1962-03-31</maxDate>
    <latitude>36.41667</latitude>
    <longitude>-83.21667</longitude>
    <elevation>609.9</elevation>
    <locationLabels>
      <type>CNTRY</type>
      <id>FIPS:US</id>
      <displayName>United States</displayName>
    </locationLabels>
    <coverage>0.9924</coverage>
  </station>
  <station>
    <id>GHCND:US1NCHN0018</id>
    <displayName>FLAT ROCK 1.5 S, NC US</displayName>
    <minDate>2010-04-04</minDate>
    <maxDate>2013-01-16</maxDate>
    <latitude>35.25</latitude>
    <longitude>-82.443</longitude>
    <elevation>797.1</elevation>
    <locationLabels>
      <type>CNTRY</type>
      <id>FIPS:US</id>
      <displayName>United States</displayName>
    </locationLabels>
    <coverage>0.9519</coverage>
  </station>
  <station>
    <id>GHCND:US1NCHN0013</id>
    <displayName>FLAT ROCK 4.7 NE, NC US</displayName>
    <minDate>2008-07-24</minDate>
    <maxDate>2013-01-16</maxDate>
    <latitude>35.3201</latitude>
    <longitude>-82.3993</longitude>
    <elevation>667.5</elevation>
    <locationLabels>
      <type>CNTRY</type>
      <id>FIPS:US</id>
      <displayName>United States</displayName>
    </locationLabels>
    <coverage>0.9799</coverage>
  </station>
  <station>
    <id>GHCND:USC00012945</id>
    <displayName>FLAT ROCK, AL US</displayName>
    <minDate>1938-08-01</minDate>
    <maxDate>1962-03-31</maxDate>
    <latitude>34.76667</latitude>
    <longitude>-85.68333</longitude>
    <elevation>427</elevation>
    <locationLabels>
      <type>CNTRY</type>
      <id>FIPS:US</id>
      <displayName>United States</displayName>
    </locationLabels>
    <coverage>0.9929</coverage>
  </station>
  <station>
    <id>GHCND:USR0000NFLA</id>
    <displayName>FLAT SPRING NEVADA, NV US</displayName>
    <minDate>2000-10-24</minDate>
    <maxDate>2008-01-13</maxDate>
    <latitude>39.8497</latitude>
    <longitude>-116.5581</longitude>
    <elevation>2347.3</elevation>
    <locationLabels>
      <type>CNTRY</type>
      <id>FIPS:US</id>
      <displayName>United States</displayName>
    </locationLabels>
    <coverage>0.9939</coverage>
  </station>
  <station>
    <id>GHCND:USC00313072</id>
    <displayName>FLAT SPRINGS 1 E, NC US</displayName>
    <minDate>2007-08-31</minDate>
    <maxDate>2013-01-16</maxDate>
    <latitude>36.2527</latitude>
    <longitude>-81.9136</longitude>
    <elevation>1022.6</elevation>
    <locationLabels>
      <type>CNTRY</type>
      <id>FIPS:US</id>
      <displayName>United States</displayName>
    </locationLabels>
    <coverage>0.9954</coverage>
  </station>
  <station>
    <id>GHCND:US1NCAV0002</id>
    <displayName>FLAT SPRINGS 2.5 NE, NC US</displayName>
    <minDate>2007-09-09</minDate>
    <maxDate>2010-01-25</maxDate>
    <latitude>36.2779</latitude>
    <longitude>-81.9025</longitude>
    <elevation>795.5</elevation>
    <locationLabels>
      <type>CNTRY</type>
      <id>FIPS:US</id>
      <displayName>United States</displayName>
    </locationLabels>
    <coverage>0.8747</coverage>
  </station>
  <station>
    <id>GHCND:USC00313090</id>
    <displayName>FLAT TOP MOUNTAIN 2, NC US</displayName>
    <minDate>1956-08-01</minDate>
    <maxDate>1961-06-30</maxDate>
    <latitude>36.03333</latitude>
    <longitude>-82.36667</longitude>
    <elevation>719.9</elevation>
    <locationLabels>
      <type>CNTRY</type>
      <id>FIPS:US</id>
      <displayName>United States</displayName>
    </locationLabels>
    <coverage>0.9549</coverage>
  </station>
  <station>
    <id>GHCND:USC00313089</id>
    <displayName>FLAT TOP MOUNTAIN, NC US</displayName>
    <minDate>1949-01-01</minDate>
    <maxDate>1962-03-31</maxDate>
    <latitude>36.03333</latitude>
    <longitude>-82.4</longitude>
    <elevation>878.1</elevation>
    <locationLabels>
      <type>CNTRY</type>
      <id>FIPS:US</id>
      <displayName>United States</displayName>
    </locationLabels>
    <coverage>0.6321</coverage>
  </station>
  <station>
    <id>GHCND:USC00093404</id>
    <displayName>FLAT TOP, GA US</displayName>
    <minDate>1948-08-01</minDate>
    <maxDate>1962-03-31</maxDate>
    <latitude>34.85</latitude>
    <longitude>-84.5</longitude>
    <locationLabels>
      <type>CNTRY</type>
      <id>FIPS:US</id>
      <displayName>United States</displayName>
    </locationLabels>
    <coverage>0.984</coverage>
  </station>
  <station>
    <id>GHCND:USC00463072</id>
    <displayName>FLAT TOP, WV US</displayName>
    <minDate>1931-01-01</minDate>
    <maxDate>1999-08-31</maxDate>
    <latitude>37.5894</latitude>
    <longitude>-81.0925</longitude>
    <elevation>1016.5</elevation>
    <locationLabels>
      <type>CNTRY</type>
      <id>FIPS:US</id>
      <displayName>United States</displayName>
    </locationLabels>
    <coverage>0.9844</coverage>
  </station>
  <station>
    <id>GHCND:USR0000MFLA</id>
    <displayName>FLAT WILLOW MONTANA, MT US</displayName>
    <minDate>1987-11-03</minDate>
    <maxDate>1997-07-24</maxDate>
    <latitude>46.7483</latitude>
    <longitude>-108.7172</longitude>
    <elevation>1222.2</elevation>
    <locationLabels>
      <type>CNTRY</type>
      <id>FIPS:US</id>
      <displayName>United States</displayName>
    </locationLabels>
    <coverage>0.9947</coverage>
  </station>
  <station>
    <id>GHCND:USC00503085</id>
    <displayName>FLAT, AK US</displayName>
    <minDate>1932-08-01</minDate>
    <maxDate>1961-05-31</maxDate>
    <latitude>62.45</latitude>
    <longitude>-158</longitude>
    <elevation>99.1</elevation>
    <locationLabels>
      <type>CNTRY</type>
      <id>FIPS:US</id>
      <displayName>United States</displayName>
    </locationLabels>
    <coverage>0.886</coverage>
  </station>
  <station>
    <id>GHCND:USC00413171</id>
    <displayName>FLAT, TX US</displayName>
    <minDate>1951-08-01</minDate>
    <maxDate>2007-12-10</maxDate>
    <latitude>31.30889</latitude>
    <longitude>-97.63056</longitude>
    <elevation>259.1</elevation>
    <locationLabels>
      <type>CNTRY</type>
      <id>FIPS:US</id>
      <displayName>United States</displayName>
    </locationLabels>
    <coverage>0.2792</coverage>
  </station>
  <station>
    <id>GHCND:USC00243008</id>
    <displayName>FLATHEAD CREEK, MT US</displayName>
    <minDate>1909-08-01</minDate>
    <maxDate>1925-09-30</maxDate>
    <latitude>45.966667</latitude>
    <longitude>-110.9</longitude>
    <elevation>1645.9</elevation>
    <locationLabels>
      <type>CNTRY</type>
      <id>FIPS:US</id>
      <displayName>United States</displayName>
    </locationLabels>
    <coverage>0.6957</coverage>
  </station>
  <station>
    <id>GHCND:USC00052934</id>
    <displayName>FLATIRON RESERVOIR, CO US</displayName>
    <minDate>1996-11-01</minDate>
    <maxDate>2013-01-16</maxDate>
    <latitude>40.3692</latitude>
    <longitude>-105.2353</longitude>
    <elevation>1677.6</elevation>
    <locationLabels>
      <type>CNTRY</type>
      <id>FIPS:US</id>
      <displayName>United States</displayName>
    </locationLabels>
    <coverage>0.9593</coverage>
  </station>
  <station>
    <id>GHCND:US1TXFY0032</id>
    <displayName>FLATONIA 0.4 SW, TX US</displayName>
    <minDate>2009-09-09</minDate>
    <maxDate>2013-01-16</maxDate>
    <latitude>29.6824</latitude>
    <longitude>-97.1116</longitude>
    <elevation>145.7</elevation>
    <locationLabels>
      <type>CNTRY</type>
      <id>FIPS:US</id>
      <displayName>United States</displayName>
    </locationLabels>
    <coverage>0.7186</coverage>
  </station>
  <station>
    <id>GHCND:US1TXFY0008</id>
    <displayName>FLATONIA 10.7 NNW, TX US</displayName>
    <minDate>2008-06-23</minDate>
    <maxDate>2013-01-09</maxDate>
    <latitude>29.8311</latitude>
    <longitude>-97.1729</longitude>
    <elevation>123.1</elevation>
    <locationLabels>
      <type>CNTRY</type>
      <id>FIPS:US</id>
      <displayName>United States</displayName>
    </locationLabels>
    <coverage>0.8159</coverage>
  </station>
  <station>
    <id>GHCND:US1TXFY0009</id>
    <displayName>FLATONIA 3.3 NE, TX US</displayName>
    <minDate>2008-06-23</minDate>
    <maxDate>2013-01-09</maxDate>
    <latitude>29.7217</latitude>
    <longitude>-97.0686</longitude>
    <elevation>129.2</elevation>
    <locationLabels>
      <type>CNTRY</type>
      <id>FIPS:US</id>
      <displayName>United States</displayName>
    </locationLabels>
    <coverage>0.7515</coverage>
  </station>
  <station>
    <id>GHCND:USC00413183</id>
    <displayName>FLATONIA, TX US</displayName>
    <minDate>1908-01-01</minDate>
    <maxDate>2013-01-16</maxDate>
    <latitude>29.634</latitude>
    <longitude>-97.0645</longitude>
    <elevation>143.3</elevation>
    <locationLabels>
      <type>CNTRY</type>
      <id>FIPS:US</id>
      <displayName>United States</displayName>
    </locationLabels>
    <coverage>0.9941</coverage>
  </station>
  <station>
    <id>GHCND:USR0000FTOP</id>
    <displayName>FLATTOP MOUNTAIN CLEVELAND 1, UT US</displayName>
    <minDate>1987-10-16</minDate>
    <maxDate>2012-08-31</maxDate>
    <latitude>39.3375</latitude>
    <longitude>-110.6</longitude>
    <elevation>1865.4</elevation>
    <locationLabels>
      <type>CNTRY</type>
      <id>FIPS:US</id>
      <displayName>United States</displayName>
    </locationLabels>
    <coverage>0.972</coverage>
  </station>
  <station>
    <id>GHCND:USS0013A19S</id>
    <displayName>FLATTOP MOUNTAIN, MT US</displayName>
    <minDate>1970-01-01</minDate>
    <maxDate>2013-01-13</maxDate>
    <latitude>48.8</latitude>
    <longitude>-113.85</longitude>
    <elevation>1920.2</elevation>
    <locationLabels>
      <type>CNTRY</type>
      <id>FIPS:US</id>
      <displayName>United States</displayName>
    </locationLabels>
    <coverage>0.9273</coverage>
  </station>
  <station>
    <id>GHCND:USC00243013</id>
    <displayName>FLATWILLOW 4 ENE, MT US</displayName>
    <minDate>1913-06-01</minDate>
    <maxDate>2012-12-26</maxDate>
    <latitude>46.8511</latitude>
    <longitude>-108.3132</longitude>
    <elevation>954.9</elevation>
    <locationLabels>
      <type>CNTRY</type>
      <id>FIPS:US</id>
      <displayName>United States</displayName>
    </locationLabels>
    <coverage>0.9903</coverage>
  </station>
  <station>
    <id>GHCND:US1KYGP0005</id>
    <displayName>FLATWOODS 0.5 WNW, KY US</displayName>
    <minDate>2010-11-04</minDate>
    <maxDate>2012-09-06</maxDate>
    <latitude>38.5225</latitude>
    <longitude>-82.7284</longitude>
    <elevation>193.9</elevation>
    <locationLabels>
      <type>CNTRY</type>
      <id>FIPS:US</id>
      <displayName>United States</displayName>
    </locationLabels>
    <coverage>0.5572</coverage>
  </station>
  <station>
    <id>GHCND:USC00323019</id>
    <displayName>FLAXTON, ND US</displayName>
    <minDate>1950-05-27</minDate>
    <maxDate>1958-06-30</maxDate>
    <latitude>48.9</latitude>
    <longitude>-102.38333</longitude>
    <elevation>591.9</elevation>
    <locationLabels>
      <type>CNTRY</type>
      <id>FIPS:US</id>
      <displayName>United States</displayName>
    </locationLabels>
    <coverage>0.9533</coverage>
  </station>
  <station>
    <id>GHCND:US1MTDN0001</id>
    <displayName>FLAXVILLE 5.1 E, MT US</displayName>
    <minDate>2006-12-03</minDate>
    <maxDate>2013-01-16</maxDate>
    <latitude>48.7931</latitude>
    <longitude>-105.0613</longitude>
    <elevation>746.2</elevation>
    <locationLabels>
      <type>CNTRY</type>
      <id>FIPS:US</id>
      <displayName>United States</displayName>
    </locationLabels>
    <coverage>0.7394</coverage>
  </station>
  <station>
    <id>GHCND:USR0000IFLE</id>
    <displayName>FLECK SUMMIT IDAHO, ID US</displayName>
    <minDate>1997-06-20</minDate>
    <maxDate>2012-08-31</maxDate>
    <latitude>43.6197</latitude>
    <longitude>-114.8989</longitude>
    <elevation>1981.2</elevation>
    <locationLabels>
      <type>CNTRY</type>
      <id>FIPS:US</id>
      <displayName>United States</displayName>
    </locationLabels>
    <coverage>0.9126</coverage>
  </station>
  <station>
    <id>GHCND:USC00223050</id>
    <displayName>FLEET, MS US</displayName>
    <minDate>1937-04-20</minDate>
    <maxDate>1945-07-31</maxDate>
    <latitude>31.55</latitude>
    <longitude>-91.416667</longitude>
    <elevation>20.4</elevation>
    <locationLabels>
      <type>CNTRY</type>
      <id>FIPS:US</id>
      <displayName>United States</displayName>
    </locationLabels>
    <coverage>0.719</coverage>
  </station>
  <station>
    <id>GHCND:US1PABR0007</id>
    <displayName>FLEETWOOD 2.0 ESE, PA US</displayName>
    <minDate>2008-04-01</minDate>
    <maxDate>2013-01-16</maxDate>
    <latitude>40.4429</latitude>
    <longitude>-75.7872</longitude>
    <elevation>232</elevation>
    <locationLabels>
      <type>CNTRY</type>
      <id>FIPS:US</id>
      <displayName>United States</displayName>
    </locationLabels>
    <coverage>0.9458</coverage>
  </station>
  <station>
    <id>GHCND:USC00262903</id>
    <displayName>FLEISH POWER HOUSE, NV US</displayName>
    <minDate>1958-12-11</minDate>
    <maxDate>1959-08-31</maxDate>
    <latitude>39.48333</latitude>
    <longitude>-119.98333</longitude>
    <elevation>1524.9</elevation>
    <locationLabels>
      <type>CNTRY</type>
      <id>FIPS:US</id>
      <displayName>United States</displayName>
    </locationLabels>
    <coverage>1</coverage>
  </station>
  <station>
    <id>GHCND:US1COLG0005</id>
    <displayName>FLEMING 0.1 SE, CO US</displayName>
    <minDate>2000-05-01</minDate>
    <maxDate>2001-05-31</maxDate>
    <latitude>40.6792</latitude>
    <longitude>-102.8384</longitude>
    <elevation>1292</elevation>
    <locationLabels>
      <type>CNTRY</type>
      <id>FIPS:US</id>
      <displayName>United States</displayName>
    </locationLabels>
    <coverage>0.5404</coverage>
  </station>
  <station>
    <id>GHCND:US1COLG0033</id>
    <displayName>FLEMING 10 S, CO US</displayName>
    <minDate>2005-05-19</minDate>
    <maxDate>2007-01-17</maxDate>
    <latitude>40.5376</latitude>
    <longitude>-102.8336</longitude>
    <elevation>1296.9</elevation>
    <locationLabels>
      <type>CNTRY</type>
      <id>FIPS:US</id>
      <displayName>United States</displayName>
    </locationLabels>
    <coverage>0.9343</coverage>
  </station>
  <station>
    <id>GHCND:USC00052947</id>
    <displayName>FLEMING 3 SW, CO US</displayName>
    <minDate>1998-04-01</minDate>
    <maxDate>2013-01-14</maxDate>
    <latitude>40.6483</latitude>
    <longitude>-102.8594</longitude>
    <elevation>1297.2</elevation>
    <locationLabels>
      <type>CNTRY</type>
      <id>FIPS:US</id>
      <displayName>United States</displayName>
    </locationLabels>
    <coverage>0.977</coverage>
  </station>
  <station>
    <id>GHCND:USC00043087</id>
    <displayName>FLEMING FISH AND GAME, CA US</displayName>
    <minDate>1959-06-01</minDate>
    <maxDate>1977-06-30</maxDate>
    <latitude>40.36667</latitude>
    <longitude>-120.31667</longitude>
    <elevation>1220.1</elevation>
    <locationLabels>
      <type>CNTRY</type>
      <id>FIPS:US</id>
      <displayName>United States</displayName>
    </locationLabels>
    <coverage>0.9998</coverage>
  </station>
  <station>
    <id>GHCND:USC00052944</id>
    <displayName>FLEMING, CO US</displayName>
    <minDate>1894-04-01</minDate>
    <maxDate>1998-10-31</maxDate>
    <latitude>40.68444</latitude>
    <longitude>-102.83972</longitude>
    <elevation>1292.4</elevation>
    <locationLabels>
      <type>CNTRY</type>
      <id>FIPS:US</id>
      <displayName>United States</displayName>
    </locationLabels>
    <coverage>0.5808</coverage>
  </station>
  <station>
    <id>GHCND:USC00093409</id>
    <displayName>FLEMING, GA US</displayName>
    <minDate>1892-03-20</minDate>
    <maxDate>1978-05-31</maxDate>
    <latitude>31.88333</latitude>
    <longitude>-81.41667</longitude>
    <elevation>6.1</elevation>
    <locationLabels>
      <type>CNTRY</type>
      <id>FIPS:US</id>
      <displayName>United States</displayName>
    </locationLabels>
    <coverage>0.4835</coverage>
  </station>
  <station>
    <id>GHCND:USC00302862</id>
    <displayName>FLEMING, NY US</displayName>
    <minDate>1893-01-01</minDate>
    <maxDate>1900-11-30</maxDate>
    <latitude>42.833333</latitude>
    <longitude>-76.55</longitude>
    <elevation>274.3</elevation>
    <locationLabels>
      <type>CNTRY</type>
      <id>FIPS:US</id>
      <displayName>United States</displayName>
    </locationLabels>
    <coverage>0.9675</coverage>
  </station>
  <station>
    <id>GHCND:USC00152908</id>
    <displayName>FLEMINGSBURG 1 SW, KY US</displayName>
    <minDate>1948-08-01</minDate>
    <maxDate>1978-09-30</maxDate>
    <latitude>38.41667</latitude>
    <longitude>-83.75</longitude>
    <elevation>267.9</elevation>
    <locationLabels>
      <type>CNTRY</type>
      <id>FIPS:US</id>
      <displayName>United States</displayName>
    </locationLabels>
    <coverage>0.8117</coverage>
  </station>
  <station>
    <id>GHCND:USC00152903</id>
    <displayName>FLEMINGSBURG 2 N, KY US</displayName>
    <minDate>1925-03-01</minDate>
    <maxDate>2013-01-16</maxDate>
    <latitude>38.45028</latitude>
    <longitude>-83.73556</longitude>
    <elevation>286.5</elevation>
    <locationLabels>
      <type>CNTRY</type>
      <id>FIPS:US</id>
      <displayName>United States</displayName>
    </locationLabels>
    <coverage>0.8491</coverage>
  </station>
  <station>
    <id>GHCND:US1NJHN0015</id>
    <displayName>FLEMINGTON 0.3 E, NJ US</displayName>
    <minDate>2009-06-01</minDate>
    <maxDate>2013-01-16</maxDate>
    <latitude>40.5091</latitude>
    <longitude>-74.8549</longitude>
    <elevation>54.6</elevation>
    <locationLabels>
      <type>CNTRY</type>
      <id>FIPS:US</id>
      <displayName>United States</displayName>
    </locationLabels>
    <coverage>0.9125</coverage>
  </station>
  <station>
    <id>GHCND:US1NJHN0010</id>
    <displayName>FLEMINGTON 2.3 E, NJ US</displayName>
    <minDate>2008-05-16</minDate>
    <maxDate>2013-01-16</maxDate>
    <latitude>40.5083</latitude>
    <longitude>-74.8152</longitude>
    <elevation>45.1</elevation>
    <locationLabels>
      <type>CNTRY</type>
      <id>FIPS:US</id>
      <displayName>United States</displayName>
    </locationLabels>
    <coverage>0.8969</coverage>
  </station>
  <station>
    <id>GHCND:USC00283029</id>
    <displayName>FLEMINGTON 5 NNW, NJ US</displayName>
    <minDate>1898-03-02</minDate>
    <maxDate>2013-01-16</maxDate>
    <latitude>40.563</latitude>
    <longitude>-74.883</longitude>
    <elevation>79.2</elevation>
    <locationLabels>
      <type>CNTRY</type>
      <id>FIPS:US</id>
      <displayName>United States</displayName>
    </locationLabels>
    <coverage>0.984</coverage>
  </station>
  <station>
    <id>GHCND:US1NJHN0029</id>
    <displayName>FLEMINGTON 5.2 NE, NJ US</displayName>
    <minDate>2012-04-03</minDate>
    <maxDate>2013-01-16</maxDate>
    <latitude>40.5548</latitude>
    <longitude>-74.7819</longitude>
    <elevation>44.5</elevation>
    <locationLabels>
      <type>CNTRY</type>
      <id>FIPS:US</id>
      <displayName>United States</displayName>
    </locationLabels>
    <coverage>0.8166</coverage>
  </station>
  <station>
    <id>GHCND:US1MOHC0009</id>
    <displayName>FLEMINGTON 7.4 ENE, MO US</displayName>
    <minDate>2008-04-10</minDate>
    <maxDate>2013-01-15</maxDate>
    <latitude>37.8368</latitude>
    <longitude>-93.3713</longitude>
    <elevation>271.9</elevation>
    <locationLabels>
      <type>CNTRY</type>
      <id>FIPS:US</id>
      <displayName>United States</displayName>
    </locationLabels>
    <coverage>0.8169</coverage>
  </station>
  <station>
    <id>GHCND:USC00232941</id>
    <displayName>FLEMINGTON, MO US</displayName>
    <minDate>1975-01-01</minDate>
    <maxDate>2013-01-13</maxDate>
    <latitude>37.7924</latitude>
    <longitude>-93.4483</longitude>
    <elevation>310.9</elevation>
    <locationLabels>
      <type>CNTRY</type>
      <id>FIPS:US</id>
      <displayName>United States</displayName>
    </locationLabels>
    <coverage>0.2166</coverage>
  </station>
  <station>
    <id>GHCND:USC00463100</id>
    <displayName>FLEMINGTON, WV US</displayName>
    <minDate>1880-09-01</minDate>
    <maxDate>1882-02-28</maxDate>
    <latitude>39.266667</latitude>
    <longitude>-80.133333</longitude>
    <locationLabels>
      <type>CNTRY</type>
      <id>FIPS:US</id>
      <displayName>United States</displayName>
    </locationLabels>
    <coverage>0.9451</coverage>
  </station>
  <station>
    <id>GHCND:US1NCHN0010</id>
    <displayName>FLETCHER 0.8 W, NC US</displayName>
    <minDate>2008-04-30</minDate>
    <maxDate>2011-07-05</maxDate>
    <latitude>35.4344</latitude>
    <longitude>-82.5163</longitude>
    <elevation>642.8</elevation>
    <locationLabels>
      <type>CNTRY</type>
      <id>FIPS:US</id>
      <displayName>United States</displayName>
    </locationLabels>
    <coverage>0.9114</coverage>
  </station>
  <station>
    <id>GHCND:US1NCHN0002</id>
    <displayName>FLETCHER 1.2 WSW, NC US</displayName>
    <minDate>2007-09-11</minDate>
    <maxDate>2013-01-16</maxDate>
    <latitude>35.4308</latitude>
    <longitude>-82.5242</longitude>
    <elevation>645</elevation>
    <locationLabels>
      <type>CNTRY</type>
      <id>FIPS:US</id>
      <displayName>United States</displayName>
    </locationLabels>
    <coverage>0.9729</coverage>
  </station>
  <station>
    <id>GHCND:USC00313101</id>
    <displayName>FLETCHER 2 NE, NC US</displayName>
    <minDate>1956-10-01</minDate>
    <maxDate>1995-07-31</maxDate>
    <latitude>35.45</latitude>
    <longitude>-82.48333</longitude>
    <elevation>667.5</elevation>
    <locationLabels>
      <type>CNTRY</type>
      <id>FIPS:US</id>
      <displayName>United States</displayName>
    </locationLabels>
    <coverage>0.9014</coverage>
  </station>
  <station>
    <id>GHCND:US1NCHN0019</id>
    <displayName>FLETCHER 2.5 E, NC US</displayName>
    <minDate>2010-10-01</minDate>
    <maxDate>2013-01-16</maxDate>
    <latitude>35.4412</latitude>
    <longitude>-82.4596</longitude>
    <elevation>670.9</elevation>
    <locationLabels>
      <type>CNTRY</type>
      <id>FIPS:US</id>
      <displayName>United States</displayName>
    </locationLabels>
    <coverage>0.5364</coverage>
  </station>
  <station>
    <id>GHCND:USC00313106</id>
    <displayName>FLETCHER 3 W, NC US</displayName>
    <minDate>1959-11-01</minDate>
    <maxDate>2013-01-16</maxDate>
    <latitude>35.4266</latitude>
    <longitude>-82.5574</longitude>
    <elevation>630.9</elevation>
    <locationLabels>
      <type>CNTRY</type>
      <id>FIPS:US</id>
      <displayName>United States</displayName>
    </locationLabels>
    <coverage>0.9996</coverage>
  </station>
  <station>
    <id>GHCND:US1NCHN0007</id>
    <displayName>FLETCHER 3.1 SE, NC US</displayName>
    <minDate>2007-12-22</minDate>
    <maxDate>2008-06-21</maxDate>
    <latitude>35.4</latitude>
    <longitude>-82.467</longitude>
    <elevation>778.2</elevation>
    <locationLabels>
      <type>CNTRY</type>
      <id>FIPS:US</id>
      <displayName>United States</displayName>
    </locationLabels>
    <coverage>0.5738</coverage>
  </station>
  <station>
    <id>GHCND:USC00413189</id>
    <displayName>FLETCHER RANCH, TX US</displayName>
    <minDate>1948-06-01</minDate>
    <maxDate>1951-09-30</maxDate>
    <latitude>30.16667</latitude>
    <longitude>-104.2</longitude>
    <elevation>1478.9</elevation>
    <locationLabels>
      <type>CNTRY</type>
      <id>FIPS:US</id>
      <displayName>United States</displayName>
    </locationLabels>
    <coverage>0.9951</coverage>
  </station>
  <station>
    <id>GHCND:US1MIGN0015</id>
    <displayName>FLINT 6.4 SSW, MI US</displayName>
    <minDate>2012-03-01</minDate>
    <maxDate>2013-01-15</maxDate>
    <latitude>42.9326</latitude>
    <longitude>-83.721</longitude>
    <elevation>243.8</elevation>
    <locationLabels>
      <type>CNTRY</type>
      <id>FIPS:US</id>
      <displayName>United States</displayName>
    </locationLabels>
    <coverage>0.9813</coverage>
  </station>
  <station>
    <id>GHCND:USC00202851</id>
    <displayName>FLINT 7 W, MI US</displayName>
    <minDate>1948-05-01</minDate>
    <maxDate>2013-01-15</maxDate>
    <latitude>43.0377</latitude>
    <longitude>-83.7694</longitude>
    <elevation>207</elevation>
    <locationLabels>
      <type>CNTRY</type>
      <id>FIPS:US</id>
      <displayName>United States</displayName>
    </locationLabels>
    <coverage>0.5327</coverage>
  </station>
  <station>
    <id>GHCND:USW00014826</id>
    <displayName>FLINT BISHOP INTERNATIONAL AIRPORT, MI US</displayName>
    <minDate>1948-05-02</minDate>
    <maxDate>2013-01-15</maxDate>
    <latitude>42.9666</latitude>
    <longitude>-83.7494</longitude>
    <elevation>234.7</elevation>
    <locationLabels>
      <type>CNTRY</type>
      <id>FIPS:US</id>
      <displayName>United States</displayName>
    </locationLabels>
    <coverage>0.9998</coverage>
  </station>
  <station>
    <id>GHCND:USR0000IFLI</id>
    <displayName>FLINT CREEK IDAHO, ID US</displayName>
    <minDate>1985-06-25</minDate>
    <maxDate>2012-08-31</maxDate>
    <latitude>42.0792</latitude>
    <longitude>-112.1833</longitude>
    <elevation>1585</elevation>
    <locationLabels>
      <type>CNTRY</type>
      <id>FIPS:US</id>
      <displayName>United States</displayName>
    </locationLabels>
    <coverage>0.786</coverage>
  </station>
  <station>
    <id>GHCND:USC00413192</id>
    <displayName>FLINT, TX US</displayName>
    <minDate>1906-01-01</minDate>
    <maxDate>1949-08-05</maxDate>
    <latitude>32.2</latitude>
    <longitude>-95.35</longitude>
    <elevation>146</elevation>
    <locationLabels>
      <type>CNTRY</type>
      <id>FIPS:US</id>
      <displayName>United States</displayName>
    </locationLabels>
    <coverage>0.9883</coverage>
  </station>
  <station>
    <id>GHCND:USC00093427</id>
    <displayName>FLINTSTONE, GA US</displayName>
    <minDate>1943-03-01</minDate>
    <maxDate>1955-09-30</maxDate>
    <latitude>34.93333</latitude>
    <longitude>-85.35</longitude>
    <elevation>217</elevation>
    <locationLabels>
      <type>CNTRY</type>
      <id>FIPS:US</id>
      <displayName>United States</displayName>
    </locationLabels>
    <coverage>0.734</coverage>
  </station>
  <station>
    <id>GHCND:USC00183150</id>
    <displayName>FLINTSTONE, MD US</displayName>
    <minDate>1896-02-01</minDate>
    <maxDate>1898-03-31</maxDate>
    <latitude>39.7</latitude>
    <longitude>-78.6</longitude>
    <elevation>243.8</elevation>
    <locationLabels>
      <type>CNTRY</type>
      <id>FIPS:US</id>
      <displayName>United States</displayName>
    </locationLabels>
    <coverage>0.9835</coverage>
  </station>
  <station>
    <id>GHCND:US1TNLC0015</id>
    <displayName>FLINTVILLE 0.6 S, TN US</displayName>
    <minDate>2012-03-29</minDate>
    <maxDate>2013-01-16</maxDate>
    <latitude>35.0535</latitude>
    <longitude>-86.4193</longitude>
    <elevation>273.1</elevation>
    <locationLabels>
      <type>CNTRY</type>
      <id>FIPS:US</id>
      <displayName>United States</displayName>
    </locationLabels>
    <coverage>0.8299</coverage>
  </station>
  <station>
    <id>GHCND:US1ARMR0001</id>
    <displayName>FLIPPIN 0.5 WNW, AR US</displayName>
    <minDate>2009-09-18</minDate>
    <maxDate>2011-04-25</maxDate>
    <latitude>36.2794</latitude>
    <longitude>-92.6004</longitude>
    <elevation>105.8</elevation>
    <locationLabels>
      <type>CNTRY</type>
      <id>FIPS:US</id>
      <displayName>United States</displayName>
    </locationLabels>
    <coverage>0.8274</coverage>
  </station>
  <station>
    <id>GHCND:USW00003918</id>
    <displayName>FLIPPIN MARION CO REGIONAL AIRPORT, AR US</displayName>
    <minDate>1951-07-01</minDate>
    <maxDate>2013-01-16</maxDate>
    <latitude>36.29083</latitude>
    <longitude>-92.59</longitude>
    <elevation>219.2</elevation>
    <locationLabels>
      <type>CNTRY</type>
      <id>FIPS:US</id>
      <displayName>United States</displayName>
    </locationLabels>
    <coverage>0.1932</coverage>
  </station>
  <station>
    <id>GHCND:USC00413195</id>
    <displayName>FLOMOT 2 E, TX US</displayName>
    <minDate>2007-03-01</minDate>
    <maxDate>2013-01-16</maxDate>
    <latitude>34.2319</latitude>
    <longitude>-100.9561</longitude>
    <elevation>720.9</elevation>
    <locationLabels>
      <type>CNTRY</type>
      <id>FIPS:US</id>
      <displayName>United States</displayName>
    </locationLabels>
    <coverage>0.9442</coverage>
  </station>
  <station>
    <id>GHCND:USC00413196</id>
    <displayName>FLOMOT 4 NE, TX US</displayName>
    <minDate>1946-08-01</minDate>
    <maxDate>2013-01-16</maxDate>
    <latitude>34.2675</latitude>
    <longitude>-100.9336</longitude>
    <elevation>719.3</elevation>
    <locationLabels>
      <type>CNTRY</type>
      <id>FIPS:US</id>
      <displayName>United States</displayName>
    </locationLabels>
    <coverage>0.9464</coverage>
  </station>
  <station>
    <id>GHCND:USC00212842</id>
    <displayName>FLOODWOOD 3 NE, MN US</displayName>
    <minDate>1986-07-01</minDate>
    <maxDate>2013-01-16</maxDate>
    <latitude>46.9728</latitude>
    <longitude>-92.87</longitude>
    <elevation>384</elevation>
    <locationLabels>
      <type>CNTRY</type>
      <id>FIPS:US</id>
      <displayName>United States</displayName>
    </locationLabels>
    <coverage>0.9881</coverage>
  </station>
  <station>
    <id>GHCND:USC00212826</id>
    <displayName>FLOODWOOD, MN US</displayName>
    <minDate>1903-01-01</minDate>
    <maxDate>1913-01-31</maxDate>
    <latitude>46.916667</latitude>
    <longitude>-92.9</longitude>
    <elevation>383.1</elevation>
    <locationLabels>
      <type>CNTRY</type>
      <id>FIPS:US</id>
      <displayName>United States</displayName>
    </locationLabels>
    <coverage>0.6257</coverage>
  </station>
  <station>
    <id>GHCND:USC00223069</id>
    <displayName>FLORA 1, MS US</displayName>
    <minDate>1941-12-01</minDate>
    <maxDate>1945-10-31</maxDate>
    <latitude>32.6</latitude>
    <longitude>-90.333333</longitude>
    <elevation>66.1</elevation>
    <locationLabels>
      <type>CNTRY</type>
      <id>FIPS:US</id>
      <displayName>United States</displayName>
    </locationLabels>
    <coverage>0.8763</coverage>
  </station>
  <station>
    <id>GHCND:US1ORWL0003</id>
    <displayName>FLORA 1.0 SE, OR US</displayName>
    <minDate>2008-06-10</minDate>
    <maxDate>2013-01-11</maxDate>
    <latitude>45.8944</latitude>
    <longitude>-117.2899</longitude>
    <elevation>1343.6</elevation>
    <locationLabels>
      <type>CNTRY</type>
      <id>FIPS:US</id>
      <displayName>United States</displayName>
    </locationLabels>
    <coverage>0.1944</coverage>
  </station>
</stationCollection>
