<?xml version="1.0" encoding="UTF-8" standalone="yes"?>
<stationCollection totalCount="46020" pageCount="461" pageSize="100" page="366">
  <station>
    <id>GHCND:USC00317508</id>
    <displayName>SALISBURY 9 WNW, NC US</displayName>
    <minDate>1954-04-01</minDate>
    <maxDate>1982-12-31</maxDate>
    <latitude>35.6966</latitude>
    <longitude>-80.6227</longitude>
    <elevation>251.5</elevation>
    <locationLabels>
      <type>CNTRY</type>
      <id>FIPS:US</id>
      <displayName>United States</displayName>
    </locationLabels>
    <coverage>0.9996</coverage>
  </station>
  <station>
    <id>GHCND:USC00307420</id>
    <displayName>SALISBURY MILLS, NY US</displayName>
    <minDate>1899-06-01</minDate>
    <maxDate>1910-11-30</maxDate>
    <latitude>41.433333</latitude>
    <longitude>-74.116667</longitude>
    <elevation>95.7</elevation>
    <locationLabels>
      <type>CNTRY</type>
      <id>FIPS:US</id>
      <displayName>United States</displayName>
    </locationLabels>
    <coverage>0.8974</coverage>
  </station>
  <station>
    <id>GHCND:USC00188003</id>
    <displayName>SALISBURY POLICE BRK, MD US</displayName>
    <minDate>1948-08-01</minDate>
    <maxDate>2005-12-31</maxDate>
    <latitude>38.42</latitude>
    <longitude>-75.56417</longitude>
    <elevation>12.2</elevation>
    <locationLabels>
      <type>CNTRY</type>
      <id>FIPS:US</id>
      <displayName>United States</displayName>
    </locationLabels>
    <coverage>0.2994</coverage>
  </station>
  <station>
    <id>GHCND:USC00188007</id>
    <displayName>SALISBURY USGS, MD US</displayName>
    <minDate>1950-03-16</minDate>
    <maxDate>1954-07-31</maxDate>
    <latitude>38.36667</latitude>
    <longitude>-75.58333</longitude>
    <elevation>9.1</elevation>
    <locationLabels>
      <type>CNTRY</type>
      <id>FIPS:US</id>
      <displayName>United States</displayName>
    </locationLabels>
    <coverage>0.9575</coverage>
  </station>
  <station>
    <id>GHCND:USW00093720</id>
    <displayName>SALISBURY WICOMICO REGIONAL AIRPORT, MD US</displayName>
    <minDate>1948-07-20</minDate>
    <maxDate>2013-01-15</maxDate>
    <latitude>38.34056</latitude>
    <longitude>-75.51028</longitude>
    <elevation>14.6</elevation>
    <locationLabels>
      <type>CNTRY</type>
      <id>FIPS:US</id>
      <displayName>United States</displayName>
    </locationLabels>
    <coverage>0.9997</coverage>
  </station>
  <station>
    <id>GHCND:USC00067109</id>
    <displayName>SALISBURY, CT US</displayName>
    <minDate>1933-12-01</minDate>
    <maxDate>1966-03-31</maxDate>
    <latitude>41.98333</latitude>
    <longitude>-73.45</longitude>
    <elevation>328.9</elevation>
    <locationLabels>
      <type>CNTRY</type>
      <id>FIPS:US</id>
      <displayName>United States</displayName>
    </locationLabels>
    <coverage>0.9688</coverage>
  </station>
  <station>
    <id>GHCND:USC00197150</id>
    <displayName>SALISBURY, MA US</displayName>
    <minDate>1893-06-01</minDate>
    <maxDate>1896-05-31</maxDate>
    <latitude>42.85</latitude>
    <longitude>-70.9</longitude>
    <elevation>9.1</elevation>
    <locationLabels>
      <type>CNTRY</type>
      <id>FIPS:US</id>
      <displayName>United States</displayName>
    </locationLabels>
    <coverage>0.9151</coverage>
  </station>
  <station>
    <id>GHCND:USC00188000</id>
    <displayName>SALISBURY, MD US</displayName>
    <minDate>1893-02-01</minDate>
    <maxDate>2011-12-31</maxDate>
    <latitude>38.365</latitude>
    <longitude>-75.58917</longitude>
    <elevation>3</elevation>
    <locationLabels>
      <type>CNTRY</type>
      <id>FIPS:US</id>
      <displayName>United States</displayName>
    </locationLabels>
    <coverage>0.8681</coverage>
  </station>
  <station>
    <id>GHCND:USC00237514</id>
    <displayName>SALISBURY, MO US</displayName>
    <minDate>1946-07-01</minDate>
    <maxDate>2013-01-16</maxDate>
    <latitude>39.4247</latitude>
    <longitude>-92.8106</longitude>
    <elevation>222.5</elevation>
    <locationLabels>
      <type>CNTRY</type>
      <id>FIPS:US</id>
      <displayName>United States</displayName>
    </locationLabels>
    <coverage>0.995</coverage>
  </station>
  <station>
    <id>GHCND:USC00317615</id>
    <displayName>SALISBURY, NC US</displayName>
    <minDate>1893-01-01</minDate>
    <maxDate>2013-01-15</maxDate>
    <latitude>35.6836</latitude>
    <longitude>-80.4822</longitude>
    <elevation>213.4</elevation>
    <locationLabels>
      <type>CNTRY</type>
      <id>FIPS:US</id>
      <displayName>United States</displayName>
    </locationLabels>
    <coverage>0.9802</coverage>
  </station>
  <station>
    <id>GHCND:USC00277833</id>
    <displayName>SALISBURY, NH US</displayName>
    <minDate>1996-09-01</minDate>
    <maxDate>2012-02-05</maxDate>
    <latitude>43.3553</latitude>
    <longitude>-71.5006</longitude>
    <elevation>167.6</elevation>
    <locationLabels>
      <type>CNTRY</type>
      <id>FIPS:US</id>
      <displayName>United States</displayName>
    </locationLabels>
    <coverage>0.9913</coverage>
  </station>
  <station>
    <id>GHCND:USC00307413</id>
    <displayName>SALISBURY, NY US</displayName>
    <minDate>1897-01-01</minDate>
    <maxDate>1975-02-28</maxDate>
    <latitude>43.16667</latitude>
    <longitude>-74.86667</longitude>
    <elevation>420.9</elevation>
    <locationLabels>
      <type>CNTRY</type>
      <id>FIPS:US</id>
      <displayName>United States</displayName>
    </locationLabels>
    <coverage>0.9522</coverage>
  </station>
  <station>
    <id>GHCND:USC00347862</id>
    <displayName>SALLISAW 2 NW, OK US</displayName>
    <minDate>1893-04-01</minDate>
    <maxDate>2013-01-16</maxDate>
    <latitude>35.4572</latitude>
    <longitude>-94.8047</longitude>
    <elevation>201.2</elevation>
    <locationLabels>
      <type>CNTRY</type>
      <id>FIPS:US</id>
      <displayName>United States</displayName>
    </locationLabels>
    <coverage>0.753</coverage>
  </station>
  <station>
    <id>GHCND:US1IDLM0001</id>
    <displayName>SALMON 0.2 NNW, ID US</displayName>
    <minDate>2009-01-11</minDate>
    <maxDate>2013-01-16</maxDate>
    <latitude>45.1811</latitude>
    <longitude>-113.8995</longitude>
    <elevation>1211.3</elevation>
    <locationLabels>
      <type>CNTRY</type>
      <id>FIPS:US</id>
      <displayName>United States</displayName>
    </locationLabels>
    <coverage>0.8425</coverage>
  </station>
  <station>
    <id>GHCND:USR0000ISAL</id>
    <displayName>SALMON IDAHO, ID US</displayName>
    <minDate>1985-01-23</minDate>
    <maxDate>2012-08-23</maxDate>
    <latitude>45.15</latitude>
    <longitude>-113.9333</longitude>
    <elevation>1511.8</elevation>
    <locationLabels>
      <type>CNTRY</type>
      <id>FIPS:US</id>
      <displayName>United States</displayName>
    </locationLabels>
    <coverage>0.9695</coverage>
  </station>
  <station>
    <id>GHCND:USC00108080</id>
    <displayName>SALMON KSRA, ID US</displayName>
    <minDate>1967-12-01</minDate>
    <maxDate>2013-01-15</maxDate>
    <latitude>45.1875</latitude>
    <longitude>-113.9008</longitude>
    <elevation>1198.2</elevation>
    <locationLabels>
      <type>CNTRY</type>
      <id>FIPS:US</id>
      <displayName>United States</displayName>
    </locationLabels>
    <coverage>0.995</coverage>
  </station>
  <station>
    <id>GHCND:USC00108076</id>
    <displayName>SALMON LEMHI CO AIRPORT, ID US</displayName>
    <minDate>1905-11-05</minDate>
    <maxDate>2013-01-16</maxDate>
    <latitude>45.11667</latitude>
    <longitude>-113.88333</longitude>
    <elevation>1232.6</elevation>
    <locationLabels>
      <type>CNTRY</type>
      <id>FIPS:US</id>
      <displayName>United States</displayName>
    </locationLabels>
    <coverage>0.5984</coverage>
  </station>
  <station>
    <id>GHCND:USS0019A02S</id>
    <displayName>SALMON MEADOWS, WA US</displayName>
    <minDate>1981-10-01</minDate>
    <maxDate>2013-01-13</maxDate>
    <latitude>48.6667</latitude>
    <longitude>-119.8333</longitude>
    <elevation>1371.6</elevation>
    <locationLabels>
      <type>CNTRY</type>
      <id>FIPS:US</id>
      <displayName>United States</displayName>
    </locationLabels>
    <coverage>0.8958</coverage>
  </station>
  <station>
    <id>GHCND:USC00108089</id>
    <displayName>SALMON RIVER DAM, ID US</displayName>
    <minDate>1908-03-08</minDate>
    <maxDate>1912-02-22</maxDate>
    <latitude>42.483333</latitude>
    <longitude>-114.833333</longitude>
    <elevation>1511.8</elevation>
    <locationLabels>
      <type>CNTRY</type>
      <id>FIPS:US</id>
      <displayName>United States</displayName>
    </locationLabels>
    <coverage>0.9737</coverage>
  </station>
  <station>
    <id>GHCND:USC00508171</id>
    <displayName>SALMON RIVER, AK US</displayName>
    <minDate>1919-02-13</minDate>
    <maxDate>1923-03-31</maxDate>
    <latitude>62.9167</latitude>
    <longitude>-154.6167</longitude>
    <locationLabels>
      <type>CNTRY</type>
      <id>FIPS:US</id>
      <displayName>United States</displayName>
    </locationLabels>
    <coverage>0.7613</coverage>
  </station>
  <station>
    <id>GHCND:USR0000ASAL</id>
    <displayName>SALMON TROUT ALASKA, AK US</displayName>
    <minDate>1988-07-01</minDate>
    <maxDate>2012-08-30</maxDate>
    <latitude>66.8125</latitude>
    <longitude>-141.62</longitude>
    <elevation>673.6</elevation>
    <locationLabels>
      <type>CNTRY</type>
      <id>FIPS:US</id>
      <displayName>United States</displayName>
    </locationLabels>
    <coverage>0.7365</coverage>
  </station>
  <station>
    <id>GHCND:USC00027453</id>
    <displayName>SALOME 1 ESE, AZ US</displayName>
    <minDate>1957-05-01</minDate>
    <maxDate>1973-01-31</maxDate>
    <latitude>33.78333</latitude>
    <longitude>-113.61667</longitude>
    <elevation>580</elevation>
    <locationLabels>
      <type>CNTRY</type>
      <id>FIPS:US</id>
      <displayName>United States</displayName>
    </locationLabels>
    <coverage>0.8705</coverage>
  </station>
  <station>
    <id>GHCND:USC00027462</id>
    <displayName>SALOME 17 SE, AZ US</displayName>
    <minDate>1987-03-01</minDate>
    <maxDate>1998-04-30</maxDate>
    <latitude>33.68333</latitude>
    <longitude>-113.48333</longitude>
    <elevation>487.4</elevation>
    <locationLabels>
      <type>CNTRY</type>
      <id>FIPS:US</id>
      <displayName>United States</displayName>
    </locationLabels>
    <coverage>0.9995</coverage>
  </station>
  <station>
    <id>GHCND:USC00027460</id>
    <displayName>SALOME 6 SE, AZ US</displayName>
    <minDate>1908-01-01</minDate>
    <maxDate>1957-04-30</maxDate>
    <latitude>33.73333</latitude>
    <longitude>-113.53333</longitude>
    <elevation>519.1</elevation>
    <locationLabels>
      <type>CNTRY</type>
      <id>FIPS:US</id>
      <displayName>United States</displayName>
    </locationLabels>
    <coverage>0.9738</coverage>
  </station>
  <station>
    <id>GHCND:USC00047681</id>
    <displayName>SALSIPUEDES GAGING STATION, CA US</displayName>
    <minDate>1948-07-01</minDate>
    <maxDate>2012-10-31</maxDate>
    <latitude>34.5686</latitude>
    <longitude>-120.4083</longitude>
    <elevation>80.5</elevation>
    <locationLabels>
      <type>CNTRY</type>
      <id>FIPS:US</id>
      <displayName>United States</displayName>
    </locationLabels>
    <coverage>0.8197</coverage>
  </station>
  <station>
    <id>GHCND:USS0022F04S</id>
    <displayName>SALT CREEK FALLS, OR US</displayName>
    <minDate>1980-10-01</minDate>
    <maxDate>2013-01-13</maxDate>
    <latitude>43.6</latitude>
    <longitude>-122.0667</longitude>
    <elevation>1219.2</elevation>
    <locationLabels>
      <type>CNTRY</type>
      <id>FIPS:US</id>
      <displayName>United States</displayName>
    </locationLabels>
    <coverage>0.9284</coverage>
  </station>
  <station>
    <id>GHCND:USR0000OSAL</id>
    <displayName>SALT CREEK PRINVILLE OREGON, OR US</displayName>
    <minDate>1986-04-24</minDate>
    <maxDate>2012-03-22</maxDate>
    <latitude>44.0444</latitude>
    <longitude>-120.6661</longitude>
    <elevation>1728.2</elevation>
    <locationLabels>
      <type>CNTRY</type>
      <id>FIPS:US</id>
      <displayName>United States</displayName>
    </locationLabels>
    <coverage>0.9714</coverage>
  </station>
  <station>
    <id>GHCND:USC00427582</id>
    <displayName>SALT CREEK, UT US</displayName>
    <minDate>1919-08-01</minDate>
    <maxDate>1926-09-30</maxDate>
    <latitude>39.716667</latitude>
    <longitude>-111.733333</longitude>
    <elevation>1752.6</elevation>
    <locationLabels>
      <type>CNTRY</type>
      <id>FIPS:US</id>
      <displayName>United States</displayName>
    </locationLabels>
    <coverage>0.3445</coverage>
  </station>
  <station>
    <id>GHCND:USC00417921</id>
    <displayName>SALT FLAT 10 ENE, TX US</displayName>
    <minDate>1959-01-01</minDate>
    <maxDate>1977-12-31</maxDate>
    <latitude>31.78333</latitude>
    <longitude>-104.9</longitude>
    <elevation>1186</elevation>
    <locationLabels>
      <type>CNTRY</type>
      <id>FIPS:US</id>
      <displayName>United States</displayName>
    </locationLabels>
    <coverage>0.9951</coverage>
  </station>
  <station>
    <id>GHCND:USC00417920</id>
    <displayName>SALT FLAT, TX US</displayName>
    <minDate>1978-10-01</minDate>
    <maxDate>1998-08-31</maxDate>
    <latitude>31.7455</latitude>
    <longitude>-105.08044</longitude>
    <elevation>1134.5</elevation>
    <locationLabels>
      <type>CNTRY</type>
      <id>FIPS:US</id>
      <displayName>United States</displayName>
    </locationLabels>
    <coverage>0.96</coverage>
  </station>
  <station>
    <id>GHCND:USW00023059</id>
    <displayName>SALT FLAT, TX US</displayName>
    <minDate>1946-05-29</minDate>
    <maxDate>1957-12-31</maxDate>
    <latitude>31.75</latitude>
    <longitude>-105.08333</longitude>
    <elevation>1132.9</elevation>
    <locationLabels>
      <type>CNTRY</type>
      <id>FIPS:US</id>
      <displayName>United States</displayName>
    </locationLabels>
    <coverage>0.8621</coverage>
  </station>
  <station>
    <id>GHCND:USC00297775</id>
    <displayName>SALT LAKE 4 NE, NM US</displayName>
    <minDate>1951-09-01</minDate>
    <maxDate>1962-03-31</maxDate>
    <latitude>34.46667</latitude>
    <longitude>-108.7</longitude>
    <elevation>2007.1</elevation>
    <locationLabels>
      <type>CNTRY</type>
      <id>FIPS:US</id>
      <displayName>United States</displayName>
    </locationLabels>
    <coverage>0.9793</coverage>
  </station>
  <station>
    <id>GHCND:US1UTSL0085</id>
    <displayName>SALT LAKE CITY 0.7 NNW, UT US</displayName>
    <minDate>2010-08-12</minDate>
    <maxDate>2011-04-16</maxDate>
    <latitude>40.7871</latitude>
    <longitude>-111.9329</longitude>
    <elevation>1286</elevation>
    <locationLabels>
      <type>CNTRY</type>
      <id>FIPS:US</id>
      <displayName>United States</displayName>
    </locationLabels>
    <coverage>0.996</coverage>
  </station>
  <station>
    <id>GHCND:US1UTSL0079</id>
    <displayName>SALT LAKE CITY 1.8 SE, UT US</displayName>
    <minDate>2010-02-11</minDate>
    <maxDate>2013-01-13</maxDate>
    <latitude>40.744</latitude>
    <longitude>-111.864</longitude>
    <elevation>1325</elevation>
    <locationLabels>
      <type>CNTRY</type>
      <id>FIPS:US</id>
      <displayName>United States</displayName>
    </locationLabels>
    <coverage>0.9635</coverage>
  </station>
  <station>
    <id>GHCND:US1UTSL0078</id>
    <displayName>SALT LAKE CITY 2.1 NE, UT US</displayName>
    <minDate>2009-12-11</minDate>
    <maxDate>2013-01-12</maxDate>
    <latitude>40.7889</latitude>
    <longitude>-111.8733</longitude>
    <elevation>1550.8</elevation>
    <locationLabels>
      <type>CNTRY</type>
      <id>FIPS:US</id>
      <displayName>United States</displayName>
    </locationLabels>
    <coverage>0.3091</coverage>
  </station>
  <station>
    <id>GHCND:US1UTSL0041</id>
    <displayName>SALT LAKE CITY 2.1 SE, UT US</displayName>
    <minDate>2008-07-01</minDate>
    <maxDate>2013-01-16</maxDate>
    <latitude>40.7447</latitude>
    <longitude>-111.8677</longitude>
    <elevation>1311.6</elevation>
    <locationLabels>
      <type>CNTRY</type>
      <id>FIPS:US</id>
      <displayName>United States</displayName>
    </locationLabels>
    <coverage>0.9952</coverage>
  </station>
  <station>
    <id>GHCND:US1UTSL0047</id>
    <displayName>SALT LAKE CITY 3.3 E, UT US</displayName>
    <minDate>2008-08-25</minDate>
    <maxDate>2013-01-01</maxDate>
    <latitude>40.7751</latitude>
    <longitude>-111.8664</longitude>
    <elevation>1392.3</elevation>
    <locationLabels>
      <type>CNTRY</type>
      <id>FIPS:US</id>
      <displayName>United States</displayName>
    </locationLabels>
    <coverage>0.7404</coverage>
  </station>
  <station>
    <id>GHCND:US1UTSL0074</id>
    <displayName>SALT LAKE CITY 3.6 SE, UT US</displayName>
    <minDate>2009-11-16</minDate>
    <maxDate>2013-01-16</maxDate>
    <latitude>40.7336</latitude>
    <longitude>-111.8332</longitude>
    <elevation>1399</elevation>
    <locationLabels>
      <type>CNTRY</type>
      <id>FIPS:US</id>
      <displayName>United States</displayName>
    </locationLabels>
    <coverage>0.962</coverage>
  </station>
  <station>
    <id>GHCND:US1UTSL0092</id>
    <displayName>SALT LAKE CITY 4.5 SE, UT US</displayName>
    <minDate>2012-01-01</minDate>
    <maxDate>2013-01-16</maxDate>
    <latitude>40.7223</latitude>
    <longitude>-111.8171</longitude>
    <elevation>1443.2</elevation>
    <locationLabels>
      <type>CNTRY</type>
      <id>FIPS:US</id>
      <displayName>United States</displayName>
    </locationLabels>
    <coverage>0.9319</coverage>
  </station>
  <station>
    <id>GHCND:US1UTSL0055</id>
    <displayName>SALT LAKE CITY 4.9 SE, UT US</displayName>
    <minDate>2009-02-07</minDate>
    <maxDate>2012-12-28</maxDate>
    <latitude>40.7205</latitude>
    <longitude>-111.8245</longitude>
    <elevation>1404.5</elevation>
    <locationLabels>
      <type>CNTRY</type>
      <id>FIPS:US</id>
      <displayName>United States</displayName>
    </locationLabels>
    <coverage>0.9733</coverage>
  </station>
  <station>
    <id>GHCND:US1UTSL0029</id>
    <displayName>SALT LAKE CITY 8.3 ENE, UT US</displayName>
    <minDate>2008-07-08</minDate>
    <maxDate>2008-12-22</maxDate>
    <latitude>40.7773</latitude>
    <longitude>-111.7299</longitude>
    <elevation>1725.8</elevation>
    <locationLabels>
      <type>CNTRY</type>
      <id>FIPS:US</id>
      <displayName>United States</displayName>
    </locationLabels>
    <coverage>0.994</coverage>
  </station>
  <station>
    <id>GHCND:USC00427655</id>
    <displayName>SALT LAKE CITY E BENCH, UT US</displayName>
    <minDate>1990-06-01</minDate>
    <maxDate>2005-01-31</maxDate>
    <latitude>40.73639</latitude>
    <longitude>-111.81722</longitude>
    <elevation>1478.3</elevation>
    <locationLabels>
      <type>CNTRY</type>
      <id>FIPS:US</id>
      <displayName>United States</displayName>
    </locationLabels>
    <coverage>0.9116</coverage>
  </station>
  <station>
    <id>GHCND:USW00024127</id>
    <displayName>SALT LAKE CITY INTERNATIONAL AIRPORT, UT US</displayName>
    <minDate>1948-01-01</minDate>
    <maxDate>2013-01-15</maxDate>
    <latitude>40.7781</latitude>
    <longitude>-111.9694</longitude>
    <elevation>1287.8</elevation>
    <locationLabels>
      <type>CNTRY</type>
      <id>FIPS:US</id>
      <displayName>United States</displayName>
    </locationLabels>
    <coverage>0.9998</coverage>
  </station>
  <station>
    <id>GHCND:USC00427608</id>
    <displayName>SALT LAKE CITY SUBURBAN SEWAGE PLANT, UT US</displayName>
    <minDate>1966-08-01</minDate>
    <maxDate>1978-12-31</maxDate>
    <latitude>40.7</latitude>
    <longitude>-111.91667</longitude>
    <elevation>1293</elevation>
    <locationLabels>
      <type>CNTRY</type>
      <id>FIPS:US</id>
      <displayName>United States</displayName>
    </locationLabels>
    <coverage>0.9894</coverage>
  </station>
  <station>
    <id>GHCND:USC00420302</id>
    <displayName>SALT LAKE CITY SUBURBAN SEWAGE PLANT, UT US</displayName>
    <minDate>1950-01-01</minDate>
    <maxDate>1966-04-30</maxDate>
    <latitude>40.7</latitude>
    <longitude>-111.91667</longitude>
    <elevation>1293</elevation>
    <locationLabels>
      <type>CNTRY</type>
      <id>FIPS:US</id>
      <displayName>United States</displayName>
    </locationLabels>
    <coverage>0.9836</coverage>
  </station>
  <station>
    <id>GHCND:USW00024175</id>
    <displayName>SALT LAKE CITY, UT US</displayName>
    <minDate>1928-01-02</minDate>
    <maxDate>1954-07-31</maxDate>
    <latitude>40.76667</latitude>
    <longitude>-111.88333</longitude>
    <elevation>1311.9</elevation>
    <locationLabels>
      <type>CNTRY</type>
      <id>FIPS:US</id>
      <displayName>United States</displayName>
    </locationLabels>
    <coverage>0.9999</coverage>
  </station>
  <station>
    <id>GHCND:USC00427606</id>
    <displayName>SALT LAKE TRIAD CTR, UT US</displayName>
    <minDate>1985-05-01</minDate>
    <maxDate>2013-01-15</maxDate>
    <latitude>40.7708</latitude>
    <longitude>-111.8963</longitude>
    <elevation>1304.5</elevation>
    <locationLabels>
      <type>CNTRY</type>
      <id>FIPS:US</id>
      <displayName>United States</displayName>
    </locationLabels>
    <coverage>0.9544</coverage>
  </station>
  <station>
    <id>GHCND:USW00012968</id>
    <displayName>SALT POINT, LA US</displayName>
    <minDate>1998-05-04</minDate>
    <maxDate>2013-01-13</maxDate>
    <latitude>29.56222</latitude>
    <longitude>-91.52556</longitude>
    <elevation>1.2</elevation>
    <locationLabels>
      <type>CNTRY</type>
      <id>FIPS:US</id>
      <displayName>United States</displayName>
    </locationLabels>
    <coverage>0.9095</coverage>
  </station>
  <station>
    <id>GHCND:USS0010G08S</id>
    <displayName>SALT RIVER SUMMIT, WY US</displayName>
    <minDate>1980-10-11</minDate>
    <maxDate>2013-01-13</maxDate>
    <latitude>42.5167</latitude>
    <longitude>-110.9167</longitude>
    <elevation>2316.5</elevation>
    <locationLabels>
      <type>CNTRY</type>
      <id>FIPS:US</id>
      <displayName>United States</displayName>
    </locationLabels>
    <coverage>0.882</coverage>
  </station>
  <station>
    <id>GHCND:USC00027466</id>
    <displayName>SALT RIVER, AZ US</displayName>
    <minDate>1941-06-12</minDate>
    <maxDate>1966-02-28</maxDate>
    <latitude>33.8</latitude>
    <longitude>-110.5</longitude>
    <elevation>1100.9</elevation>
    <locationLabels>
      <type>CNTRY</type>
      <id>FIPS:US</id>
      <displayName>United States</displayName>
    </locationLabels>
    <coverage>0.679</coverage>
  </station>
  <station>
    <id>GHCND:USC00047689</id>
    <displayName>SALT SPRINGS PH, CA US</displayName>
    <minDate>1943-01-01</minDate>
    <maxDate>1998-11-30</maxDate>
    <latitude>38.50056</latitude>
    <longitude>-120.21889</longitude>
    <elevation>1127.8</elevation>
    <locationLabels>
      <type>CNTRY</type>
      <id>FIPS:US</id>
      <displayName>United States</displayName>
    </locationLabels>
    <coverage>0.9423</coverage>
  </station>
  <station>
    <id>GHCND:USC00427578</id>
    <displayName>SALTAIR SALT PLANT, UT US</displayName>
    <minDate>1956-05-07</minDate>
    <maxDate>1991-08-31</maxDate>
    <latitude>40.76667</latitude>
    <longitude>-112.11667</longitude>
    <elevation>1283.2</elevation>
    <locationLabels>
      <type>CNTRY</type>
      <id>FIPS:US</id>
      <displayName>United States</displayName>
    </locationLabels>
    <coverage>0.976</coverage>
  </station>
  <station>
    <id>GHCND:USC00427576</id>
    <displayName>SALTAIR, UT US</displayName>
    <minDate>1903-07-01</minDate>
    <maxDate>1942-11-30</maxDate>
    <latitude>40.78333</latitude>
    <longitude>-112.16667</longitude>
    <elevation>1284.1</elevation>
    <locationLabels>
      <type>CNTRY</type>
      <id>FIPS:US</id>
      <displayName>United States</displayName>
    </locationLabels>
    <coverage>0.8837</coverage>
  </station>
  <station>
    <id>GHCND:USR0000CSAL</id>
    <displayName>SALTER COLORADO, CO US</displayName>
    <minDate>1990-04-25</minDate>
    <maxDate>2012-08-31</maxDate>
    <latitude>37.6511</latitude>
    <longitude>-108.5364</longitude>
    <elevation>2484.1</elevation>
    <locationLabels>
      <type>CNTRY</type>
      <id>FIPS:US</id>
      <displayName>United States</displayName>
    </locationLabels>
    <coverage>0.8921</coverage>
  </station>
  <station>
    <id>GHCND:USC00247332</id>
    <displayName>SALTESE, MT US</displayName>
    <minDate>1904-11-01</minDate>
    <maxDate>1909-12-31</maxDate>
    <latitude>47.433333</latitude>
    <longitude>-115.5</longitude>
    <elevation>1097.3</elevation>
    <locationLabels>
      <type>CNTRY</type>
      <id>FIPS:US</id>
      <displayName>United States</displayName>
    </locationLabels>
    <coverage>0.9836</coverage>
  </station>
  <station>
    <id>GHCND:RQC00668684</id>
    <displayName>SALTILLO 2 ADJUNTAS, PR US</displayName>
    <minDate>1981-05-01</minDate>
    <maxDate>1991-12-31</maxDate>
    <latitude>18.13333</latitude>
    <longitude>-66.73333</longitude>
    <elevation>868.7</elevation>
    <locationLabels>
      <type>CNTRY</type>
      <id>FIPS:US</id>
      <displayName>United States</displayName>
    </locationLabels>
    <coverage>0.9995</coverage>
  </station>
  <station>
    <id>GHCND:US1MSLE0003</id>
    <displayName>SALTILLO 4.0 WNW, MS US</displayName>
    <minDate>2010-03-11</minDate>
    <maxDate>2013-01-16</maxDate>
    <latitude>34.4127</latitude>
    <longitude>-88.749</longitude>
    <elevation>100.9</elevation>
    <locationLabels>
      <type>CNTRY</type>
      <id>FIPS:US</id>
      <displayName>United States</displayName>
    </locationLabels>
    <coverage>0.2857</coverage>
  </station>
  <station>
    <id>GHCND:USW00093118</id>
    <displayName>SALTON SEA NAAF, CA US</displayName>
    <minDate>1945-04-01</minDate>
    <maxDate>1945-10-31</maxDate>
    <latitude>33.2</latitude>
    <longitude>-115.83333</longitude>
    <elevation>-68.9</elevation>
    <locationLabels>
      <type>CNTRY</type>
      <id>FIPS:US</id>
      <displayName>United States</displayName>
    </locationLabels>
    <coverage>0.9626</coverage>
  </station>
  <station>
    <id>GHCND:USC00367796</id>
    <displayName>SALTSBURG, PA US</displayName>
    <minDate>1893-01-01</minDate>
    <maxDate>1952-08-31</maxDate>
    <latitude>40.45</latitude>
    <longitude>-79.48333</longitude>
    <elevation>259.1</elevation>
    <locationLabels>
      <type>CNTRY</type>
      <id>FIPS:US</id>
      <displayName>United States</displayName>
    </locationLabels>
    <coverage>0.8617</coverage>
  </station>
  <station>
    <id>GHCND:USC00447506</id>
    <displayName>SALTVILLE 1 N, VA US</displayName>
    <minDate>1894-12-01</minDate>
    <maxDate>2013-01-16</maxDate>
    <latitude>36.8894</latitude>
    <longitude>-81.7711</longitude>
    <elevation>528.2</elevation>
    <locationLabels>
      <type>CNTRY</type>
      <id>FIPS:US</id>
      <displayName>United States</displayName>
    </locationLabels>
    <coverage>0.4614</coverage>
  </station>
  <station>
    <id>GHCND:US1VASM0003</id>
    <displayName>SALTVILLE 1.8 SE, VA US</displayName>
    <minDate>2009-10-08</minDate>
    <maxDate>2010-10-29</maxDate>
    <latitude>36.8535</latitude>
    <longitude>-81.7433</longitude>
    <elevation>633.4</elevation>
    <locationLabels>
      <type>CNTRY</type>
      <id>FIPS:US</id>
      <displayName>United States</displayName>
    </locationLabels>
    <coverage>0.801</coverage>
  </station>
  <station>
    <id>GHCND:US1VASM0002</id>
    <displayName>SALTVILLE 2.2 SE, VA US</displayName>
    <minDate>2009-10-09</minDate>
    <maxDate>2010-10-29</maxDate>
    <latitude>36.8565</latitude>
    <longitude>-81.7294</longitude>
    <elevation>646.8</elevation>
    <locationLabels>
      <type>CNTRY</type>
      <id>FIPS:US</id>
      <displayName>United States</displayName>
    </locationLabels>
    <coverage>0.4974</coverage>
  </station>
  <station>
    <id>GHCND:US1VAWH0007</id>
    <displayName>SALTVILLE 7.4 W, VA US</displayName>
    <minDate>2009-08-24</minDate>
    <maxDate>2010-11-05</maxDate>
    <latitude>36.8598</latitude>
    <longitude>-81.895</longitude>
    <elevation>519.4</elevation>
    <locationLabels>
      <type>CNTRY</type>
      <id>FIPS:US</id>
      <displayName>United States</displayName>
    </locationLabels>
    <coverage>0.4419</coverage>
  </station>
  <station>
    <id>GHCND:USC00447501</id>
    <displayName>SALTVILLE, VA US</displayName>
    <minDate>1930-01-01</minDate>
    <maxDate>1962-03-31</maxDate>
    <latitude>36.88333</latitude>
    <longitude>-81.76667</longitude>
    <elevation>524.9</elevation>
    <locationLabels>
      <type>CNTRY</type>
      <id>FIPS:US</id>
      <displayName>United States</displayName>
    </locationLabels>
    <coverage>0.9881</coverage>
  </station>
  <station>
    <id>GHCND:US1NCPK0006</id>
    <displayName>SALUDA 0.5 N, NC US</displayName>
    <minDate>2008-02-01</minDate>
    <maxDate>2013-01-16</maxDate>
    <latitude>35.2454</latitude>
    <longitude>-82.3493</longitude>
    <elevation>646.8</elevation>
    <locationLabels>
      <type>CNTRY</type>
      <id>FIPS:US</id>
      <displayName>United States</displayName>
    </locationLabels>
    <coverage>0.8775</coverage>
  </station>
  <station>
    <id>GHCND:US1SCSL0006</id>
    <displayName>SALUDA 3.5 ENE, SC US</displayName>
    <minDate>2010-07-01</minDate>
    <maxDate>2013-01-16</maxDate>
    <latitude>34.019</latitude>
    <longitude>-81.7153</longitude>
    <elevation>123.7</elevation>
    <locationLabels>
      <type>CNTRY</type>
      <id>FIPS:US</id>
      <displayName>United States</displayName>
    </locationLabels>
    <coverage>0.9259</coverage>
  </station>
  <station>
    <id>GHCND:US1SCSL0002</id>
    <displayName>SALUDA 6.1 SW, SC US</displayName>
    <minDate>2008-05-01</minDate>
    <maxDate>2013-01-16</maxDate>
    <latitude>33.9465</latitude>
    <longitude>-81.8558</longitude>
    <elevation>160</elevation>
    <locationLabels>
      <type>CNTRY</type>
      <id>FIPS:US</id>
      <displayName>United States</displayName>
    </locationLabels>
    <coverage>0.9785</coverage>
  </station>
  <station>
    <id>GHCND:USC00387631</id>
    <displayName>SALUDA, SC US</displayName>
    <minDate>1902-04-01</minDate>
    <maxDate>2013-01-16</maxDate>
    <latitude>33.99778</latitude>
    <longitude>-81.77472</longitude>
    <elevation>146.3</elevation>
    <locationLabels>
      <type>CNTRY</type>
      <id>FIPS:US</id>
      <displayName>United States</displayName>
    </locationLabels>
    <coverage>0.9412</coverage>
  </station>
  <station>
    <id>GHCND:USC00447514</id>
    <displayName>SALUDA, VA US</displayName>
    <minDate>1893-01-01</minDate>
    <maxDate>1951-01-31</maxDate>
    <latitude>37.6</latitude>
    <longitude>-76.6</longitude>
    <elevation>34.1</elevation>
    <locationLabels>
      <type>CNTRY</type>
      <id>FIPS:US</id>
      <displayName>United States</displayName>
    </locationLabels>
    <coverage>0.1526</coverage>
  </station>
  <station>
    <id>GHCND:US1PALN0013</id>
    <displayName>SALUNGA LANDISVILLE 1.1 SSE, PA US</displayName>
    <minDate>2012-05-17</minDate>
    <maxDate>2013-01-16</maxDate>
    <latitude>40.077</latitude>
    <longitude>-76.4117</longitude>
    <elevation>121</elevation>
    <locationLabels>
      <type>CNTRY</type>
      <id>FIPS:US</id>
      <displayName>United States</displayName>
    </locationLabels>
    <coverage>0.9184</coverage>
  </station>
  <station>
    <id>GHCND:USC00157121</id>
    <displayName>SALVISA LOCK 6, KY US</displayName>
    <minDate>1893-01-01</minDate>
    <maxDate>1981-02-28</maxDate>
    <latitude>37.93333</latitude>
    <longitude>-84.81667</longitude>
    <elevation>149</elevation>
    <locationLabels>
      <type>CNTRY</type>
      <id>FIPS:US</id>
      <displayName>United States</displayName>
    </locationLabels>
    <coverage>0.6477</coverage>
  </station>
  <station>
    <id>GHCND:US1NCDR0015</id>
    <displayName>SALVO 0.9 NNE, NC US</displayName>
    <minDate>2012-03-30</minDate>
    <maxDate>2013-01-16</maxDate>
    <latitude>35.5518</latitude>
    <longitude>-75.468</longitude>
    <elevation>0.9</elevation>
    <locationLabels>
      <type>CNTRY</type>
      <id>FIPS:US</id>
      <displayName>United States</displayName>
    </locationLabels>
    <coverage>0.8737</coverage>
  </station>
  <station>
    <id>GHCND:US1CATY0018</id>
    <displayName>SALYER 1.4 ESE, CA US</displayName>
    <minDate>2009-08-24</minDate>
    <maxDate>2012-07-05</maxDate>
    <latitude>40.8873</latitude>
    <longitude>-123.5593</longitude>
    <elevation>212.1</elevation>
    <locationLabels>
      <type>CNTRY</type>
      <id>FIPS:US</id>
      <displayName>United States</displayName>
    </locationLabels>
    <coverage>0.9093</coverage>
  </station>
  <station>
    <id>GHCND:USC00047698</id>
    <displayName>SALYER RANGER STATION, CA US</displayName>
    <minDate>1943-11-01</minDate>
    <maxDate>1968-11-30</maxDate>
    <latitude>40.88333</latitude>
    <longitude>-123.58333</longitude>
    <elevation>189</elevation>
    <locationLabels>
      <type>CNTRY</type>
      <id>FIPS:US</id>
      <displayName>United States</displayName>
    </locationLabels>
    <coverage>0.9477</coverage>
  </station>
  <station>
    <id>GHCND:USC00157129</id>
    <displayName>SALYERSVILLE 1 W, KY US</displayName>
    <minDate>1948-08-01</minDate>
    <maxDate>2010-01-04</maxDate>
    <latitude>37.75</latitude>
    <longitude>-83.08333</longitude>
    <elevation>277.4</elevation>
    <locationLabels>
      <type>CNTRY</type>
      <id>FIPS:US</id>
      <displayName>United States</displayName>
    </locationLabels>
    <coverage>0.0905</coverage>
  </station>
  <station>
    <id>GHCND:USC00157134</id>
    <displayName>SALYERSVILLE NUMBER 2, KY US</displayName>
    <minDate>1952-09-01</minDate>
    <maxDate>1999-05-31</maxDate>
    <latitude>37.73333</latitude>
    <longitude>-83.01667</longitude>
    <elevation>280.4</elevation>
    <locationLabels>
      <type>CNTRY</type>
      <id>FIPS:US</id>
      <displayName>United States</displayName>
    </locationLabels>
    <coverage>0.9549</coverage>
  </station>
  <station>
    <id>GHCND:USC00417936</id>
    <displayName>SAM RAYBURN DAM, TX US</displayName>
    <minDate>1968-01-01</minDate>
    <maxDate>2013-01-16</maxDate>
    <latitude>31.0619</latitude>
    <longitude>-94.1011</longitude>
    <elevation>57.6</elevation>
    <locationLabels>
      <type>CNTRY</type>
      <id>FIPS:US</id>
      <displayName>United States</displayName>
    </locationLabels>
    <coverage>0.9958</coverage>
  </station>
  <station>
    <id>GHCND:USC00357519</id>
    <displayName>SAM S VALLEY, OR US</displayName>
    <minDate>1917-06-01</minDate>
    <maxDate>1920-12-31</maxDate>
    <latitude>42.366667</latitude>
    <longitude>-123.033333</longitude>
    <elevation>396.2</elevation>
    <locationLabels>
      <type>CNTRY</type>
      <id>FIPS:US</id>
      <displayName>United States</displayName>
    </locationLabels>
    <coverage>0.6351</coverage>
  </station>
  <station>
    <id>GHCND:USC00207320</id>
    <displayName>SAMARIA, MI US</displayName>
    <minDate>2004-12-01</minDate>
    <maxDate>2012-10-07</maxDate>
    <latitude>41.8069</latitude>
    <longitude>-83.583</longitude>
    <elevation>198.7</elevation>
    <locationLabels>
      <type>CNTRY</type>
      <id>FIPS:US</id>
      <displayName>United States</displayName>
    </locationLabels>
    <coverage>0.8877</coverage>
  </station>
  <station>
    <id>GHCND:USC00408065</id>
    <displayName>SAMBURG WILDLIFE REF, TN US</displayName>
    <minDate>1924-05-01</minDate>
    <maxDate>2013-01-15</maxDate>
    <latitude>36.4527</latitude>
    <longitude>-89.3027</longitude>
    <elevation>94.5</elevation>
    <locationLabels>
      <type>CNTRY</type>
      <id>FIPS:US</id>
      <displayName>United States</displayName>
    </locationLabels>
    <coverage>0.9636</coverage>
  </station>
  <station>
    <id>GHCND:US1WAKG0122</id>
    <displayName>SAMMAMISH 1.7 NNE, WA US</displayName>
    <minDate>2009-05-20</minDate>
    <maxDate>2013-01-16</maxDate>
    <latitude>47.633</latitude>
    <longitude>-122.0308</longitude>
    <elevation>119.8</elevation>
    <locationLabels>
      <type>CNTRY</type>
      <id>FIPS:US</id>
      <displayName>United States</displayName>
    </locationLabels>
    <coverage>0.9836</coverage>
  </station>
  <station>
    <id>GHCND:USC00317630</id>
    <displayName>SAMS GAP, NC US</displayName>
    <minDate>1899-08-27</minDate>
    <maxDate>1953-10-31</maxDate>
    <latitude>35.95</latitude>
    <longitude>-82.56667</longitude>
    <elevation>1125</elevation>
    <locationLabels>
      <type>CNTRY</type>
      <id>FIPS:US</id>
      <displayName>United States</displayName>
    </locationLabels>
    <coverage>0.0878</coverage>
  </station>
  <station>
    <id>GHCND:USC00168230</id>
    <displayName>SAMSTOWN, LA US</displayName>
    <minDate>2006-01-01</minDate>
    <maxDate>2009-10-31</maxDate>
    <latitude>30.12167</latitude>
    <longitude>-91.15806</longitude>
    <elevation>4.6</elevation>
    <locationLabels>
      <type>CNTRY</type>
      <id>FIPS:US</id>
      <displayName>United States</displayName>
    </locationLabels>
    <coverage>0.9557</coverage>
  </station>
  <station>
    <id>GHCND:USC00047702</id>
    <displayName>SAN ANDREAS 2 S, CA US</displayName>
    <minDate>1948-07-03</minDate>
    <maxDate>1977-06-30</maxDate>
    <latitude>38.16667</latitude>
    <longitude>-120.66667</longitude>
    <elevation>253</elevation>
    <locationLabels>
      <type>CNTRY</type>
      <id>FIPS:US</id>
      <displayName>United States</displayName>
    </locationLabels>
    <coverage>0.9694</coverage>
  </station>
  <station>
    <id>GHCND:US1TXTG0009</id>
    <displayName>SAN ANGELO 10.4 E, TX US</displayName>
    <minDate>2009-03-09</minDate>
    <maxDate>2011-07-04</maxDate>
    <latitude>31.4255</latitude>
    <longitude>-100.2784</longitude>
    <elevation>553.5</elevation>
    <locationLabels>
      <type>CNTRY</type>
      <id>FIPS:US</id>
      <displayName>United States</displayName>
    </locationLabels>
    <coverage>0.9599</coverage>
  </station>
  <station>
    <id>GHCND:USC00417938</id>
    <displayName>SAN ANGELO 15 WNW, TX US</displayName>
    <minDate>2006-07-01</minDate>
    <maxDate>2007-03-31</maxDate>
    <latitude>31.49194</latitude>
    <longitude>-100.69806</longitude>
    <elevation>661.7</elevation>
    <locationLabels>
      <type>CNTRY</type>
      <id>FIPS:US</id>
      <displayName>United States</displayName>
    </locationLabels>
    <coverage>0.9635</coverage>
  </station>
  <station>
    <id>GHCND:US1TXTG0016</id>
    <displayName>SAN ANGELO 2.2 WSW, TX US</displayName>
    <minDate>2011-10-01</minDate>
    <maxDate>2013-01-09</maxDate>
    <latitude>31.4318</latitude>
    <longitude>-100.4853</longitude>
    <elevation>573.3</elevation>
    <locationLabels>
      <type>CNTRY</type>
      <id>FIPS:US</id>
      <displayName>United States</displayName>
    </locationLabels>
    <coverage>0.9786</coverage>
  </station>
  <station>
    <id>GHCND:US1TXTG0011</id>
    <displayName>SAN ANGELO 3.8 W, TX US</displayName>
    <minDate>2010-09-25</minDate>
    <maxDate>2013-01-16</maxDate>
    <latitude>31.4476</latitude>
    <longitude>-100.5166</longitude>
    <elevation>596.2</elevation>
    <locationLabels>
      <type>CNTRY</type>
      <id>FIPS:US</id>
      <displayName>United States</displayName>
    </locationLabels>
    <coverage>0.497</coverage>
  </station>
  <station>
    <id>GHCND:US1TXTG0031</id>
    <displayName>SAN ANGELO 3.9 SW, TX US</displayName>
    <minDate>2012-06-05</minDate>
    <maxDate>2012-09-30</maxDate>
    <latitude>31.4097</latitude>
    <longitude>-100.5028</longitude>
    <elevation>598.3</elevation>
    <locationLabels>
      <type>CNTRY</type>
      <id>FIPS:US</id>
      <displayName>United States</displayName>
    </locationLabels>
    <coverage>0.9661</coverage>
  </station>
  <station>
    <id>GHCND:US1TXTG0015</id>
    <displayName>SAN ANGELO 3.9 WNW, TX US</displayName>
    <minDate>2011-09-30</minDate>
    <maxDate>2013-01-08</maxDate>
    <latitude>31.4632</latitude>
    <longitude>-100.5155</longitude>
    <elevation>606.2</elevation>
    <locationLabels>
      <type>CNTRY</type>
      <id>FIPS:US</id>
      <displayName>United States</displayName>
    </locationLabels>
    <coverage>0.3212</coverage>
  </station>
  <station>
    <id>GHCND:USC00417942</id>
    <displayName>SAN ANGELO 4 NE, TX US</displayName>
    <minDate>1953-08-01</minDate>
    <maxDate>1955-03-31</maxDate>
    <latitude>31.51667</latitude>
    <longitude>-100.38333</longitude>
    <elevation>580</elevation>
    <locationLabels>
      <type>CNTRY</type>
      <id>FIPS:US</id>
      <displayName>United States</displayName>
    </locationLabels>
    <coverage>0.7977</coverage>
  </station>
  <station>
    <id>GHCND:US1TXTG0014</id>
    <displayName>SAN ANGELO 4.6 NE, TX US</displayName>
    <minDate>2011-09-24</minDate>
    <maxDate>2012-04-08</maxDate>
    <latitude>31.4845</latitude>
    <longitude>-100.3897</longitude>
    <elevation>563.9</elevation>
    <locationLabels>
      <type>CNTRY</type>
      <id>FIPS:US</id>
      <displayName>United States</displayName>
    </locationLabels>
    <coverage>0.8485</coverage>
  </station>
  <station>
    <id>GHCND:USW00023017</id>
    <displayName>SAN ANGELO GOODFELLOW AFB, TX US</displayName>
    <minDate>1946-01-01</minDate>
    <maxDate>1958-08-28</maxDate>
    <latitude>31.4</latitude>
    <longitude>-100.4</longitude>
    <elevation>573</elevation>
    <locationLabels>
      <type>CNTRY</type>
      <id>FIPS:US</id>
      <displayName>United States</displayName>
    </locationLabels>
    <coverage>0.9342</coverage>
  </station>
  <station>
    <id>GHCND:USW00023034</id>
    <displayName>SAN ANGELO MATHIS FIELD, TX US</displayName>
    <minDate>1907-08-01</minDate>
    <maxDate>2013-01-15</maxDate>
    <latitude>31.35167</latitude>
    <longitude>-100.495</longitude>
    <elevation>584</elevation>
    <locationLabels>
      <type>CNTRY</type>
      <id>FIPS:US</id>
      <displayName>United States</displayName>
    </locationLabels>
    <coverage>0.9637</coverage>
  </station>
  <station>
    <id>GHCND:USC00417944</id>
    <displayName>SAN ANGELO WEATHER FORECAST OFFICE, TX US</displayName>
    <minDate>1947-11-01</minDate>
    <maxDate>2013-01-16</maxDate>
    <latitude>31.3705</latitude>
    <longitude>-100.4941</longitude>
    <elevation>579.1</elevation>
    <locationLabels>
      <type>CNTRY</type>
      <id>FIPS:US</id>
      <displayName>United States</displayName>
    </locationLabels>
    <coverage>0.1589</coverage>
  </station>
  <station>
    <id>GHCND:US1CAMR0005</id>
    <displayName>SAN ANSELMO 0.4 NE, CA US</displayName>
    <minDate>2008-10-31</minDate>
    <maxDate>2012-12-31</maxDate>
    <latitude>37.9872</latitude>
    <longitude>-122.5643</longitude>
    <elevation>32.6</elevation>
    <locationLabels>
      <type>CNTRY</type>
      <id>FIPS:US</id>
      <displayName>United States</displayName>
    </locationLabels>
    <coverage>0.9291</coverage>
  </station>
  <station>
    <id>GHCND:US1CAMR0003</id>
    <displayName>SAN ANSELMO 1.2 NNW, CA US</displayName>
    <minDate>2008-10-31</minDate>
    <maxDate>2013-01-15</maxDate>
    <latitude>37.9971</latitude>
    <longitude>-122.5805</longitude>
    <elevation>112.8</elevation>
    <locationLabels>
      <type>CNTRY</type>
      <id>FIPS:US</id>
      <displayName>United States</displayName>
    </locationLabels>
    <coverage>0.9454</coverage>
  </station>
  <station>
    <id>GHCND:USC00297803</id>
    <displayName>SAN ANTONE RANGER STATION, NM US</displayName>
    <minDate>1917-02-01</minDate>
    <maxDate>1928-09-30</maxDate>
    <latitude>36.86667</latitude>
    <longitude>-106.15</longitude>
    <elevation>2712.7</elevation>
    <locationLabels>
      <type>CNTRY</type>
      <id>FIPS:US</id>
      <displayName>United States</displayName>
    </locationLabels>
    <coverage>0.7838</coverage>
  </station>
  <station>
    <id>GHCND:US1TXBXR207</id>
    <displayName>SAN ANTONIO 10.1 S, TX US</displayName>
    <minDate>2012-07-04</minDate>
    <maxDate>2013-01-16</maxDate>
    <latitude>29.3126</latitude>
    <longitude>-98.5248</longitude>
    <elevation>184.4</elevation>
    <locationLabels>
      <type>CNTRY</type>
      <id>FIPS:US</id>
      <displayName>United States</displayName>
    </locationLabels>
    <coverage>0.8731</coverage>
  </station>
  <station>
    <id>GHCND:US1TXBXR169</id>
    <displayName>SAN ANTONIO 10.8 S, TX US</displayName>
    <minDate>2010-08-01</minDate>
    <maxDate>2013-01-15</maxDate>
    <latitude>29.3032</latitude>
    <longitude>-98.4791</longitude>
    <elevation>173.1</elevation>
    <locationLabels>
      <type>CNTRY</type>
      <id>FIPS:US</id>
      <displayName>United States</displayName>
    </locationLabels>
    <coverage>0.9566</coverage>
  </station>
</stationCollection>
