<?xml version="1.0" encoding="UTF-8" standalone="yes"?>
<stationCollection totalCount="46020" pageCount="461" pageSize="100" page="380">
  <station>
    <id>GHCND:US1WAKG0033</id>
    <displayName>SHERIDAN BEACH 3.7 S, WA US</displayName>
    <minDate>2008-06-22</minDate>
    <maxDate>2013-01-16</maxDate>
    <latitude>47.6924</latitude>
    <longitude>-122.298</longitude>
    <elevation>102.1</elevation>
    <locationLabels>
      <type>CNTRY</type>
      <id>FIPS:US</id>
      <displayName>United States</displayName>
    </locationLabels>
    <coverage>0.9323</coverage>
  </station>
  <station>
    <id>GHCND:USW00024029</id>
    <displayName>SHERIDAN CO AIRPORT, WY US</displayName>
    <minDate>1948-01-01</minDate>
    <maxDate>2013-01-14</maxDate>
    <latitude>44.7694</latitude>
    <longitude>-106.9688</longitude>
    <elevation>1202.4</elevation>
    <locationLabels>
      <type>CNTRY</type>
      <id>FIPS:US</id>
      <displayName>United States</displayName>
    </locationLabels>
    <coverage>0.9997</coverage>
  </station>
  <station>
    <id>GHCND:USC00488158</id>
    <displayName>SHERIDAN CREEK, WY US</displayName>
    <minDate>1915-01-01</minDate>
    <maxDate>1923-09-30</maxDate>
    <latitude>43.633333</latitude>
    <longitude>-109.916667</longitude>
    <elevation>2448.5</elevation>
    <locationLabels>
      <type>CNTRY</type>
      <id>FIPS:US</id>
      <displayName>United States</displayName>
    </locationLabels>
    <coverage>0.5274</coverage>
  </station>
  <station>
    <id>GHCND:USC00488160</id>
    <displayName>SHERIDAN FIELD STATION, WY US</displayName>
    <minDate>1920-01-01</minDate>
    <maxDate>2012-11-30</maxDate>
    <latitude>44.8405</latitude>
    <longitude>-106.8383</longitude>
    <elevation>1143</elevation>
    <locationLabels>
      <type>CNTRY</type>
      <id>FIPS:US</id>
      <displayName>United States</displayName>
    </locationLabels>
    <coverage>0.9877</coverage>
  </station>
  <station>
    <id>GHCND:USC00168405</id>
    <displayName>SHERIDAN FIRE TOWER, LA US</displayName>
    <minDate>1952-04-01</minDate>
    <maxDate>1992-10-31</maxDate>
    <latitude>30.85</latitude>
    <longitude>-89.98333</longitude>
    <elevation>100.6</elevation>
    <locationLabels>
      <type>CNTRY</type>
      <id>FIPS:US</id>
      <displayName>United States</displayName>
    </locationLabels>
    <coverage>0.9928</coverage>
  </station>
  <station>
    <id>GHCND:USC00488157</id>
    <displayName>SHERIDAN GIRLS SCHOOL, WY US</displayName>
    <minDate>1999-03-01</minDate>
    <maxDate>2008-11-20</maxDate>
    <latitude>44.76</latitude>
    <longitude>-106.9694</longitude>
    <elevation>1202.4</elevation>
    <locationLabels>
      <type>CNTRY</type>
      <id>FIPS:US</id>
      <displayName>United States</displayName>
    </locationLabels>
    <coverage>0.9648</coverage>
  </station>
  <station>
    <id>GHCND:US1COKW0010</id>
    <displayName>SHERIDAN LAKE .62 E, CO US</displayName>
    <minDate>2003-05-31</minDate>
    <maxDate>2005-05-24</maxDate>
    <latitude>38.4674</latitude>
    <longitude>-102.2807</longitude>
    <elevation>1242.1</elevation>
    <locationLabels>
      <type>CNTRY</type>
      <id>FIPS:US</id>
      <displayName>United States</displayName>
    </locationLabels>
    <coverage>0.3724</coverage>
  </station>
  <station>
    <id>GHCND:US1COKW0027</id>
    <displayName>SHERIDAN LAKE 0.2 SE, CO US</displayName>
    <minDate>2011-05-03</minDate>
    <maxDate>2013-01-15</maxDate>
    <latitude>38.4641</latitude>
    <longitude>-102.291</longitude>
    <elevation>1233.8</elevation>
    <locationLabels>
      <type>CNTRY</type>
      <id>FIPS:US</id>
      <displayName>United States</displayName>
    </locationLabels>
    <coverage>0.7212</coverage>
  </station>
  <station>
    <id>GHCND:USC00057586</id>
    <displayName>SHERIDAN LAKE 4 E, CO US</displayName>
    <minDate>2009-03-01</minDate>
    <maxDate>2013-01-16</maxDate>
    <latitude>38.46833</latitude>
    <longitude>-102.21694</longitude>
    <elevation>1231.1</elevation>
    <locationLabels>
      <type>CNTRY</type>
      <id>FIPS:US</id>
      <displayName>United States</displayName>
    </locationLabels>
    <coverage>0.9817</coverage>
  </station>
  <station>
    <id>GHCND:US1COKW0002</id>
    <displayName>SHERIDAN LAKE 5.2 S, CO US</displayName>
    <minDate>2003-04-16</minDate>
    <maxDate>2006-11-27</maxDate>
    <latitude>38.3919</latitude>
    <longitude>-102.3874</longitude>
    <elevation>1210.1</elevation>
    <locationLabels>
      <type>CNTRY</type>
      <id>FIPS:US</id>
      <displayName>United States</displayName>
    </locationLabels>
    <coverage>0.1324</coverage>
  </station>
  <station>
    <id>GHCND:USC00057582</id>
    <displayName>SHERIDAN LAKE, CO US</displayName>
    <minDate>2000-01-11</minDate>
    <maxDate>2010-03-02</maxDate>
    <latitude>38.4681</latitude>
    <longitude>-102.2946</longitude>
    <elevation>1241.1</elevation>
    <locationLabels>
      <type>CNTRY</type>
      <id>FIPS:US</id>
      <displayName>United States</displayName>
    </locationLabels>
    <coverage>0.9214</coverage>
  </station>
  <station>
    <id>GHCND:USC00488163</id>
    <displayName>SHERIDAN NUMBER 2, WY US</displayName>
    <minDate>1893-02-01</minDate>
    <maxDate>1912-01-30</maxDate>
    <latitude>44.816667</latitude>
    <longitude>-106.95</longitude>
    <elevation>1143</elevation>
    <locationLabels>
      <type>CNTRY</type>
      <id>FIPS:US</id>
      <displayName>United States</displayName>
    </locationLabels>
    <coverage>0.7228</coverage>
  </station>
  <station>
    <id>GHCND:USC00036566</id>
    <displayName>SHERIDAN TOWER, AR US</displayName>
    <minDate>1941-09-29</minDate>
    <maxDate>1977-02-28</maxDate>
    <latitude>34.45</latitude>
    <longitude>-92.35</longitude>
    <elevation>88.1</elevation>
    <locationLabels>
      <type>CNTRY</type>
      <id>FIPS:US</id>
      <displayName>United States</displayName>
    </locationLabels>
    <coverage>0.9725</coverage>
  </station>
  <station>
    <id>GHCND:USC00036562</id>
    <displayName>SHERIDAN, AR US</displayName>
    <minDate>1977-03-01</minDate>
    <maxDate>2013-01-11</maxDate>
    <latitude>34.3019</latitude>
    <longitude>-92.3914</longitude>
    <elevation>76.2</elevation>
    <locationLabels>
      <type>CNTRY</type>
      <id>FIPS:US</id>
      <displayName>United States</displayName>
    </locationLabels>
    <coverage>0.9773</coverage>
  </station>
  <station>
    <id>GHCND:USC00357760</id>
    <displayName>SHERIDAN, OR US</displayName>
    <minDate>1899-06-01</minDate>
    <maxDate>1902-12-31</maxDate>
    <latitude>45.083333</latitude>
    <longitude>-123.5</longitude>
    <elevation>63.1</elevation>
    <locationLabels>
      <type>CNTRY</type>
      <id>FIPS:US</id>
      <displayName>United States</displayName>
    </locationLabels>
    <coverage>0.9694</coverage>
  </station>
  <station>
    <id>GHCND:US1NYCQ0015</id>
    <displayName>SHERMAN 0.4 ENE, NY US</displayName>
    <minDate>2011-03-28</minDate>
    <maxDate>2012-12-15</maxDate>
    <latitude>42.1621</latitude>
    <longitude>-79.5885</longitude>
    <elevation>477</elevation>
    <locationLabels>
      <type>CNTRY</type>
      <id>FIPS:US</id>
      <displayName>United States</displayName>
    </locationLabels>
    <coverage>0.8983</coverage>
  </station>
  <station>
    <id>GHCND:USC00117896</id>
    <displayName>SHERMAN 1 ESE, IL US</displayName>
    <minDate>2000-03-01</minDate>
    <maxDate>2013-01-16</maxDate>
    <latitude>39.889</latitude>
    <longitude>-89.5997</longitude>
    <elevation>176.8</elevation>
    <locationLabels>
      <type>CNTRY</type>
      <id>FIPS:US</id>
      <displayName>United States</displayName>
    </locationLabels>
    <coverage>0.9855</coverage>
  </station>
  <station>
    <id>GHCND:US1TXGA0008</id>
    <displayName>SHERMAN 1.9 ENE, TX US</displayName>
    <minDate>2012-01-08</minDate>
    <maxDate>2013-01-16</maxDate>
    <latitude>33.6331</latitude>
    <longitude>-96.5824</longitude>
    <elevation>227.4</elevation>
    <locationLabels>
      <type>CNTRY</type>
      <id>FIPS:US</id>
      <displayName>United States</displayName>
    </locationLabels>
    <coverage>0.392</coverage>
  </station>
  <station>
    <id>GHCND:US1TXGA0014</id>
    <displayName>SHERMAN 3.7 ENE, TX US</displayName>
    <minDate>2012-05-16</minDate>
    <maxDate>2012-11-24</maxDate>
    <latitude>33.6397</latitude>
    <longitude>-96.55</longitude>
    <elevation>216.4</elevation>
    <locationLabels>
      <type>CNTRY</type>
      <id>FIPS:US</id>
      <displayName>United States</displayName>
    </locationLabels>
    <coverage>0.9741</coverage>
  </station>
  <station>
    <id>GHCND:US1CALA0009</id>
    <displayName>SHERMAN OAKS 1.7 ENE, CA US</displayName>
    <minDate>2008-12-10</minDate>
    <maxDate>2013-01-16</maxDate>
    <latitude>34.1543</latitude>
    <longitude>-118.42</longitude>
    <elevation>194.5</elevation>
    <locationLabels>
      <type>CNTRY</type>
      <id>FIPS:US</id>
      <displayName>United States</displayName>
    </locationLabels>
    <coverage>0.9706</coverage>
  </station>
  <station>
    <id>GHCND:USC00307713</id>
    <displayName>SHERMAN, NY US</displayName>
    <minDate>1899-06-02</minDate>
    <maxDate>2005-07-31</maxDate>
    <latitude>42.15722</latitude>
    <longitude>-79.59361</longitude>
    <elevation>475.5</elevation>
    <locationLabels>
      <type>CNTRY</type>
      <id>FIPS:US</id>
      <displayName>United States</displayName>
    </locationLabels>
    <coverage>0.4997</coverage>
  </station>
  <station>
    <id>GHCND:USC00357770</id>
    <displayName>SHERMAN, OR US</displayName>
    <minDate>1908-12-02</minDate>
    <maxDate>1919-07-31</maxDate>
    <latitude>43.8</latitude>
    <longitude>-120.033333</longitude>
    <elevation>1287.8</elevation>
    <locationLabels>
      <type>CNTRY</type>
      <id>FIPS:US</id>
      <displayName>United States</displayName>
    </locationLabels>
    <coverage>0.7802</coverage>
  </station>
  <station>
    <id>GHCND:USC00418274</id>
    <displayName>SHERMAN, TX US</displayName>
    <minDate>1897-05-01</minDate>
    <maxDate>2013-01-15</maxDate>
    <latitude>33.7033</latitude>
    <longitude>-96.6419</longitude>
    <elevation>231.6</elevation>
    <locationLabels>
      <type>CNTRY</type>
      <id>FIPS:US</id>
      <displayName>United States</displayName>
    </locationLabels>
    <coverage>0.9554</coverage>
  </station>
  <station>
    <id>GHCND:USC00488170</id>
    <displayName>SHERMAN, WY US</displayName>
    <minDate>1898-11-01</minDate>
    <maxDate>1918-07-31</maxDate>
    <latitude>41.083333</latitude>
    <longitude>-105.366667</longitude>
    <elevation>2685</elevation>
    <locationLabels>
      <type>CNTRY</type>
      <id>FIPS:US</id>
      <displayName>United States</displayName>
    </locationLabels>
    <coverage>0.1783</coverage>
  </station>
  <station>
    <id>GHCND:US1NCCT0015</id>
    <displayName>SHERRILLS FORD 1.6 NW, NC US</displayName>
    <minDate>2012-07-22</minDate>
    <maxDate>2013-01-02</maxDate>
    <latitude>35.5932</latitude>
    <longitude>-81.0115</longitude>
    <elevation>246.6</elevation>
    <locationLabels>
      <type>CNTRY</type>
      <id>FIPS:US</id>
      <displayName>United States</displayName>
    </locationLabels>
    <coverage>0.8424</coverage>
  </station>
  <station>
    <id>GHCND:US1NCCT0006</id>
    <displayName>SHERRILLS FORD 2.4 WNW, NC US</displayName>
    <minDate>2008-05-29</minDate>
    <maxDate>2012-12-31</maxDate>
    <latitude>35.5938</latitude>
    <longitude>-81.028</longitude>
    <elevation>267</elevation>
    <locationLabels>
      <type>CNTRY</type>
      <id>FIPS:US</id>
      <displayName>United States</displayName>
    </locationLabels>
    <coverage>0.9726</coverage>
  </station>
  <station>
    <id>GHCND:USS0016C01S</id>
    <displayName>SHERWIN, ID US</displayName>
    <minDate>1981-10-01</minDate>
    <maxDate>2013-01-13</maxDate>
    <latitude>46.95</latitude>
    <longitude>-116.3333</longitude>
    <elevation>975.4</elevation>
    <locationLabels>
      <type>CNTRY</type>
      <id>FIPS:US</id>
      <displayName>United States</displayName>
    </locationLabels>
    <coverage>0.8571</coverage>
  </station>
  <station>
    <id>GHCND:US1NDRV0001</id>
    <displayName>SHERWOOD 0.1 ENE, ND US</displayName>
    <minDate>2008-11-01</minDate>
    <maxDate>2010-09-23</maxDate>
    <latitude>48.9623</latitude>
    <longitude>-101.631</longitude>
    <elevation>501.1</elevation>
    <locationLabels>
      <type>CNTRY</type>
      <id>FIPS:US</id>
      <displayName>United States</displayName>
    </locationLabels>
    <coverage>0.9176</coverage>
  </station>
  <station>
    <id>GHCND:US1OHHM0007</id>
    <displayName>SHERWOOD 0.4 N, OH US</displayName>
    <minDate>2009-04-12</minDate>
    <maxDate>2009-08-17</maxDate>
    <latitude>39.09</latitude>
    <longitude>-84.361</longitude>
    <elevation>220.7</elevation>
    <locationLabels>
      <type>CNTRY</type>
      <id>FIPS:US</id>
      <displayName>United States</displayName>
    </locationLabels>
    <coverage>0.7813</coverage>
  </station>
  <station>
    <id>GHCND:US1ARPS0007</id>
    <displayName>SHERWOOD 1.8 NNW, AR US</displayName>
    <minDate>2009-04-30</minDate>
    <maxDate>2013-01-16</maxDate>
    <latitude>34.8572</latitude>
    <longitude>-92.2155</longitude>
    <elevation>135.3</elevation>
    <locationLabels>
      <type>CNTRY</type>
      <id>FIPS:US</id>
      <displayName>United States</displayName>
    </locationLabels>
    <coverage>0.9897</coverage>
  </station>
  <station>
    <id>GHCND:USC00328049</id>
    <displayName>SHERWOOD 15 W, ND US</displayName>
    <minDate>1979-02-01</minDate>
    <maxDate>1981-07-31</maxDate>
    <latitude>48.98333</latitude>
    <longitude>-101.96667</longitude>
    <elevation>488</elevation>
    <locationLabels>
      <type>CNTRY</type>
      <id>FIPS:US</id>
      <displayName>United States</displayName>
    </locationLabels>
    <coverage>0.5625</coverage>
  </station>
  <station>
    <id>GHCND:USC00328047</id>
    <displayName>SHERWOOD 3 N, ND US</displayName>
    <minDate>1948-07-01</minDate>
    <maxDate>2012-11-11</maxDate>
    <latitude>48.9991</latitude>
    <longitude>-101.6277</longitude>
    <elevation>502</elevation>
    <locationLabels>
      <type>CNTRY</type>
      <id>FIPS:US</id>
      <displayName>United States</displayName>
    </locationLabels>
    <coverage>0.9293</coverage>
  </station>
  <station>
    <id>GHCND:US1ARPS0026</id>
    <displayName>SHERWOOD 4.6 NNW, AR US</displayName>
    <minDate>2012-07-19</minDate>
    <maxDate>2013-01-16</maxDate>
    <latitude>34.8923</latitude>
    <longitude>-92.2439</longitude>
    <elevation>106.1</elevation>
    <locationLabels>
      <type>CNTRY</type>
      <id>FIPS:US</id>
      <displayName>United States</displayName>
    </locationLabels>
    <coverage>0.967</coverage>
  </station>
  <station>
    <id>GHCND:USC00418279</id>
    <displayName>SHERWOOD, TX US</displayName>
    <minDate>1948-04-01</minDate>
    <maxDate>1965-12-31</maxDate>
    <latitude>31.28333</latitude>
    <longitude>-100.8</longitude>
    <elevation>662</elevation>
    <locationLabels>
      <type>CNTRY</type>
      <id>FIPS:US</id>
      <displayName>United States</displayName>
    </locationLabels>
    <coverage>0.7787</coverage>
  </station>
  <station>
    <id>GHCND:US1NDED0002</id>
    <displayName>SHEYENNE 2.7 WSW, ND US</displayName>
    <minDate>2010-04-18</minDate>
    <maxDate>2011-08-06</maxDate>
    <latitude>47.818</latitude>
    <longitude>-99.1734</longitude>
    <elevation>455.7</elevation>
    <locationLabels>
      <type>CNTRY</type>
      <id>FIPS:US</id>
      <displayName>United States</displayName>
    </locationLabels>
    <coverage>0.2143</coverage>
  </station>
  <station>
    <id>GHCND:US1NDED0006</id>
    <displayName>SHEYENNE 6.8 ESE, ND US</displayName>
    <minDate>2010-06-11</minDate>
    <maxDate>2012-07-13</maxDate>
    <latitude>47.7999</latitude>
    <longitude>-98.9757</longitude>
    <elevation>470</elevation>
    <locationLabels>
      <type>CNTRY</type>
      <id>FIPS:US</id>
      <displayName>United States</displayName>
    </locationLabels>
    <coverage>0.339</coverage>
  </station>
  <station>
    <id>GHCND:USR0000NSHY</id>
    <displayName>SHEYENNE NORTH DAKOTA, ND US</displayName>
    <minDate>1997-07-30</minDate>
    <maxDate>2012-08-31</maxDate>
    <latitude>46.4658</latitude>
    <longitude>-97.3161</longitude>
    <elevation>326.1</elevation>
    <locationLabels>
      <type>CNTRY</type>
      <id>FIPS:US</id>
      <displayName>United States</displayName>
    </locationLabels>
    <coverage>0.8823</coverage>
  </station>
  <station>
    <id>GHCND:USC00328057</id>
    <displayName>SHEYENNE, ND US</displayName>
    <minDate>1893-07-01</minDate>
    <maxDate>1984-10-31</maxDate>
    <latitude>47.83333</latitude>
    <longitude>-99.11667</longitude>
    <elevation>451.1</elevation>
    <locationLabels>
      <type>CNTRY</type>
      <id>FIPS:US</id>
      <displayName>United States</displayName>
    </locationLabels>
    <coverage>0.2939</coverage>
  </station>
  <station>
    <id>GHCND:US10fill003</id>
    <displayName>SHICKLEY 2.7 S, NE US</displayName>
    <minDate>2007-01-01</minDate>
    <maxDate>2013-01-14</maxDate>
    <latitude>40.3785</latitude>
    <longitude>-97.73</longitude>
    <elevation>505.1</elevation>
    <locationLabels>
      <type>CNTRY</type>
      <id>FIPS:US</id>
      <displayName>United States</displayName>
    </locationLabels>
    <coverage>0.9365</coverage>
  </station>
  <station>
    <id>GHCND:USC00257798</id>
    <displayName>SHICKLEY 4 S, NE US</displayName>
    <minDate>1994-05-01</minDate>
    <maxDate>2013-01-11</maxDate>
    <latitude>40.3619</latitude>
    <longitude>-97.7331</longitude>
    <elevation>501.4</elevation>
    <locationLabels>
      <type>CNTRY</type>
      <id>FIPS:US</id>
      <displayName>United States</displayName>
    </locationLabels>
    <coverage>0.9918</coverage>
  </station>
  <station>
    <id>GHCND:US10fill012</id>
    <displayName>SHICKLEY 5.1 NNW, NE US</displayName>
    <minDate>2007-01-01</minDate>
    <maxDate>2009-08-09</maxDate>
    <latitude>40.4886</latitude>
    <longitude>-97.7485</longitude>
    <elevation>510.8</elevation>
    <locationLabels>
      <type>CNTRY</type>
      <id>FIPS:US</id>
      <displayName>United States</displayName>
    </locationLabels>
    <coverage>0.9401</coverage>
  </station>
  <station>
    <id>GHCND:USC00368057</id>
    <displayName>SHICKSHINNY 3 N, PA US</displayName>
    <minDate>1971-06-01</minDate>
    <maxDate>2013-01-08</maxDate>
    <latitude>41.1831</latitude>
    <longitude>-76.1488</longitude>
    <elevation>208.8</elevation>
    <locationLabels>
      <type>CNTRY</type>
      <id>FIPS:US</id>
      <displayName>United States</displayName>
    </locationLabels>
    <coverage>0.9768</coverage>
  </station>
  <station>
    <id>GHCND:USC00147530</id>
    <displayName>SHIELDS, KS US</displayName>
    <minDate>1893-01-01</minDate>
    <maxDate>1893-05-31</maxDate>
    <latitude>38.615571</latitude>
    <longitude>-100.445137</longitude>
    <elevation>848</elevation>
    <locationLabels>
      <type>CNTRY</type>
      <id>FIPS:US</id>
      <displayName>United States</displayName>
    </locationLabels>
    <coverage>0.9934</coverage>
  </station>
  <station>
    <id>GHCND:USC00328065</id>
    <displayName>SHIELDS, ND US</displayName>
    <minDate>1950-07-25</minDate>
    <maxDate>2012-11-30</maxDate>
    <latitude>46.233</latitude>
    <longitude>-101.1291</longitude>
    <elevation>550.5</elevation>
    <locationLabels>
      <type>CNTRY</type>
      <id>FIPS:US</id>
      <displayName>United States</displayName>
    </locationLabels>
    <coverage>0.9846</coverage>
  </station>
  <station>
    <id>GHCND:USC00427753</id>
    <displayName>SHIFTING SANDS RANCH, UT US</displayName>
    <minDate>1988-12-01</minDate>
    <maxDate>1992-07-31</maxDate>
    <latitude>38.06667</latitude>
    <longitude>-111.06667</longitude>
    <elevation>1673.4</elevation>
    <locationLabels>
      <type>CNTRY</type>
      <id>FIPS:US</id>
      <displayName>United States</displayName>
    </locationLabels>
    <coverage>0.9985</coverage>
  </station>
  <station>
    <id>GHCND:US1PAYR0003</id>
    <displayName>SHILOH 1.2 W, PA US</displayName>
    <minDate>2006-01-01</minDate>
    <maxDate>2012-12-02</maxDate>
    <latitude>39.9722</latitude>
    <longitude>-76.8148</longitude>
    <elevation>120.1</elevation>
    <locationLabels>
      <type>CNTRY</type>
      <id>FIPS:US</id>
      <displayName>United States</displayName>
    </locationLabels>
    <coverage>0.8461</coverage>
  </station>
  <station>
    <id>GHCND:USR0000TSHI</id>
    <displayName>SHILOH NMP TENNESSEE, TN US</displayName>
    <minDate>2003-10-22</minDate>
    <maxDate>2012-08-31</maxDate>
    <latitude>35.155</latitude>
    <longitude>-88.3217</longitude>
    <elevation>128</elevation>
    <locationLabels>
      <type>CNTRY</type>
      <id>FIPS:US</id>
      <displayName>United States</displayName>
    </locationLabels>
    <coverage>0.8829</coverage>
  </station>
  <station>
    <id>GHCND:USC00288051</id>
    <displayName>SHILOH, NJ US</displayName>
    <minDate>1958-06-01</minDate>
    <maxDate>1988-01-31</maxDate>
    <latitude>39.46667</latitude>
    <longitude>-75.3</longitude>
    <elevation>36.9</elevation>
    <locationLabels>
      <type>CNTRY</type>
      <id>FIPS:US</id>
      <displayName>United States</displayName>
    </locationLabels>
    <coverage>0.9764</coverage>
  </station>
  <station>
    <id>GHCND:USC00397590</id>
    <displayName>SHILOH, SD US</displayName>
    <minDate>1893-12-01</minDate>
    <maxDate>1900-08-31</maxDate>
    <latitude>44.516667</latitude>
    <longitude>-100.266667</longitude>
    <locationLabels>
      <type>CNTRY</type>
      <id>FIPS:US</id>
      <displayName>United States</displayName>
    </locationLabels>
    <coverage>0.7858</coverage>
  </station>
  <station>
    <id>GHCND:USC00408274</id>
    <displayName>SHILOH, TN US</displayName>
    <minDate>1949-01-01</minDate>
    <maxDate>1962-02-28</maxDate>
    <latitude>35.15</latitude>
    <longitude>-88.31667</longitude>
    <elevation>146</elevation>
    <locationLabels>
      <type>CNTRY</type>
      <id>FIPS:US</id>
      <displayName>United States</displayName>
    </locationLabels>
    <coverage>0.9761</coverage>
  </station>
  <station>
    <id>GHCND:US1TXLV0004</id>
    <displayName>SHINER 1.9 E, TX US</displayName>
    <minDate>2007-03-01</minDate>
    <maxDate>2013-01-15</maxDate>
    <latitude>29.4291</latitude>
    <longitude>-97.141</longitude>
    <elevation>102.1</elevation>
    <locationLabels>
      <type>CNTRY</type>
      <id>FIPS:US</id>
      <displayName>United States</displayName>
    </locationLabels>
    <coverage>0.9926</coverage>
  </station>
  <station>
    <id>GHCND:US1TXGZ0001</id>
    <displayName>SHINER 3.3 WNW, TX US</displayName>
    <minDate>2007-02-27</minDate>
    <maxDate>2012-03-20</maxDate>
    <latitude>29.4559</latitude>
    <longitude>-97.2198</longitude>
    <elevation>128.6</elevation>
    <locationLabels>
      <type>CNTRY</type>
      <id>FIPS:US</id>
      <displayName>United States</displayName>
    </locationLabels>
    <coverage>0.1579</coverage>
  </station>
  <station>
    <id>GHCND:US1TXLV0026</id>
    <displayName>SHINER 4.1 NE, TX US</displayName>
    <minDate>2012-05-06</minDate>
    <maxDate>2013-01-16</maxDate>
    <latitude>29.477</latitude>
    <longitude>-97.1283</longitude>
    <elevation>100.3</elevation>
    <locationLabels>
      <type>CNTRY</type>
      <id>FIPS:US</id>
      <displayName>United States</displayName>
    </locationLabels>
    <coverage>0.9453</coverage>
  </station>
  <station>
    <id>GHCND:US1TXLV0003</id>
    <displayName>SHINER 5.1 ESE, TX US</displayName>
    <minDate>2007-03-27</minDate>
    <maxDate>2013-01-16</maxDate>
    <latitude>29.4112</latitude>
    <longitude>-97.0905</longitude>
    <elevation>93</elevation>
    <locationLabels>
      <type>CNTRY</type>
      <id>FIPS:US</id>
      <displayName>United States</displayName>
    </locationLabels>
    <coverage>0.8238</coverage>
  </station>
  <station>
    <id>GHCND:US1TXGZ0002</id>
    <displayName>SHINER 5.2 WNW, TX US</displayName>
    <minDate>2007-03-03</minDate>
    <maxDate>2013-01-15</maxDate>
    <latitude>29.468</latitude>
    <longitude>-97.2476</longitude>
    <elevation>152.7</elevation>
    <locationLabels>
      <type>CNTRY</type>
      <id>FIPS:US</id>
      <displayName>United States</displayName>
    </locationLabels>
    <coverage>0.1337</coverage>
  </station>
  <station>
    <id>GHCND:US1TXLV0006</id>
    <displayName>SHINER 5.8 ENE, TX US</displayName>
    <minDate>2007-10-15</minDate>
    <maxDate>2013-01-12</maxDate>
    <latitude>29.4734</latitude>
    <longitude>-97.0879</longitude>
    <elevation>117.7</elevation>
    <locationLabels>
      <type>CNTRY</type>
      <id>FIPS:US</id>
      <displayName>United States</displayName>
    </locationLabels>
    <coverage>0.1909</coverage>
  </station>
  <station>
    <id>GHCND:USC00048173</id>
    <displayName>SHINGLE SPRINGS, CA US</displayName>
    <minDate>1906-03-01</minDate>
    <maxDate>1972-11-30</maxDate>
    <latitude>38.66667</latitude>
    <longitude>-120.91667</longitude>
    <elevation>420.9</elevation>
    <locationLabels>
      <type>CNTRY</type>
      <id>FIPS:US</id>
      <displayName>United States</displayName>
    </locationLabels>
    <coverage>0.5334</coverage>
  </station>
  <station>
    <id>GHCND:USC00368066</id>
    <displayName>SHINGLEHOUSE, PA US</displayName>
    <minDate>1893-12-01</minDate>
    <maxDate>2013-01-16</maxDate>
    <latitude>41.96667</latitude>
    <longitude>-78.18333</longitude>
    <elevation>460.2</elevation>
    <locationLabels>
      <type>CNTRY</type>
      <id>FIPS:US</id>
      <displayName>United States</displayName>
    </locationLabels>
    <coverage>0.0674</coverage>
  </station>
  <station>
    <id>GHCND:US1CASH0049</id>
    <displayName>SHINGLETOWN 0.6 WSW, CA US</displayName>
    <minDate>2011-02-25</minDate>
    <maxDate>2012-02-13</maxDate>
    <latitude>40.49</latitude>
    <longitude>-121.9</longitude>
    <elevation>1054.9</elevation>
    <locationLabels>
      <type>CNTRY</type>
      <id>FIPS:US</id>
      <displayName>United States</displayName>
    </locationLabels>
    <coverage>0.8531</coverage>
  </station>
  <station>
    <id>GHCND:USC00048175</id>
    <displayName>SHINGLETOWN 2 E, CA US</displayName>
    <minDate>1958-11-01</minDate>
    <maxDate>1984-03-31</maxDate>
    <latitude>40.5</latitude>
    <longitude>-121.85</longitude>
    <elevation>1083.9</elevation>
    <locationLabels>
      <type>CNTRY</type>
      <id>FIPS:US</id>
      <displayName>United States</displayName>
    </locationLabels>
    <coverage>0.9879</coverage>
  </station>
  <station>
    <id>GHCND:US1CASH0053</id>
    <displayName>SHINGLETOWN 2.8 NNW, CA US</displayName>
    <minDate>2012-05-25</minDate>
    <maxDate>2013-01-09</maxDate>
    <latitude>40.53</latitude>
    <longitude>-121.9089</longitude>
    <elevation>787</elevation>
    <locationLabels>
      <type>CNTRY</type>
      <id>FIPS:US</id>
      <displayName>United States</displayName>
    </locationLabels>
    <coverage>0.8913</coverage>
  </station>
  <station>
    <id>GHCND:US1CASH0006</id>
    <displayName>SHINGLETOWN 5.3 ENE, CA US</displayName>
    <minDate>2008-11-12</minDate>
    <maxDate>2012-12-20</maxDate>
    <latitude>40.5239</latitude>
    <longitude>-121.7957</longitude>
    <elevation>1208.2</elevation>
    <locationLabels>
      <type>CNTRY</type>
      <id>FIPS:US</id>
      <displayName>United States</displayName>
    </locationLabels>
    <coverage>0.922</coverage>
  </station>
  <station>
    <id>GHCND:USC00468145</id>
    <displayName>SHINNSTON, WV US</displayName>
    <minDate>1937-04-01</minDate>
    <maxDate>1954-06-30</maxDate>
    <latitude>39.38333</latitude>
    <longitude>-80.3</longitude>
    <elevation>278</elevation>
    <locationLabels>
      <type>CNTRY</type>
      <id>FIPS:US</id>
      <displayName>United States</displayName>
    </locationLabels>
    <coverage>0.9798</coverage>
  </station>
  <station>
    <id>GHCND:USC00477761</id>
    <displayName>SHIOCTON, WI US</displayName>
    <minDate>1941-05-01</minDate>
    <maxDate>2013-01-16</maxDate>
    <latitude>44.4388</latitude>
    <longitude>-88.5838</longitude>
    <elevation>234.7</elevation>
    <locationLabels>
      <type>CNTRY</type>
      <id>FIPS:US</id>
      <displayName>United States</displayName>
    </locationLabels>
    <coverage>0.1406</coverage>
  </station>
  <station>
    <id>GHCND:USR0000CSHI</id>
    <displayName>SHIP MOUNTAIN CALIFORNIA, CA US</displayName>
    <minDate>2001-06-25</minDate>
    <maxDate>2012-08-26</maxDate>
    <latitude>41.7358</latitude>
    <longitude>-123.7917</longitude>
    <elevation>1615.4</elevation>
    <locationLabels>
      <type>CNTRY</type>
      <id>FIPS:US</id>
      <displayName>United States</displayName>
    </locationLabels>
    <coverage>0.3798</coverage>
  </station>
  <station>
    <id>GHCND:US1VANL0001</id>
    <displayName>SHIPMAN 1.8 NE, VA US</displayName>
    <minDate>2008-07-14</minDate>
    <maxDate>2012-08-26</maxDate>
    <latitude>37.7976</latitude>
    <longitude>-78.7475</longitude>
    <elevation>153.3</elevation>
    <locationLabels>
      <type>CNTRY</type>
      <id>FIPS:US</id>
      <displayName>United States</displayName>
    </locationLabels>
    <coverage>0.1621</coverage>
  </station>
  <station>
    <id>GHCND:USC00368073</id>
    <displayName>SHIPPENSBURG, PA US</displayName>
    <minDate>1910-09-01</minDate>
    <maxDate>2013-01-15</maxDate>
    <latitude>40.05889</latitude>
    <longitude>-77.52139</longitude>
    <elevation>207.3</elevation>
    <locationLabels>
      <type>CNTRY</type>
      <id>FIPS:US</id>
      <displayName>United States</displayName>
    </locationLabels>
    <coverage>0.8177</coverage>
  </station>
  <station>
    <id>GHCND:USC00368078</id>
    <displayName>SHIPPINGPORT, PA US</displayName>
    <minDate>1955-04-01</minDate>
    <maxDate>1957-12-31</maxDate>
    <latitude>40.61667</latitude>
    <longitude>-80.43333</longitude>
    <elevation>224</elevation>
    <locationLabels>
      <type>CNTRY</type>
      <id>FIPS:US</id>
      <displayName>United States</displayName>
    </locationLabels>
    <coverage>1</coverage>
  </station>
  <station>
    <id>GHCND:USC00298284</id>
    <displayName>SHIPROCK, NM US</displayName>
    <minDate>1926-07-01</minDate>
    <maxDate>2007-10-31</maxDate>
    <latitude>36.795</latitude>
    <longitude>-108.69167</longitude>
    <elevation>1515.5</elevation>
    <locationLabels>
      <type>CNTRY</type>
      <id>FIPS:US</id>
      <displayName>United States</displayName>
    </locationLabels>
    <coverage>0.8702</coverage>
  </station>
  <station>
    <id>GHCND:US1INLG0003</id>
    <displayName>SHIPSHEWANA 6.8 NNW, IN US</displayName>
    <minDate>2007-05-05</minDate>
    <maxDate>2010-02-10</maxDate>
    <latitude>41.759</latitude>
    <longitude>-85.648</longitude>
    <elevation>248.1</elevation>
    <locationLabels>
      <type>CNTRY</type>
      <id>FIPS:US</id>
      <displayName>United States</displayName>
    </locationLabels>
    <coverage>0.9358</coverage>
  </station>
  <station>
    <id>GHCND:US1INLG0002</id>
    <displayName>SHIPSHEWANA FIRE STATION, IN US</displayName>
    <minDate>2007-05-10</minDate>
    <maxDate>2007-08-28</maxDate>
    <latitude>41.6889</latitude>
    <longitude>-85.5819</longitude>
    <elevation>274</elevation>
    <locationLabels>
      <type>CNTRY</type>
      <id>FIPS:US</id>
      <displayName>United States</displayName>
    </locationLabels>
    <coverage>1</coverage>
  </station>
  <station>
    <id>GHCND:USC00117916</id>
    <displayName>SHIRLAND, IL US</displayName>
    <minDate>1959-04-18</minDate>
    <maxDate>2012-11-12</maxDate>
    <latitude>42.4436</latitude>
    <longitude>-89.1975</longitude>
    <elevation>225.6</elevation>
    <locationLabels>
      <type>CNTRY</type>
      <id>FIPS:US</id>
      <displayName>United States</displayName>
    </locationLabels>
    <coverage>0.6324</coverage>
  </station>
  <station>
    <id>GHCND:USC00488192</id>
    <displayName>SHIRLEY BASIN, WY US</displayName>
    <minDate>1978-01-01</minDate>
    <maxDate>2013-01-16</maxDate>
    <latitude>42.3703</latitude>
    <longitude>-106.1049</longitude>
    <elevation>2151</elevation>
    <locationLabels>
      <type>CNTRY</type>
      <id>FIPS:US</id>
      <displayName>United States</displayName>
    </locationLabels>
    <coverage>0.97</coverage>
  </station>
  <station>
    <id>GHCND:USW00054790</id>
    <displayName>SHIRLEY BROOKHAVEN AIRPORT, NY US</displayName>
    <minDate>1999-10-01</minDate>
    <maxDate>2013-01-14</maxDate>
    <latitude>40.82167</latitude>
    <longitude>-72.86889</longitude>
    <elevation>25</elevation>
    <locationLabels>
      <type>CNTRY</type>
      <id>FIPS:US</id>
      <displayName>United States</displayName>
    </locationLabels>
    <coverage>0.9887</coverage>
  </station>
  <station>
    <id>GHCND:USC00036586</id>
    <displayName>SHIRLEY, AR US</displayName>
    <minDate>1939-06-01</minDate>
    <maxDate>1988-04-30</maxDate>
    <latitude>35.65</latitude>
    <longitude>-92.31667</longitude>
    <elevation>170.7</elevation>
    <locationLabels>
      <type>CNTRY</type>
      <id>FIPS:US</id>
      <displayName>United States</displayName>
    </locationLabels>
    <coverage>0.9379</coverage>
  </station>
  <station>
    <id>GHCND:USC00488184</id>
    <displayName>SHIRLEY, WY US</displayName>
    <minDate>1959-03-19</minDate>
    <maxDate>1959-06-30</maxDate>
    <latitude>42.21667</latitude>
    <longitude>-106.51667</longitude>
    <elevation>2196.1</elevation>
    <locationLabels>
      <type>CNTRY</type>
      <id>FIPS:US</id>
      <displayName>United States</displayName>
    </locationLabels>
    <coverage>1</coverage>
  </station>
  <station>
    <id>GHCND:USC00508437</id>
    <displayName>SHISHMAREF AIRPORT, AK US</displayName>
    <minDate>1919-10-01</minDate>
    <maxDate>1973-11-30</maxDate>
    <latitude>66.25</latitude>
    <longitude>-166.05</longitude>
    <elevation>2.1</elevation>
    <locationLabels>
      <type>CNTRY</type>
      <id>FIPS:US</id>
      <displayName>United States</displayName>
    </locationLabels>
    <coverage>0.458</coverage>
  </station>
  <station>
    <id>GHCND:USR0000ISPA</id>
    <displayName>SHO PAI IDAHO, ID US</displayName>
    <minDate>2002-08-01</minDate>
    <maxDate>2012-08-31</maxDate>
    <latitude>42.0181</latitude>
    <longitude>-116.2128</longitude>
    <elevation>1630.7</elevation>
    <locationLabels>
      <type>CNTRY</type>
      <id>FIPS:US</id>
      <displayName>United States</displayName>
    </locationLabels>
    <coverage>0.9069</coverage>
  </station>
  <station>
    <id>GHCND:USR0000ASHK</id>
    <displayName>SHOAL CREEK ALABAMA, AL US</displayName>
    <minDate>2002-12-20</minDate>
    <maxDate>2012-08-31</maxDate>
    <latitude>33.6472</latitude>
    <longitude>-85.6344</longitude>
    <elevation>276.8</elevation>
    <locationLabels>
      <type>CNTRY</type>
      <id>FIPS:US</id>
      <displayName>United States</displayName>
    </locationLabels>
    <coverage>0.928</coverage>
  </station>
  <station>
    <id>GHCND:US1MONW0004</id>
    <displayName>SHOAL CREEK ESTATES 0.2 SE, MO US</displayName>
    <minDate>2006-03-20</minDate>
    <maxDate>2013-01-16</maxDate>
    <latitude>37.0169</latitude>
    <longitude>-94.4925</longitude>
    <elevation>301.1</elevation>
    <locationLabels>
      <type>CNTRY</type>
      <id>FIPS:US</id>
      <displayName>United States</displayName>
    </locationLabels>
    <coverage>0.9174</coverage>
  </station>
  <station>
    <id>GHCND:US1INMT0003</id>
    <displayName>SHOALS 4.0 E, IN US</displayName>
    <minDate>2009-06-12</minDate>
    <maxDate>2013-01-16</maxDate>
    <latitude>38.6607</latitude>
    <longitude>-86.7185</longitude>
    <elevation>227.1</elevation>
    <locationLabels>
      <type>CNTRY</type>
      <id>FIPS:US</id>
      <displayName>United States</displayName>
    </locationLabels>
    <coverage>0.9536</coverage>
  </station>
  <station>
    <id>GHCND:USC00128036</id>
    <displayName>SHOALS 5 S, IN US</displayName>
    <minDate>1908-05-01</minDate>
    <maxDate>2013-01-16</maxDate>
    <latitude>38.5529</latitude>
    <longitude>-86.7944</longitude>
    <elevation>154.2</elevation>
    <locationLabels>
      <type>CNTRY</type>
      <id>FIPS:US</id>
      <displayName>United States</displayName>
    </locationLabels>
    <coverage>0.9494</coverage>
  </station>
  <station>
    <id>GHCND:USC00228036</id>
    <displayName>SHOCCOE, MS US</displayName>
    <minDate>1900-06-01</minDate>
    <maxDate>1915-12-31</maxDate>
    <latitude>32.6</latitude>
    <longitude>-89.91667</longitude>
    <elevation>110</elevation>
    <locationLabels>
      <type>CNTRY</type>
      <id>FIPS:US</id>
      <displayName>United States</displayName>
    </locationLabels>
    <coverage>0.9682</coverage>
  </station>
  <station>
    <id>GHCND:USR0000ISHO</id>
    <displayName>SHOCK IDAHO, ID US</displayName>
    <minDate>1990-05-29</minDate>
    <maxDate>2010-10-27</maxDate>
    <latitude>46.9833</latitude>
    <longitude>-116.6333</longitude>
    <elevation>1127.8</elevation>
    <locationLabels>
      <type>CNTRY</type>
      <id>FIPS:US</id>
      <displayName>United States</displayName>
    </locationLabels>
    <coverage>0.4274</coverage>
  </station>
  <station>
    <id>GHCND:USC00298289</id>
    <displayName>SHOEMAKER RANCH, NM US</displayName>
    <minDate>1929-02-01</minDate>
    <maxDate>1945-10-31</maxDate>
    <latitude>36.45</latitude>
    <longitude>-104.65</longitude>
    <elevation>1891</elevation>
    <locationLabels>
      <type>CNTRY</type>
      <id>FIPS:US</id>
      <displayName>United States</displayName>
    </locationLabels>
    <coverage>0.941</coverage>
  </station>
  <station>
    <id>GHCND:USC00017460</id>
    <displayName>SHOEMAKER SPRINGS, AL US</displayName>
    <minDate>1949-01-01</minDate>
    <maxDate>1962-03-31</maxDate>
    <latitude>34.85</latitude>
    <longitude>-87.2</longitude>
    <elevation>185.9</elevation>
    <locationLabels>
      <type>CNTRY</type>
      <id>FIPS:US</id>
      <displayName>United States</displayName>
    </locationLabels>
    <coverage>0.9492</coverage>
  </station>
  <station>
    <id>GHCND:USC00300985</id>
    <displayName>SHOKAN BROWN STATION, NY US</displayName>
    <minDate>1948-05-01</minDate>
    <maxDate>1952-12-31</maxDate>
    <latitude>41.95</latitude>
    <longitude>-74.2</longitude>
    <elevation>155.4</elevation>
    <locationLabels>
      <type>CNTRY</type>
      <id>FIPS:US</id>
      <displayName>United States</displayName>
    </locationLabels>
    <coverage>0.9982</coverage>
  </station>
  <station>
    <id>GHCND:USC00307721</id>
    <displayName>SHOKAN BROWN STATION, NY US</displayName>
    <minDate>1953-01-02</minDate>
    <maxDate>2008-09-30</maxDate>
    <latitude>41.95</latitude>
    <longitude>-74.2</longitude>
    <elevation>155.4</elevation>
    <locationLabels>
      <type>CNTRY</type>
      <id>FIPS:US</id>
      <displayName>United States</displayName>
    </locationLabels>
    <coverage>0.9595</coverage>
  </station>
  <station>
    <id>GHCND:USC00027829</id>
    <displayName>SHONGOPOVI, AZ US</displayName>
    <minDate>1957-10-28</minDate>
    <maxDate>1959-04-30</maxDate>
    <latitude>35.8</latitude>
    <longitude>-110.53333</longitude>
    <elevation>1866.9</elevation>
    <locationLabels>
      <type>CNTRY</type>
      <id>FIPS:US</id>
      <displayName>United States</displayName>
    </locationLabels>
    <coverage>0.3364</coverage>
  </station>
  <station>
    <id>GHCND:USC00247540</id>
    <displayName>SHONKIN 7 S, MT US</displayName>
    <minDate>1953-05-13</minDate>
    <maxDate>2012-09-30</maxDate>
    <latitude>47.5319</latitude>
    <longitude>-110.5769</longitude>
    <elevation>1310.6</elevation>
    <locationLabels>
      <type>CNTRY</type>
      <id>FIPS:US</id>
      <displayName>United States</displayName>
    </locationLabels>
    <coverage>0.9337</coverage>
  </station>
  <station>
    <id>GHCND:USC00408301</id>
    <displayName>SHORE, TN US</displayName>
    <minDate>1958-01-01</minDate>
    <maxDate>1962-03-31</maxDate>
    <latitude>35.15</latitude>
    <longitude>-87.18333</longitude>
    <elevation>274.9</elevation>
    <locationLabels>
      <type>CNTRY</type>
      <id>FIPS:US</id>
      <displayName>United States</displayName>
    </locationLabels>
    <coverage>0.5042</coverage>
  </station>
  <station>
    <id>GHCND:US1TXHRR060</id>
    <displayName>SHOREACRES 0.9 W, TX US</displayName>
    <minDate>2009-11-13</minDate>
    <maxDate>2011-01-06</maxDate>
    <latitude>29.62</latitude>
    <longitude>-95.0163</longitude>
    <elevation>3</elevation>
    <locationLabels>
      <type>CNTRY</type>
      <id>FIPS:US</id>
      <displayName>United States</displayName>
    </locationLabels>
    <coverage>0.5881</coverage>
  </station>
  <station>
    <id>GHCND:US1TXHRR061</id>
    <displayName>SHOREACRES 1.8 WNW, TX US</displayName>
    <minDate>2009-11-13</minDate>
    <maxDate>2010-10-29</maxDate>
    <latitude>29.6239</latitude>
    <longitude>-95.0301</longitude>
    <elevation>3.4</elevation>
    <locationLabels>
      <type>CNTRY</type>
      <id>FIPS:US</id>
      <displayName>United States</displayName>
    </locationLabels>
    <coverage>0.5755</coverage>
  </station>
  <station>
    <id>GHCND:US1NYSF0018</id>
    <displayName>SHOREHAM 1.8 SSE, NY US</displayName>
    <minDate>2009-01-15</minDate>
    <maxDate>2013-01-16</maxDate>
    <latitude>40.9299</latitude>
    <longitude>-72.8988</longitude>
    <elevation>34.4</elevation>
    <locationLabels>
      <type>CNTRY</type>
      <id>FIPS:US</id>
      <displayName>United States</displayName>
    </locationLabels>
    <coverage>0.2905</coverage>
  </station>
  <station>
    <id>GHCND:USC00437217</id>
    <displayName>SHOREHAM, VT US</displayName>
    <minDate>1992-03-01</minDate>
    <maxDate>1999-07-31</maxDate>
    <latitude>43.86667</latitude>
    <longitude>-73.25</longitude>
    <elevation>85.3</elevation>
    <locationLabels>
      <type>CNTRY</type>
      <id>FIPS:US</id>
      <displayName>United States</displayName>
    </locationLabels>
    <coverage>0.9498</coverage>
  </station>
  <station>
    <id>GHCND:US1WAKG0030</id>
    <displayName>SHORELINE 1.0 ESE, WA US</displayName>
    <minDate>2008-08-04</minDate>
    <maxDate>2010-05-18</maxDate>
    <latitude>47.7533</latitude>
    <longitude>-122.3254</longitude>
    <elevation>143.9</elevation>
    <locationLabels>
      <type>CNTRY</type>
      <id>FIPS:US</id>
      <displayName>United States</displayName>
    </locationLabels>
    <coverage>0.4655</coverage>
  </station>
  <station>
    <id>GHCND:US1WAKG0137</id>
    <displayName>SHORELINE 1.7 NW, WA US</displayName>
    <minDate>2010-01-09</minDate>
    <maxDate>2013-01-16</maxDate>
    <latitude>47.7676</latitude>
    <longitude>-122.3741</longitude>
    <elevation>79.2</elevation>
    <locationLabels>
      <type>CNTRY</type>
      <id>FIPS:US</id>
      <displayName>United States</displayName>
    </locationLabels>
    <coverage>0.933</coverage>
  </station>
  <station>
    <id>GHCND:US1WIMW0001</id>
    <displayName>SHOREWOOD 0.6 NW, WI US</displayName>
    <minDate>2007-03-01</minDate>
    <maxDate>2012-12-22</maxDate>
    <latitude>43.0978</latitude>
    <longitude>-87.893</longitude>
    <elevation>202.1</elevation>
    <locationLabels>
      <type>CNTRY</type>
      <id>FIPS:US</id>
      <displayName>United States</displayName>
    </locationLabels>
    <coverage>0.9986</coverage>
  </station>
  <station>
    <id>GHCND:US1ILWL0003</id>
    <displayName>SHOREWOOD 1.5 WSW, IL US</displayName>
    <minDate>2007-01-02</minDate>
    <maxDate>2008-07-30</maxDate>
    <latitude>41.5178</latitude>
    <longitude>-88.2303</longitude>
    <elevation>192</elevation>
    <locationLabels>
      <type>CNTRY</type>
      <id>FIPS:US</id>
      <displayName>United States</displayName>
    </locationLabels>
    <coverage>0.6493</coverage>
  </station>
  <station>
    <id>GHCND:USC00477792</id>
    <displayName>SHOREWOOD, WI US</displayName>
    <minDate>1959-06-26</minDate>
    <maxDate>1966-09-30</maxDate>
    <latitude>43.1</latitude>
    <longitude>-87.9</longitude>
    <elevation>200.9</elevation>
    <locationLabels>
      <type>CNTRY</type>
      <id>FIPS:US</id>
      <displayName>United States</displayName>
    </locationLabels>
    <coverage>0.9989</coverage>
  </station>
</stationCollection>
