<?xml version="1.0" encoding="UTF-8" standalone="yes"?>
<stationCollection totalCount="46020" pageCount="461" pageSize="100" page="158">
  <station>
    <id>GHCND:USR0000IGAS</id>
    <displayName>GAS CAVES IDAHO, ID US</displayName>
    <minDate>1988-12-30</minDate>
    <maxDate>2012-08-31</maxDate>
    <latitude>44.1678</latitude>
    <longitude>-111.7792</longitude>
    <elevation>1749.6</elevation>
    <locationLabels>
      <type>CNTRY</type>
      <id>FIPS:US</id>
      <displayName>United States</displayName>
    </locationLabels>
    <coverage>0.9529</coverage>
  </station>
  <station>
    <id>GHCND:US1INGR0011</id>
    <displayName>GAS CITY 0.9 SW, IN US</displayName>
    <minDate>2009-05-09</minDate>
    <maxDate>2013-01-16</maxDate>
    <latitude>40.4793</latitude>
    <longitude>-85.6189</longitude>
    <elevation>255.4</elevation>
    <locationLabels>
      <type>CNTRY</type>
      <id>FIPS:US</id>
      <displayName>United States</displayName>
    </locationLabels>
    <coverage>0.9422</coverage>
  </station>
  <station>
    <id>GHCND:USC00483801</id>
    <displayName>GAS HILLS 4 E, WY US</displayName>
    <minDate>1962-09-10</minDate>
    <maxDate>2007-04-30</maxDate>
    <latitude>42.8394</latitude>
    <longitude>-107.5133</longitude>
    <elevation>1972.1</elevation>
    <locationLabels>
      <type>CNTRY</type>
      <id>FIPS:US</id>
      <displayName>United States</displayName>
    </locationLabels>
    <coverage>0.896</coverage>
  </station>
  <station>
    <id>GHCND:USC00293488</id>
    <displayName>GASCON, NM US</displayName>
    <minDate>1953-11-18</minDate>
    <maxDate>2012-09-30</maxDate>
    <latitude>35.8917</latitude>
    <longitude>-105.4481</longitude>
    <elevation>2514.6</elevation>
    <locationLabels>
      <type>CNTRY</type>
      <id>FIPS:US</id>
      <displayName>United States</displayName>
    </locationLabels>
    <coverage>0.994</coverage>
  </station>
  <station>
    <id>GHCND:USR0000CGAS</id>
    <displayName>GASQUET CALIFORNIA, CA US</displayName>
    <minDate>1993-11-15</minDate>
    <maxDate>2012-08-30</maxDate>
    <latitude>41.8458</latitude>
    <longitude>-123.9792</longitude>
    <elevation>152.4</elevation>
    <locationLabels>
      <type>CNTRY</type>
      <id>FIPS:US</id>
      <displayName>United States</displayName>
    </locationLabels>
    <coverage>0.6614</coverage>
  </station>
  <station>
    <id>GHCND:USC00043357</id>
    <displayName>GASQUET RANGER STATION, CA US</displayName>
    <minDate>1948-07-01</minDate>
    <maxDate>2013-01-16</maxDate>
    <latitude>41.8452</latitude>
    <longitude>-123.9647</longitude>
    <elevation>118</elevation>
    <locationLabels>
      <type>CNTRY</type>
      <id>FIPS:US</id>
      <displayName>United States</displayName>
    </locationLabels>
    <coverage>0.9848</coverage>
  </station>
  <station>
    <id>GHCND:USC00463361</id>
    <displayName>GASSAWAY, WV US</displayName>
    <minDate>1918-04-01</minDate>
    <maxDate>2013-01-16</maxDate>
    <latitude>38.6649</latitude>
    <longitude>-80.7672</longitude>
    <elevation>258.5</elevation>
    <locationLabels>
      <type>CNTRY</type>
      <id>FIPS:US</id>
      <displayName>United States</displayName>
    </locationLabels>
    <coverage>0.6527</coverage>
  </station>
  <station>
    <id>GHCND:US1ORYM0001</id>
    <displayName>GASTON 3.2 SW, OR US</displayName>
    <minDate>2007-11-29</minDate>
    <maxDate>2013-01-16</maxDate>
    <latitude>45.4</latitude>
    <longitude>-123.183</longitude>
    <elevation>89.9</elevation>
    <locationLabels>
      <type>CNTRY</type>
      <id>FIPS:US</id>
      <displayName>United States</displayName>
    </locationLabels>
    <coverage>0.9739</coverage>
  </station>
  <station>
    <id>GHCND:US1SCLX0044</id>
    <displayName>GASTON 3.8 W, SC US</displayName>
    <minDate>2009-08-01</minDate>
    <maxDate>2013-01-01</maxDate>
    <latitude>33.8176</latitude>
    <longitude>-81.168</longitude>
    <elevation>153.9</elevation>
    <locationLabels>
      <type>CNTRY</type>
      <id>FIPS:US</id>
      <displayName>United States</displayName>
    </locationLabels>
    <coverage>0.8728</coverage>
  </station>
  <station>
    <id>GHCND:US1SCLX0040</id>
    <displayName>GASTON 4.4 N, SC US</displayName>
    <minDate>2009-03-17</minDate>
    <maxDate>2011-07-26</maxDate>
    <latitude>33.8796</latitude>
    <longitude>-81.1058</longitude>
    <elevation>102.4</elevation>
    <locationLabels>
      <type>CNTRY</type>
      <id>FIPS:US</id>
      <displayName>United States</displayName>
    </locationLabels>
    <coverage>0.761</coverage>
  </station>
  <station>
    <id>GHCND:US1SCCA0002</id>
    <displayName>GASTON 5.3 E, SC US</displayName>
    <minDate>2009-03-06</minDate>
    <maxDate>2013-01-16</maxDate>
    <latitude>33.8097</latitude>
    <longitude>-81.009</longitude>
    <elevation>94.5</elevation>
    <locationLabels>
      <type>CNTRY</type>
      <id>FIPS:US</id>
      <displayName>United States</displayName>
    </locationLabels>
    <coverage>0.9547</coverage>
  </station>
  <station>
    <id>GHCND:USC00383433</id>
    <displayName>GASTON SHOALS, SC US</displayName>
    <minDate>1912-11-07</minDate>
    <maxDate>2013-01-16</maxDate>
    <latitude>35.138</latitude>
    <longitude>-81.5961</longitude>
    <elevation>182.9</elevation>
    <locationLabels>
      <type>CNTRY</type>
      <id>FIPS:US</id>
      <displayName>United States</displayName>
    </locationLabels>
    <coverage>0.9704</coverage>
  </station>
  <station>
    <id>GHCND:USC00413480</id>
    <displayName>GASTON, TX US</displayName>
    <minDate>1947-09-01</minDate>
    <maxDate>1951-01-31</maxDate>
    <latitude>29.71667</latitude>
    <longitude>-95.73333</longitude>
    <elevation>31.1</elevation>
    <locationLabels>
      <type>CNTRY</type>
      <id>FIPS:US</id>
      <displayName>United States</displayName>
    </locationLabels>
    <coverage>0.8943</coverage>
  </station>
  <station>
    <id>GHCND:US1NCGS0011</id>
    <displayName>GASTONIA 0.8 W, NC US</displayName>
    <minDate>2009-12-24</minDate>
    <maxDate>2013-01-11</maxDate>
    <latitude>35.2511</latitude>
    <longitude>-81.1848</longitude>
    <elevation>235</elevation>
    <locationLabels>
      <type>CNTRY</type>
      <id>FIPS:US</id>
      <displayName>United States</displayName>
    </locationLabels>
    <coverage>0.2206</coverage>
  </station>
  <station>
    <id>GHCND:US1NCGS0024</id>
    <displayName>GASTONIA 1.3 WSW, NC US</displayName>
    <minDate>2012-05-07</minDate>
    <maxDate>2013-01-15</maxDate>
    <latitude>35.2421</latitude>
    <longitude>-81.191</longitude>
    <elevation>238.4</elevation>
    <locationLabels>
      <type>CNTRY</type>
      <id>FIPS:US</id>
      <displayName>United States</displayName>
    </locationLabels>
    <coverage>0.874</coverage>
  </station>
  <station>
    <id>GHCND:US1NCGS0002</id>
    <displayName>GASTONIA 1.5 W, NC US</displayName>
    <minDate>2007-09-02</minDate>
    <maxDate>2012-06-12</maxDate>
    <latitude>35.2503</latitude>
    <longitude>-81.1986</longitude>
    <elevation>239</elevation>
    <locationLabels>
      <type>CNTRY</type>
      <id>FIPS:US</id>
      <displayName>United States</displayName>
    </locationLabels>
    <coverage>0.2995</coverage>
  </station>
  <station>
    <id>GHCND:US1NCGS0021</id>
    <displayName>GASTONIA 1.8 SSE, NC US</displayName>
    <minDate>2012-05-22</minDate>
    <maxDate>2013-01-16</maxDate>
    <latitude>35.2282</latitude>
    <longitude>-81.1598</longitude>
    <elevation>226.2</elevation>
    <locationLabels>
      <type>CNTRY</type>
      <id>FIPS:US</id>
      <displayName>United States</displayName>
    </locationLabels>
    <coverage>0.85</coverage>
  </station>
  <station>
    <id>GHCND:US1NCGS0007</id>
    <displayName>GASTONIA 2.5 NE, NC US</displayName>
    <minDate>2008-10-18</minDate>
    <maxDate>2013-01-16</maxDate>
    <latitude>35.2906</latitude>
    <longitude>-81.1542</longitude>
    <elevation>236.5</elevation>
    <locationLabels>
      <type>CNTRY</type>
      <id>FIPS:US</id>
      <displayName>United States</displayName>
    </locationLabels>
    <coverage>0.991</coverage>
  </station>
  <station>
    <id>GHCND:US1NCGS0006</id>
    <displayName>GASTONIA 3.9 ESE, NC US</displayName>
    <minDate>2008-09-26</minDate>
    <maxDate>2013-01-16</maxDate>
    <latitude>35.2539</latitude>
    <longitude>-81.1201</longitude>
    <elevation>211.8</elevation>
    <locationLabels>
      <type>CNTRY</type>
      <id>FIPS:US</id>
      <displayName>United States</displayName>
    </locationLabels>
    <coverage>0.5216</coverage>
  </station>
  <station>
    <id>GHCND:US1NCGS0022</id>
    <displayName>GASTONIA 3.9 SSW, NC US</displayName>
    <minDate>2012-05-24</minDate>
    <maxDate>2013-01-12</maxDate>
    <latitude>35.2</latitude>
    <longitude>-81.1948</longitude>
    <elevation>225.9</elevation>
    <locationLabels>
      <type>CNTRY</type>
      <id>FIPS:US</id>
      <displayName>United States</displayName>
    </locationLabels>
    <coverage>0.8462</coverage>
  </station>
  <station>
    <id>GHCND:US1NCGS0001</id>
    <displayName>GASTONIA 4.1 SSW, NC US</displayName>
    <minDate>2007-08-28</minDate>
    <maxDate>2009-12-31</maxDate>
    <latitude>35.1996</latitude>
    <longitude>-81.2045</longitude>
    <elevation>226.8</elevation>
    <locationLabels>
      <type>CNTRY</type>
      <id>FIPS:US</id>
      <displayName>United States</displayName>
    </locationLabels>
    <coverage>0.4026</coverage>
  </station>
  <station>
    <id>GHCND:US1NCGS0005</id>
    <displayName>GASTONIA 5.5 SE, NC US</displayName>
    <minDate>2008-07-08</minDate>
    <maxDate>2011-07-10</maxDate>
    <latitude>35.2178</latitude>
    <longitude>-81.1117</longitude>
    <elevation>229.2</elevation>
    <locationLabels>
      <type>CNTRY</type>
      <id>FIPS:US</id>
      <displayName>United States</displayName>
    </locationLabels>
    <coverage>0.1703</coverage>
  </station>
  <station>
    <id>GHCND:US1NCGS0008</id>
    <displayName>GASTONIA 5.7 SE, NC US</displayName>
    <minDate>2009-02-25</minDate>
    <maxDate>2013-01-16</maxDate>
    <latitude>35.2307</latitude>
    <longitude>-81.0968</longitude>
    <elevation>221</elevation>
    <locationLabels>
      <type>CNTRY</type>
      <id>FIPS:US</id>
      <displayName>United States</displayName>
    </locationLabels>
    <coverage>0.8101</coverage>
  </station>
  <station>
    <id>GHCND:USW00053870</id>
    <displayName>GASTONIA MUNICIPAL AIRPORT, NC US</displayName>
    <minDate>1999-02-01</minDate>
    <maxDate>2013-01-14</maxDate>
    <latitude>35.19667</latitude>
    <longitude>-81.15583</longitude>
    <elevation>242.9</elevation>
    <locationLabels>
      <type>CNTRY</type>
      <id>FIPS:US</id>
      <displayName>United States</displayName>
    </locationLabels>
    <coverage>0.9886</coverage>
  </station>
  <station>
    <id>GHCND:USC00313356</id>
    <displayName>GASTONIA, NC US</displayName>
    <minDate>1890-01-01</minDate>
    <maxDate>2012-12-31</maxDate>
    <latitude>35.2655</latitude>
    <longitude>-81.1433</longitude>
    <elevation>213.4</elevation>
    <locationLabels>
      <type>CNTRY</type>
      <id>FIPS:US</id>
      <displayName>United States</displayName>
    </locationLabels>
    <coverage>0.6528</coverage>
  </station>
  <station>
    <id>GHCND:US1OKBV0003</id>
    <displayName>GATE 9.6 N, OK US</displayName>
    <minDate>2010-04-15</minDate>
    <maxDate>2013-01-10</maxDate>
    <latitude>36.99</latitude>
    <longitude>-100.03</longitude>
    <elevation>618.7</elevation>
    <locationLabels>
      <type>CNTRY</type>
      <id>FIPS:US</id>
      <displayName>United States</displayName>
    </locationLabels>
    <coverage>0.9491</coverage>
  </station>
  <station>
    <id>GHCND:US1VASC0001</id>
    <displayName>GATE CITY 6.2 NNE, VA US</displayName>
    <minDate>2011-04-01</minDate>
    <maxDate>2013-01-16</maxDate>
    <latitude>36.7217</latitude>
    <longitude>-82.5367</longitude>
    <elevation>599.2</elevation>
    <locationLabels>
      <type>CNTRY</type>
      <id>FIPS:US</id>
      <displayName>United States</displayName>
    </locationLabels>
    <coverage>0.9741</coverage>
  </station>
  <station>
    <id>GHCND:USR0000MGAT</id>
    <displayName>GATE PARK MONTANA, MT US</displayName>
    <minDate>2001-10-07</minDate>
    <maxDate>2010-10-21</maxDate>
    <latitude>47.7897</latitude>
    <longitude>-112.9394</longitude>
    <elevation>2103.1</elevation>
    <locationLabels>
      <type>CNTRY</type>
      <id>FIPS:US</id>
      <displayName>United States</displayName>
    </locationLabels>
    <coverage>0.7795</coverage>
  </station>
  <station>
    <id>GHCND:USC00343489</id>
    <displayName>GATE, OK US</displayName>
    <minDate>1959-07-01</minDate>
    <maxDate>2012-11-30</maxDate>
    <latitude>36.85</latitude>
    <longitude>-100.0569</longitude>
    <elevation>685.8</elevation>
    <locationLabels>
      <type>CNTRY</type>
      <id>FIPS:US</id>
      <displayName>United States</displayName>
    </locationLabels>
    <coverage>0.9836</coverage>
  </station>
  <station>
    <id>GHCND:US1ORLN0026</id>
    <displayName>GATES 1.1 SE, OR US</displayName>
    <minDate>2009-02-25</minDate>
    <maxDate>2009-11-20</maxDate>
    <latitude>44.7443</latitude>
    <longitude>-122.4032</longitude>
    <elevation>353</elevation>
    <locationLabels>
      <type>CNTRY</type>
      <id>FIPS:US</id>
      <displayName>United States</displayName>
    </locationLabels>
    <coverage>0.4572</coverage>
  </station>
  <station>
    <id>GHCND:US1TNLD0001</id>
    <displayName>GATES 4.0 NNE, TN US</displayName>
    <minDate>2007-07-01</minDate>
    <maxDate>2008-08-08</maxDate>
    <latitude>35.8951</latitude>
    <longitude>-89.3874</longitude>
    <elevation>89</elevation>
    <locationLabels>
      <type>CNTRY</type>
      <id>FIPS:US</id>
      <displayName>United States</displayName>
    </locationLabels>
    <coverage>0.6198</coverage>
  </station>
  <station>
    <id>GHCND:US1TXCRL004</id>
    <displayName>GATESVILLE 12.0 SE, TX US</displayName>
    <minDate>2011-08-01</minDate>
    <maxDate>2013-01-16</maxDate>
    <latitude>31.3371</latitude>
    <longitude>-97.5704</longitude>
    <elevation>233.2</elevation>
    <locationLabels>
      <type>CNTRY</type>
      <id>FIPS:US</id>
      <displayName>United States</displayName>
    </locationLabels>
    <coverage>0.9832</coverage>
  </station>
  <station>
    <id>GHCND:USC00413485</id>
    <displayName>GATESVILLE 4 SSE, TX US</displayName>
    <minDate>1900-01-06</minDate>
    <maxDate>2013-01-15</maxDate>
    <latitude>31.41444</latitude>
    <longitude>-97.70194</longitude>
    <elevation>251.8</elevation>
    <locationLabels>
      <type>CNTRY</type>
      <id>FIPS:US</id>
      <displayName>United States</displayName>
    </locationLabels>
    <coverage>0.8597</coverage>
  </station>
  <station>
    <id>GHCND:US1NCGT0001</id>
    <displayName>GATESVILLE 8.3 NNE, NC US</displayName>
    <minDate>2009-05-31</minDate>
    <maxDate>2012-08-25</maxDate>
    <latitude>36.5199</latitude>
    <longitude>-76.7047</longitude>
    <elevation>21.3</elevation>
    <locationLabels>
      <type>CNTRY</type>
      <id>FIPS:US</id>
      <displayName>United States</displayName>
    </locationLabels>
    <coverage>0.1564</coverage>
  </station>
  <station>
    <id>GHCND:USC00313364</id>
    <displayName>GATESVILLE, NC US</displayName>
    <minDate>1948-08-01</minDate>
    <maxDate>1973-02-28</maxDate>
    <latitude>36.43333</latitude>
    <longitude>-76.71667</longitude>
    <elevation>11.9</elevation>
    <locationLabels>
      <type>CNTRY</type>
      <id>FIPS:US</id>
      <displayName>United States</displayName>
    </locationLabels>
    <coverage>0.9403</coverage>
  </station>
  <station>
    <id>GHCND:USC00053246</id>
    <displayName>GATEWAY, CO US</displayName>
    <minDate>1947-09-01</minDate>
    <maxDate>2013-01-15</maxDate>
    <latitude>38.6825</latitude>
    <longitude>-108.9722</longitude>
    <elevation>1400.6</elevation>
    <locationLabels>
      <type>CNTRY</type>
      <id>FIPS:US</id>
      <displayName>United States</displayName>
    </locationLabels>
    <coverage>0.9514</coverage>
  </station>
  <station>
    <id>GHCND:USC00443310</id>
    <displayName>GATHRIGHT DAM, VA US</displayName>
    <minDate>1980-06-01</minDate>
    <maxDate>2013-01-16</maxDate>
    <latitude>37.9458</latitude>
    <longitude>-79.9542</longitude>
    <elevation>539.5</elevation>
    <locationLabels>
      <type>CNTRY</type>
      <id>FIPS:US</id>
      <displayName>United States</displayName>
    </locationLabels>
    <coverage>0.9964</coverage>
  </station>
  <station>
    <id>GHCND:USC00403420</id>
    <displayName>GATLINBURG 2 SW, TN US</displayName>
    <minDate>1921-12-01</minDate>
    <maxDate>2013-01-16</maxDate>
    <latitude>35.6878</latitude>
    <longitude>-83.5369</longitude>
    <elevation>443.2</elevation>
    <locationLabels>
      <type>CNTRY</type>
      <id>FIPS:US</id>
      <displayName>United States</displayName>
    </locationLabels>
    <coverage>0.9362</coverage>
  </station>
  <station>
    <id>GHCND:US1MSJC0022</id>
    <displayName>GAUTIER 4.9 N, MS US</displayName>
    <minDate>2011-01-21</minDate>
    <maxDate>2013-01-14</maxDate>
    <latitude>30.4595</latitude>
    <longitude>-88.6476</longitude>
    <elevation>5.2</elevation>
    <locationLabels>
      <type>CNTRY</type>
      <id>FIPS:US</id>
      <displayName>United States</displayName>
    </locationLabels>
    <coverage>0.8455</coverage>
  </station>
  <station>
    <id>GHCND:US1MSJC0016</id>
    <displayName>GAUTIER 5.1 N, MS US</displayName>
    <minDate>2009-03-25</minDate>
    <maxDate>2013-01-16</maxDate>
    <latitude>30.4626</latitude>
    <longitude>-88.6465</longitude>
    <elevation>6.7</elevation>
    <locationLabels>
      <type>CNTRY</type>
      <id>FIPS:US</id>
      <displayName>United States</displayName>
    </locationLabels>
    <coverage>0.9749</coverage>
  </station>
  <station>
    <id>GHCND:USC00293505</id>
    <displayName>GAVILAN, NM US</displayName>
    <minDate>1929-07-01</minDate>
    <maxDate>1970-01-31</maxDate>
    <latitude>36.43333</latitude>
    <longitude>-106.96667</longitude>
    <elevation>2263.1</elevation>
    <locationLabels>
      <type>CNTRY</type>
      <id>FIPS:US</id>
      <displayName>United States</displayName>
    </locationLabels>
    <coverage>0.972</coverage>
  </station>
  <station>
    <id>GHCND:USC00253165</id>
    <displayName>GAVINS POINT DAM, NE US</displayName>
    <minDate>1961-01-01</minDate>
    <maxDate>1995-11-30</maxDate>
    <latitude>42.84556</latitude>
    <longitude>-97.47333</longitude>
    <elevation>382.5</elevation>
    <locationLabels>
      <type>CNTRY</type>
      <id>FIPS:US</id>
      <displayName>United States</displayName>
    </locationLabels>
    <coverage>0.994</coverage>
  </station>
  <station>
    <id>GHCND:USR0000CTUO</id>
    <displayName>GAYLOR MEADOW CALIFORNIA, CA US</displayName>
    <minDate>1988-08-11</minDate>
    <maxDate>2011-05-10</maxDate>
    <latitude>37.8683</latitude>
    <longitude>-119.3183</longitude>
    <elevation>2825.5</elevation>
    <locationLabels>
      <type>CNTRY</type>
      <id>FIPS:US</id>
      <displayName>United States</displayName>
    </locationLabels>
    <coverage>0.801</coverage>
  </station>
  <station>
    <id>GHCND:US1MIOT0003</id>
    <displayName>GAYLORD 0.6 NE, MI US</displayName>
    <minDate>2008-06-27</minDate>
    <maxDate>2009-04-27</maxDate>
    <latitude>45.0289</latitude>
    <longitude>-84.6681</longitude>
    <elevation>410.6</elevation>
    <locationLabels>
      <type>CNTRY</type>
      <id>FIPS:US</id>
      <displayName>United States</displayName>
    </locationLabels>
    <coverage>0.7279</coverage>
  </station>
  <station>
    <id>GHCND:US1MIOT0004</id>
    <displayName>GAYLORD 1.7 WNW, MI US</displayName>
    <minDate>2008-07-04</minDate>
    <maxDate>2013-01-16</maxDate>
    <latitude>45.0328</latitude>
    <longitude>-84.7109</longitude>
    <elevation>400.8</elevation>
    <locationLabels>
      <type>CNTRY</type>
      <id>FIPS:US</id>
      <displayName>United States</displayName>
    </locationLabels>
    <coverage>0.921</coverage>
  </station>
  <station>
    <id>GHCND:US1MIOT0007</id>
    <displayName>GAYLORD 1.8 ESE, MI US</displayName>
    <minDate>2009-04-01</minDate>
    <maxDate>2012-09-20</maxDate>
    <latitude>45.0093</latitude>
    <longitude>-84.6468</longitude>
    <elevation>397.8</elevation>
    <locationLabels>
      <type>CNTRY</type>
      <id>FIPS:US</id>
      <displayName>United States</displayName>
    </locationLabels>
    <coverage>0.9921</coverage>
  </station>
  <station>
    <id>GHCND:US1MIOT0001</id>
    <displayName>GAYLORD 2.2 SE, MI US</displayName>
    <minDate>2008-06-16</minDate>
    <maxDate>2013-01-16</maxDate>
    <latitude>44.9978</latitude>
    <longitude>-84.6531</longitude>
    <elevation>402</elevation>
    <locationLabels>
      <type>CNTRY</type>
      <id>FIPS:US</id>
      <displayName>United States</displayName>
    </locationLabels>
    <coverage>0.9839</coverage>
  </station>
  <station>
    <id>GHCND:US1MIOT0006</id>
    <displayName>GAYLORD 5.0 WNW, MI US</displayName>
    <minDate>2008-08-17</minDate>
    <maxDate>2011-10-14</maxDate>
    <latitude>45.0531</latitude>
    <longitude>-84.7708</longitude>
    <elevation>357.8</elevation>
    <locationLabels>
      <type>CNTRY</type>
      <id>FIPS:US</id>
      <displayName>United States</displayName>
    </locationLabels>
    <coverage>0.6499</coverage>
  </station>
  <station>
    <id>GHCND:US1MIOT0002</id>
    <displayName>GAYLORD 5.1 SSW, MI US</displayName>
    <minDate>2008-06-18</minDate>
    <maxDate>2012-10-26</maxDate>
    <latitude>44.9527</latitude>
    <longitude>-84.7046</longitude>
    <elevation>391.1</elevation>
    <locationLabels>
      <type>CNTRY</type>
      <id>FIPS:US</id>
      <displayName>United States</displayName>
    </locationLabels>
    <coverage>0.2908</coverage>
  </station>
  <station>
    <id>GHCND:US1MIOT0005</id>
    <displayName>GAYLORD 7.4 W, MI US</displayName>
    <minDate>2008-07-13</minDate>
    <maxDate>2013-01-02</maxDate>
    <latitude>45.0114</latitude>
    <longitude>-84.8278</longitude>
    <elevation>417.6</elevation>
    <locationLabels>
      <type>CNTRY</type>
      <id>FIPS:US</id>
      <displayName>United States</displayName>
    </locationLabels>
    <coverage>0.1939</coverage>
  </station>
  <station>
    <id>GHCND:USW00054854</id>
    <displayName>GAYLORD 9 SSW, MI US</displayName>
    <minDate>2007-09-20</minDate>
    <maxDate>2013-01-15</maxDate>
    <latitude>44.9080</latitude>
    <longitude>-84.7203</longitude>
    <elevation>445.3</elevation>
    <locationLabels>
      <type>CNTRY</type>
      <id>FIPS:US</id>
      <displayName>United States</displayName>
    </locationLabels>
    <coverage>0.9949</coverage>
  </station>
  <station>
    <id>GHCND:USW00004854</id>
    <displayName>GAYLORD OTSEGO CO AIRPORT, MI US</displayName>
    <minDate>1998-03-26</minDate>
    <maxDate>2013-01-14</maxDate>
    <latitude>45.01333</latitude>
    <longitude>-84.70139</longitude>
    <elevation>406.9</elevation>
    <locationLabels>
      <type>CNTRY</type>
      <id>FIPS:US</id>
      <displayName>United States</displayName>
    </locationLabels>
    <coverage>0.9919</coverage>
  </station>
  <station>
    <id>GHCND:USC00203099</id>
    <displayName>GAYLORD WSO N, MI US</displayName>
    <minDate>1998-08-01</minDate>
    <maxDate>2013-01-16</maxDate>
    <latitude>44.9072</latitude>
    <longitude>-84.7188</longitude>
    <elevation>447.4</elevation>
    <locationLabels>
      <type>CNTRY</type>
      <id>FIPS:US</id>
      <displayName>United States</displayName>
    </locationLabels>
    <coverage>0.9989</coverage>
  </station>
  <station>
    <id>GHCND:USC00203096</id>
    <displayName>GAYLORD, MI US</displayName>
    <minDate>1893-01-01</minDate>
    <maxDate>2013-01-16</maxDate>
    <latitude>45.0302</latitude>
    <longitude>-84.678</longitude>
    <elevation>412.4</elevation>
    <locationLabels>
      <type>CNTRY</type>
      <id>FIPS:US</id>
      <displayName>United States</displayName>
    </locationLabels>
    <coverage>0.7717</coverage>
  </station>
  <station>
    <id>GHCND:USC00213076</id>
    <displayName>GAYLORD, MN US</displayName>
    <minDate>1956-10-02</minDate>
    <maxDate>2013-01-15</maxDate>
    <latitude>44.5565</latitude>
    <longitude>-94.2207</longitude>
    <elevation>310.3</elevation>
    <locationLabels>
      <type>CNTRY</type>
      <id>FIPS:US</id>
      <displayName>United States</displayName>
    </locationLabels>
    <coverage>0.9923</coverage>
  </station>
  <station>
    <id>GHCND:US1WICR0001</id>
    <displayName>GAYS MILLS 6.1 SE, WI US</displayName>
    <minDate>2007-10-29</minDate>
    <maxDate>2013-01-16</maxDate>
    <latitude>43.2648</latitude>
    <longitude>-90.7557</longitude>
    <elevation>338</elevation>
    <locationLabels>
      <type>CNTRY</type>
      <id>FIPS:US</id>
      <displayName>United States</displayName>
    </locationLabels>
    <coverage>0.6523</coverage>
  </station>
  <station>
    <id>GHCND:USC00473022</id>
    <displayName>GAYS MILLS, WI US</displayName>
    <minDate>1981-04-01</minDate>
    <maxDate>2012-12-28</maxDate>
    <latitude>43.3145</latitude>
    <longitude>-90.8486</longitude>
    <elevation>210</elevation>
    <locationLabels>
      <type>CNTRY</type>
      <id>FIPS:US</id>
      <displayName>United States</displayName>
    </locationLabels>
    <coverage>0.8378</coverage>
  </station>
  <station>
    <id>GHCND:USC00473021</id>
    <displayName>GAYS MILLS, WI US</displayName>
    <minDate>1939-03-27</minDate>
    <maxDate>1956-11-30</maxDate>
    <latitude>43.3145</latitude>
    <longitude>-90.8486</longitude>
    <elevation>210</elevation>
    <locationLabels>
      <type>CNTRY</type>
      <id>FIPS:US</id>
      <displayName>United States</displayName>
    </locationLabels>
    <coverage>0.7973</coverage>
  </station>
  <station>
    <id>GHCND:US1SDYN0003</id>
    <displayName>GAYVILLE 1.8 SSW, SD US</displayName>
    <minDate>2007-06-08</minDate>
    <maxDate>2013-01-16</maxDate>
    <latitude>42.863</latitude>
    <longitude>-97.1804</longitude>
    <elevation>352</elevation>
    <locationLabels>
      <type>CNTRY</type>
      <id>FIPS:US</id>
      <displayName>United States</displayName>
    </locationLabels>
    <coverage>0.8888</coverage>
  </station>
  <station>
    <id>GHCND:USC00343838</id>
    <displayName>GDYMON 9 NW, OK US</displayName>
    <minDate>1949-10-01</minDate>
    <maxDate>1957-05-16</maxDate>
    <latitude>36.78333</latitude>
    <longitude>-101.58333</longitude>
    <elevation>1007.1</elevation>
    <locationLabels>
      <type>CNTRY</type>
      <id>FIPS:US</id>
      <displayName>United States</displayName>
    </locationLabels>
    <coverage>0.9774</coverage>
  </station>
  <station>
    <id>GHCND:US1OKBL0001</id>
    <displayName>GEARY 9.8 WNW, OK US</displayName>
    <minDate>2006-11-27</minDate>
    <maxDate>2013-01-10</maxDate>
    <latitude>35.6858</latitude>
    <longitude>-98.4772</longitude>
    <elevation>531</elevation>
    <locationLabels>
      <type>CNTRY</type>
      <id>FIPS:US</id>
      <displayName>United States</displayName>
    </locationLabels>
    <coverage>0.8999</coverage>
  </station>
  <station>
    <id>GHCND:USC00343497</id>
    <displayName>GEARY, OK US</displayName>
    <minDate>1911-11-02</minDate>
    <maxDate>2012-12-24</maxDate>
    <latitude>35.63056</latitude>
    <longitude>-98.32167</longitude>
    <elevation>478.8</elevation>
    <locationLabels>
      <type>CNTRY</type>
      <id>FIPS:US</id>
      <displayName>United States</displayName>
    </locationLabels>
    <coverage>0.9628</coverage>
  </station>
  <station>
    <id>GHCND:USC00113369</id>
    <displayName>GEBHARD WOODS ST PK, IL US</displayName>
    <minDate>1970-12-03</minDate>
    <maxDate>1995-10-31</maxDate>
    <latitude>41.35</latitude>
    <longitude>-88.43333</longitude>
    <elevation>153.9</elevation>
    <locationLabels>
      <type>CNTRY</type>
      <id>FIPS:US</id>
      <displayName>United States</displayName>
    </locationLabels>
    <coverage>0.9508</coverage>
  </station>
  <station>
    <id>GHCND:USC00393274</id>
    <displayName>GEDDES, SD US</displayName>
    <minDate>1931-08-13</minDate>
    <maxDate>1949-12-31</maxDate>
    <latitude>43.25</latitude>
    <longitude>-98.68333</longitude>
    <elevation>491</elevation>
    <locationLabels>
      <type>CNTRY</type>
      <id>FIPS:US</id>
      <displayName>United States</displayName>
    </locationLabels>
    <coverage>0.8432</coverage>
  </station>
  <station>
    <id>GHCND:USC00303165</id>
    <displayName>GEE BROOK HILLS, NY US</displayName>
    <minDate>1937-01-01</minDate>
    <maxDate>1943-06-30</maxDate>
    <latitude>42.483333</latitude>
    <longitude>-75.933333</longitude>
    <elevation>402.3</elevation>
    <locationLabels>
      <type>CNTRY</type>
      <id>FIPS:US</id>
      <displayName>United States</displayName>
    </locationLabels>
    <coverage>0.9857</coverage>
  </station>
  <station>
    <id>GHCND:USC00363189</id>
    <displayName>GEIGERTOWN, PA US</displayName>
    <minDate>1945-08-04</minDate>
    <maxDate>1976-01-31</maxDate>
    <latitude>40.2</latitude>
    <longitude>-75.83333</longitude>
    <elevation>121.9</elevation>
    <locationLabels>
      <type>CNTRY</type>
      <id>FIPS:US</id>
      <displayName>United States</displayName>
    </locationLabels>
    <coverage>0.9674</coverage>
  </station>
  <station>
    <id>GHCND:USC00393284</id>
    <displayName>GELHAUS FARM, SD US</displayName>
    <minDate>1932-05-01</minDate>
    <maxDate>1952-09-30</maxDate>
    <latitude>45.25</latitude>
    <longitude>-97.45</longitude>
    <elevation>558.1</elevation>
    <locationLabels>
      <type>CNTRY</type>
      <id>FIPS:US</id>
      <displayName>United States</displayName>
    </locationLabels>
    <coverage>0.9672</coverage>
  </station>
  <station>
    <id>GHCND:USC00043369</id>
    <displayName>GEM LAKE, CA US</displayName>
    <minDate>1924-11-01</minDate>
    <maxDate>2010-11-30</maxDate>
    <latitude>37.7519</latitude>
    <longitude>-119.1402</longitude>
    <elevation>2734.1</elevation>
    <locationLabels>
      <type>CNTRY</type>
      <id>FIPS:US</id>
      <displayName>United States</displayName>
    </locationLabels>
    <coverage>0.8243</coverage>
  </station>
  <station>
    <id>GHCND:USC00143032</id>
    <displayName>GEM, KS US</displayName>
    <minDate>1999-08-01</minDate>
    <maxDate>2001-03-26</maxDate>
    <latitude>39.42611</latitude>
    <longitude>-100.89611</longitude>
    <elevation>944</elevation>
    <locationLabels>
      <type>CNTRY</type>
      <id>FIPS:US</id>
      <displayName>United States</displayName>
    </locationLabels>
    <coverage>1</coverage>
  </station>
  <station>
    <id>GHCND:US1COJF0012</id>
    <displayName>GENESEE 1 N, CO US</displayName>
    <minDate>2002-04-22</minDate>
    <maxDate>2012-04-26</maxDate>
    <latitude>39.7094</latitude>
    <longitude>-105.2661</longitude>
    <elevation>2243.9</elevation>
    <locationLabels>
      <type>CNTRY</type>
      <id>FIPS:US</id>
      <displayName>United States</displayName>
    </locationLabels>
    <coverage>0.8166</coverage>
  </station>
  <station>
    <id>GHCND:US1COJF0104</id>
    <displayName>GENESEE 1 SE, CO US</displayName>
    <minDate>2000-11-06</minDate>
    <maxDate>2008-04-17</maxDate>
    <latitude>39.6874</latitude>
    <longitude>-105.256</longitude>
    <elevation>2350.9</elevation>
    <locationLabels>
      <type>CNTRY</type>
      <id>FIPS:US</id>
      <displayName>United States</displayName>
    </locationLabels>
    <coverage>0.6452</coverage>
  </station>
  <station>
    <id>GHCND:US1COJF0011</id>
    <displayName>GENESEE 1 SW, CO US</displayName>
    <minDate>2001-10-03</minDate>
    <maxDate>2012-12-25</maxDate>
    <latitude>39.6853</latitude>
    <longitude>-105.2902</longitude>
    <elevation>2228.1</elevation>
    <locationLabels>
      <type>CNTRY</type>
      <id>FIPS:US</id>
      <displayName>United States</displayName>
    </locationLabels>
    <coverage>0.149</coverage>
  </station>
  <station>
    <id>GHCND:USC00363196</id>
    <displayName>GENESEE, NY US</displayName>
    <minDate>1930-09-01</minDate>
    <maxDate>1932-03-31</maxDate>
    <latitude>42</latitude>
    <longitude>-77.883333</longitude>
    <elevation>542.5</elevation>
    <locationLabels>
      <type>CNTRY</type>
      <id>FIPS:US</id>
      <displayName>United States</displayName>
    </locationLabels>
    <coverage>1</coverage>
  </station>
  <station>
    <id>GHCND:US1KSEW0029</id>
    <displayName>GENESEO 3.3 NW, KS US</displayName>
    <minDate>2010-08-01</minDate>
    <maxDate>2012-10-13</maxDate>
    <latitude>38.5457</latitude>
    <longitude>-98.2017</longitude>
    <elevation>544.4</elevation>
    <locationLabels>
      <type>CNTRY</type>
      <id>FIPS:US</id>
      <displayName>United States</displayName>
    </locationLabels>
    <coverage>0.5366</coverage>
  </station>
  <station>
    <id>GHCND:US1KSEW0001</id>
    <displayName>GENESEO 4.1 N, KS US</displayName>
    <minDate>2006-06-22</minDate>
    <maxDate>2012-12-15</maxDate>
    <latitude>38.5752</latitude>
    <longitude>-98.1461</longitude>
    <elevation>505.1</elevation>
    <locationLabels>
      <type>CNTRY</type>
      <id>FIPS:US</id>
      <displayName>United States</displayName>
    </locationLabels>
    <coverage>0.1575</coverage>
  </station>
  <station>
    <id>GHCND:US1KSEW0018</id>
    <displayName>GENESEO 5.6 NE, KS US</displayName>
    <minDate>2008-04-23</minDate>
    <maxDate>2009-06-30</maxDate>
    <latitude>38.579</latitude>
    <longitude>-98.0875</longitude>
    <elevation>506</elevation>
    <locationLabels>
      <type>CNTRY</type>
      <id>FIPS:US</id>
      <displayName>United States</displayName>
    </locationLabels>
    <coverage>0.3295</coverage>
  </station>
  <station>
    <id>GHCND:US1KSRC0001</id>
    <displayName>GENESEO 6.0 SE, KS US</displayName>
    <minDate>2009-04-09</minDate>
    <maxDate>2010-01-28</maxDate>
    <latitude>38.4639</latitude>
    <longitude>-98.0653</longitude>
    <elevation>511.5</elevation>
    <locationLabels>
      <type>CNTRY</type>
      <id>FIPS:US</id>
      <displayName>United States</displayName>
    </locationLabels>
    <coverage>0.9559</coverage>
  </station>
  <station>
    <id>GHCND:USC00113384</id>
    <displayName>GENESEO, IL US</displayName>
    <minDate>1895-01-01</minDate>
    <maxDate>2013-01-15</maxDate>
    <latitude>41.4511</latitude>
    <longitude>-90.1487</longitude>
    <elevation>194.8</elevation>
    <locationLabels>
      <type>CNTRY</type>
      <id>FIPS:US</id>
      <displayName>United States</displayName>
    </locationLabels>
    <coverage>0.8614</coverage>
  </station>
  <station>
    <id>GHCND:USC00143037</id>
    <displayName>GENESEO, KS US</displayName>
    <minDate>1939-03-01</minDate>
    <maxDate>2012-11-30</maxDate>
    <latitude>38.5376</latitude>
    <longitude>-98.161</longitude>
    <elevation>533.4</elevation>
    <locationLabels>
      <type>CNTRY</type>
      <id>FIPS:US</id>
      <displayName>United States</displayName>
    </locationLabels>
    <coverage>0.865</coverage>
  </station>
  <station>
    <id>GHCND:US10fill015</id>
    <displayName>GENEVA 0.1 W, NE US</displayName>
    <minDate>2009-10-08</minDate>
    <maxDate>2011-03-11</maxDate>
    <latitude>40.527</latitude>
    <longitude>-97.5982</longitude>
    <elevation>0</elevation>
    <locationLabels>
      <type>CNTRY</type>
      <id>FIPS:US</id>
      <displayName>United States</displayName>
    </locationLabels>
    <coverage>0.3154</coverage>
  </station>
  <station>
    <id>GHCND:US1ILKN0056</id>
    <displayName>GENEVA 0.4 NNE, IL US</displayName>
    <minDate>2008-03-11</minDate>
    <maxDate>2008-10-10</maxDate>
    <latitude>41.8873</latitude>
    <longitude>-88.3126</longitude>
    <elevation>226.2</elevation>
    <locationLabels>
      <type>CNTRY</type>
      <id>FIPS:US</id>
      <displayName>United States</displayName>
    </locationLabels>
    <coverage>0.5701</coverage>
  </station>
  <station>
    <id>GHCND:US1ILKN0019</id>
    <displayName>GENEVA 0.4 SW, IL US</displayName>
    <minDate>2007-05-17</minDate>
    <maxDate>2008-10-31</maxDate>
    <latitude>41.8786</latitude>
    <longitude>-88.3211</longitude>
    <elevation>228</elevation>
    <locationLabels>
      <type>CNTRY</type>
      <id>FIPS:US</id>
      <displayName>United States</displayName>
    </locationLabels>
    <coverage>0.309</coverage>
  </station>
  <station>
    <id>GHCND:US10fill008</id>
    <displayName>GENEVA 0.5 SSW, NE US</displayName>
    <minDate>2011-04-22</minDate>
    <maxDate>2013-01-16</maxDate>
    <latitude>40.5195</latitude>
    <longitude>-97.5985</longitude>
    <elevation>0</elevation>
    <locationLabels>
      <type>CNTRY</type>
      <id>FIPS:US</id>
      <displayName>United States</displayName>
    </locationLabels>
    <coverage>0.8553</coverage>
  </station>
  <station>
    <id>GHCND:US1ILKN0092</id>
    <displayName>GENEVA 0.5 SW, IL US</displayName>
    <minDate>2011-03-27</minDate>
    <maxDate>2012-06-09</maxDate>
    <latitude>41.8773</latitude>
    <longitude>-88.3212</longitude>
    <elevation>223.4</elevation>
    <locationLabels>
      <type>CNTRY</type>
      <id>FIPS:US</id>
      <displayName>United States</displayName>
    </locationLabels>
    <coverage>0.576</coverage>
  </station>
  <station>
    <id>GHCND:US1ILKN0068</id>
    <displayName>GENEVA 0.9 N, IL US</displayName>
    <minDate>2008-05-27</minDate>
    <maxDate>2013-01-13</maxDate>
    <latitude>41.895</latitude>
    <longitude>-88.3114</longitude>
    <elevation>228</elevation>
    <locationLabels>
      <type>CNTRY</type>
      <id>FIPS:US</id>
      <displayName>United States</displayName>
    </locationLabels>
    <coverage>0.974</coverage>
  </station>
  <station>
    <id>GHCND:US1ILKN0066</id>
    <displayName>GENEVA 1.0 E, IL US</displayName>
    <minDate>2008-04-15</minDate>
    <maxDate>2008-11-13</maxDate>
    <latitude>41.8847</latitude>
    <longitude>-88.2955</longitude>
    <elevation>228</elevation>
    <locationLabels>
      <type>CNTRY</type>
      <id>FIPS:US</id>
      <displayName>United States</displayName>
    </locationLabels>
    <coverage>0.6385</coverage>
  </station>
  <station>
    <id>GHCND:US1ILKN0081</id>
    <displayName>GENEVA 1.0 WNW, IL US</displayName>
    <minDate>2010-05-11</minDate>
    <maxDate>2012-10-23</maxDate>
    <latitude>41.8898</latitude>
    <longitude>-88.3306</longitude>
    <elevation>191.4</elevation>
    <locationLabels>
      <type>CNTRY</type>
      <id>FIPS:US</id>
      <displayName>United States</displayName>
    </locationLabels>
    <coverage>0.3846</coverage>
  </station>
  <station>
    <id>GHCND:US1ILKN0078</id>
    <displayName>GENEVA 1.3 SSW, IL US</displayName>
    <minDate>2010-04-05</minDate>
    <maxDate>2013-01-16</maxDate>
    <latitude>41.8644</latitude>
    <longitude>-88.3232</longitude>
    <elevation>217.3</elevation>
    <locationLabels>
      <type>CNTRY</type>
      <id>FIPS:US</id>
      <displayName>United States</displayName>
    </locationLabels>
    <coverage>0.8821</coverage>
  </station>
  <station>
    <id>GHCND:US1ILKN0014</id>
    <displayName>GENEVA 1.3 WSW, IL US</displayName>
    <minDate>2007-03-10</minDate>
    <maxDate>2008-01-26</maxDate>
    <latitude>41.8771</latitude>
    <longitude>-88.338</longitude>
    <elevation>226.2</elevation>
    <locationLabels>
      <type>CNTRY</type>
      <id>FIPS:US</id>
      <displayName>United States</displayName>
    </locationLabels>
    <coverage>0.517</coverage>
  </station>
  <station>
    <id>GHCND:US1ILKN0040</id>
    <displayName>GENEVA 1.4 SSW, IL US</displayName>
    <minDate>2008-02-05</minDate>
    <maxDate>2009-10-18</maxDate>
    <latitude>41.8648</latitude>
    <longitude>-88.3268</longitude>
    <elevation>216.7</elevation>
    <locationLabels>
      <type>CNTRY</type>
      <id>FIPS:US</id>
      <displayName>United States</displayName>
    </locationLabels>
    <coverage>0.4148</coverage>
  </station>
  <station>
    <id>GHCND:US1ILKN0001</id>
    <displayName>GENEVA 1.6 ENE, IL US</displayName>
    <minDate>2006-11-18</minDate>
    <maxDate>2013-01-16</maxDate>
    <latitude>41.8941</latitude>
    <longitude>-88.2884</longitude>
    <elevation>230.1</elevation>
    <locationLabels>
      <type>CNTRY</type>
      <id>FIPS:US</id>
      <displayName>United States</displayName>
    </locationLabels>
    <coverage>0.9072</coverage>
  </station>
  <station>
    <id>GHCND:US1ILKN0079</id>
    <displayName>GENEVA 1.6 WSW, IL US</displayName>
    <minDate>2010-05-18</minDate>
    <maxDate>2012-11-11</maxDate>
    <latitude>41.8772</latitude>
    <longitude>-88.3454</longitude>
    <elevation>222.5</elevation>
    <locationLabels>
      <type>CNTRY</type>
      <id>FIPS:US</id>
      <displayName>United States</displayName>
    </locationLabels>
    <coverage>0.5149</coverage>
  </station>
  <station>
    <id>GHCND:US1ILKN0063</id>
    <displayName>GENEVA 1.7 WSW, IL US</displayName>
    <minDate>2008-04-02</minDate>
    <maxDate>2013-01-16</maxDate>
    <latitude>41.8742</latitude>
    <longitude>-88.3448</longitude>
    <elevation>223.1</elevation>
    <locationLabels>
      <type>CNTRY</type>
      <id>FIPS:US</id>
      <displayName>United States</displayName>
    </locationLabels>
    <coverage>0.9692</coverage>
  </station>
  <station>
    <id>GHCND:US1ILKN0057</id>
    <displayName>GENEVA 1.9 W, IL US</displayName>
    <minDate>2008-09-16</minDate>
    <maxDate>2011-10-24</maxDate>
    <latitude>41.8865</latitude>
    <longitude>-88.3517</longitude>
    <elevation>238</elevation>
    <locationLabels>
      <type>CNTRY</type>
      <id>FIPS:US</id>
      <displayName>United States</displayName>
    </locationLabels>
    <coverage>0.1667</coverage>
  </station>
  <station>
    <id>GHCND:USC00333094</id>
    <displayName>GENEVA 3 S, OH US</displayName>
    <minDate>1915-05-14</minDate>
    <maxDate>1965-12-31</maxDate>
    <latitude>41.75</latitude>
    <longitude>-80.95</longitude>
    <elevation>228.9</elevation>
    <locationLabels>
      <type>CNTRY</type>
      <id>FIPS:US</id>
      <displayName>United States</displayName>
    </locationLabels>
    <coverage>0.531</coverage>
  </station>
  <station>
    <id>GHCND:USC00333095</id>
    <displayName>GENEVA 3 S, OH US</displayName>
    <minDate>1970-06-01</minDate>
    <maxDate>1983-11-22</maxDate>
    <latitude>41.75</latitude>
    <longitude>-80.95</longitude>
    <elevation>228.9</elevation>
    <locationLabels>
      <type>CNTRY</type>
      <id>FIPS:US</id>
      <displayName>United States</displayName>
    </locationLabels>
    <coverage>0.9273</coverage>
  </station>
  <station>
    <id>GHCND:US1ILKN0008</id>
    <displayName>GENEVA 3.3 WSW, IL US</displayName>
    <minDate>2007-03-18</minDate>
    <maxDate>2012-12-21</maxDate>
    <latitude>41.8622</latitude>
    <longitude>-88.3736</longitude>
    <elevation>217.9</elevation>
    <locationLabels>
      <type>CNTRY</type>
      <id>FIPS:US</id>
      <displayName>United States</displayName>
    </locationLabels>
    <coverage>0.2203</coverage>
  </station>
  <station>
    <id>GHCND:US10fill005</id>
    <displayName>GENEVA 4.1 W, NE US</displayName>
    <minDate>2008-03-31</minDate>
    <maxDate>2012-12-15</maxDate>
    <latitude>40.5402</latitude>
    <longitude>-97.672</longitude>
    <elevation>498</elevation>
    <locationLabels>
      <type>CNTRY</type>
      <id>FIPS:US</id>
      <displayName>United States</displayName>
    </locationLabels>
    <coverage>0.731</coverage>
  </station>
  <station>
    <id>GHCND:USC00303177</id>
    <displayName>GENEVA EXPERIMENT ST, NY US</displayName>
    <minDate>1892-12-01</minDate>
    <maxDate>1968-12-31</maxDate>
    <latitude>42.88333</latitude>
    <longitude>-77</longitude>
    <elevation>180.1</elevation>
    <locationLabels>
      <type>CNTRY</type>
      <id>FIPS:US</id>
      <displayName>United States</displayName>
    </locationLabels>
    <coverage>0.7455</coverage>
  </station>
  <station>
    <id>GHCND:USC00013251</id>
    <displayName>GENEVA NUMBER 2, AL US</displayName>
    <minDate>1976-05-01</minDate>
    <maxDate>2013-01-16</maxDate>
    <latitude>31.03833</latitude>
    <longitude>-85.87083</longitude>
    <elevation>44.2</elevation>
    <locationLabels>
      <type>CNTRY</type>
      <id>FIPS:US</id>
      <displayName>United States</displayName>
    </locationLabels>
    <coverage>0.998</coverage>
  </station>
</stationCollection>
