<?xml version="1.0" encoding="UTF-8" standalone="yes"?>
<stationCollection totalCount="46020" pageCount="461" pageSize="100" page="154">
  <station>
    <id>GHCND:US10sali023</id>
    <displayName>FRIEND 0.2 NNE, NE US</displayName>
    <minDate>2007-04-11</minDate>
    <maxDate>2008-09-10</maxDate>
    <latitude>40.6562</latitude>
    <longitude>-97.2849</longitude>
    <elevation>477.9</elevation>
    <locationLabels>
      <type>CNTRY</type>
      <id>FIPS:US</id>
      <displayName>United States</displayName>
    </locationLabels>
    <coverage>1</coverage>
  </station>
  <station>
    <id>GHCND:USC00353121</id>
    <displayName>FRIEND 1 W, OR US</displayName>
    <minDate>1923-12-01</minDate>
    <maxDate>1976-08-31</maxDate>
    <latitude>45.35</latitude>
    <longitude>-121.26667</longitude>
    <elevation>744</elevation>
    <locationLabels>
      <type>CNTRY</type>
      <id>FIPS:US</id>
      <displayName>United States</displayName>
    </locationLabels>
    <coverage>0.9563</coverage>
  </station>
  <station>
    <id>GHCND:US10sali010</id>
    <displayName>FRIEND 1.2 E, NE US</displayName>
    <minDate>2008-06-01</minDate>
    <maxDate>2008-11-12</maxDate>
    <latitude>40.6547</latitude>
    <longitude>-97.2639</longitude>
    <elevation>474</elevation>
    <locationLabels>
      <type>CNTRY</type>
      <id>FIPS:US</id>
      <displayName>United States</displayName>
    </locationLabels>
    <coverage>0.8848</coverage>
  </station>
  <station>
    <id>GHCND:USC00253065</id>
    <displayName>FRIEND 3 E, NE US</displayName>
    <minDate>1925-01-01</minDate>
    <maxDate>2013-01-16</maxDate>
    <latitude>40.6558</latitude>
    <longitude>-97.2208</longitude>
    <elevation>467.9</elevation>
    <locationLabels>
      <type>CNTRY</type>
      <id>FIPS:US</id>
      <displayName>United States</displayName>
    </locationLabels>
    <coverage>0.9855</coverage>
  </station>
  <station>
    <id>GHCND:US10sali007</id>
    <displayName>FRIEND 4.8 SSE, NE US</displayName>
    <minDate>2007-02-24</minDate>
    <maxDate>2012-12-17</maxDate>
    <latitude>40.5891</latitude>
    <longitude>-97.2546</longitude>
    <elevation>454.2</elevation>
    <locationLabels>
      <type>CNTRY</type>
      <id>FIPS:US</id>
      <displayName>United States</displayName>
    </locationLabels>
    <coverage>0.5975</coverage>
  </station>
  <station>
    <id>GHCND:US10sali029</id>
    <displayName>FRIEND 5.5 SSW, NE US</displayName>
    <minDate>2010-06-06</minDate>
    <maxDate>2010-10-01</maxDate>
    <latitude>40.5827</latitude>
    <longitude>-97.3329</longitude>
    <elevation>0</elevation>
    <locationLabels>
      <type>CNTRY</type>
      <id>FIPS:US</id>
      <displayName>United States</displayName>
    </locationLabels>
    <coverage>1</coverage>
  </station>
  <station>
    <id>GHCND:US10sali028</id>
    <displayName>FRIEND 7.6 SSW, NE US</displayName>
    <minDate>2010-03-01</minDate>
    <maxDate>2011-05-20</maxDate>
    <latitude>40.5447</latitude>
    <longitude>-97.3116</longitude>
    <elevation>0</elevation>
    <locationLabels>
      <type>CNTRY</type>
      <id>FIPS:US</id>
      <displayName>United States</displayName>
    </locationLabels>
    <coverage>0.5942</coverage>
  </station>
  <station>
    <id>GHCND:USC00113270</id>
    <displayName>FRIEND GROVE, IL US</displayName>
    <minDate>1895-08-01</minDate>
    <maxDate>1908-08-31</maxDate>
    <latitude>38.433333</latitude>
    <longitude>-87.883333</longitude>
    <elevation>146.3</elevation>
    <locationLabels>
      <type>CNTRY</type>
      <id>FIPS:US</id>
      <displayName>United States</displayName>
    </locationLabels>
    <coverage>0.932</coverage>
  </station>
  <station>
    <id>GHCND:USR0000CFRI</id>
    <displayName>FRIEND MOUNTAIN CALIFORNIA, CA US</displayName>
    <minDate>1990-09-10</minDate>
    <maxDate>2012-08-30</maxDate>
    <latitude>40.505</latitude>
    <longitude>-123.3417</longitude>
    <elevation>1219.2</elevation>
    <locationLabels>
      <type>CNTRY</type>
      <id>FIPS:US</id>
      <displayName>United States</displayName>
    </locationLabels>
    <coverage>0.7643</coverage>
  </station>
  <station>
    <id>GHCND:US1MDPG0006</id>
    <displayName>FRIENDLY 1.0 N, MD US</displayName>
    <minDate>2005-10-07</minDate>
    <maxDate>2010-08-06</maxDate>
    <latitude>38.7715</latitude>
    <longitude>-76.9644</longitude>
    <elevation>75</elevation>
    <locationLabels>
      <type>CNTRY</type>
      <id>FIPS:US</id>
      <displayName>United States</displayName>
    </locationLabels>
    <coverage>0.8204</coverage>
  </station>
  <station>
    <id>GHCND:US1TNCK0005</id>
    <displayName>FRIENDSHIP 5.1 SSW, TN US</displayName>
    <minDate>2010-05-16</minDate>
    <maxDate>2010-11-25</maxDate>
    <latitude>35.8404</latitude>
    <longitude>-89.271</longitude>
    <elevation>114</elevation>
    <locationLabels>
      <type>CNTRY</type>
      <id>FIPS:US</id>
      <displayName>United States</displayName>
    </locationLabels>
    <coverage>1</coverage>
  </station>
  <station>
    <id>GHCND:USC00303065</id>
    <displayName>FRIENDSHIP 7 SW, NY US</displayName>
    <minDate>1969-01-01</minDate>
    <maxDate>2010-01-16</maxDate>
    <latitude>42.13778</latitude>
    <longitude>-78.23722</longitude>
    <elevation>499.9</elevation>
    <locationLabels>
      <type>CNTRY</type>
      <id>FIPS:US</id>
      <displayName>United States</displayName>
    </locationLabels>
    <coverage>0.9974</coverage>
  </station>
  <station>
    <id>GHCND:USC00403311</id>
    <displayName>FRIENDSHIP SCHOOL, TN US</displayName>
    <minDate>1949-01-01</minDate>
    <maxDate>1962-03-31</maxDate>
    <latitude>35.26667</latitude>
    <longitude>-85.08333</longitude>
    <elevation>232</elevation>
    <locationLabels>
      <type>CNTRY</type>
      <id>FIPS:US</id>
      <displayName>United States</displayName>
    </locationLabels>
    <coverage>0.9981</coverage>
  </station>
  <station>
    <id>GHCND:USC00303069</id>
    <displayName>FRIENDSHIP, NY US</displayName>
    <minDate>1893-01-01</minDate>
    <maxDate>2011-10-09</maxDate>
    <latitude>42.19083</latitude>
    <longitude>-78.14583</longitude>
    <elevation>473</elevation>
    <locationLabels>
      <type>CNTRY</type>
      <id>FIPS:US</id>
      <displayName>United States</displayName>
    </locationLabels>
    <coverage>0.0798</coverage>
  </station>
  <station>
    <id>GHCND:USC00303070</id>
    <displayName>FRIENDSHIP, NY US</displayName>
    <minDate>1956-09-13</minDate>
    <maxDate>1968-12-31</maxDate>
    <latitude>42.19083</latitude>
    <longitude>-78.14583</longitude>
    <elevation>473</elevation>
    <locationLabels>
      <type>CNTRY</type>
      <id>FIPS:US</id>
      <displayName>United States</displayName>
    </locationLabels>
    <coverage>1</coverage>
  </station>
  <station>
    <id>GHCND:USC00472973</id>
    <displayName>FRIENDSHIP, WI US</displayName>
    <minDate>1930-01-01</minDate>
    <maxDate>2013-01-16</maxDate>
    <latitude>43.975</latitude>
    <longitude>-89.8309</longitude>
    <elevation>288</elevation>
    <locationLabels>
      <type>CNTRY</type>
      <id>FIPS:US</id>
      <displayName>United States</displayName>
    </locationLabels>
    <coverage>0.2885</coverage>
  </station>
  <station>
    <id>GHCND:USC00183402</id>
    <displayName>FRIENDSVILLE 2 W, MD US</displayName>
    <minDate>1919-10-01</minDate>
    <maxDate>1953-06-30</maxDate>
    <latitude>39.66667</latitude>
    <longitude>-79.45</longitude>
    <elevation>609.9</elevation>
    <locationLabels>
      <type>CNTRY</type>
      <id>FIPS:US</id>
      <displayName>United States</displayName>
    </locationLabels>
    <coverage>0.825</coverage>
  </station>
  <station>
    <id>GHCND:US1TNBT0020</id>
    <displayName>FRIENDSVILLE 2.3 ESE, TN US</displayName>
    <minDate>2010-03-23</minDate>
    <maxDate>2013-01-16</maxDate>
    <latitude>35.7425</latitude>
    <longitude>-84.0934</longitude>
    <elevation>349.3</elevation>
    <locationLabels>
      <type>CNTRY</type>
      <id>FIPS:US</id>
      <displayName>United States</displayName>
    </locationLabels>
    <coverage>0.805</coverage>
  </station>
  <station>
    <id>GHCND:US1TNBT0009</id>
    <displayName>FRIENDSVILLE 3.6 NW, TN US</displayName>
    <minDate>2007-04-24</minDate>
    <maxDate>2013-01-16</maxDate>
    <latitude>35.7998</latitude>
    <longitude>-84.168</longitude>
    <elevation>262.1</elevation>
    <locationLabels>
      <type>CNTRY</type>
      <id>FIPS:US</id>
      <displayName>United States</displayName>
    </locationLabels>
    <coverage>0.8697</coverage>
  </station>
  <station>
    <id>GHCND:US1TNBT0008</id>
    <displayName>FRIENDSVILLE 4.6 NE, TN US</displayName>
    <minDate>2007-04-11</minDate>
    <maxDate>2013-01-16</maxDate>
    <latitude>35.8113</latitude>
    <longitude>-84.0839</longitude>
    <elevation>282.9</elevation>
    <locationLabels>
      <type>CNTRY</type>
      <id>FIPS:US</id>
      <displayName>United States</displayName>
    </locationLabels>
    <coverage>0.8956</coverage>
  </station>
  <station>
    <id>GHCND:US1MDGR0002</id>
    <displayName>FRIENDSVILLE 4.8 SW, MD US</displayName>
    <minDate>2006-02-24</minDate>
    <maxDate>2012-11-07</maxDate>
    <latitude>39.6163</latitude>
    <longitude>-79.4711</longitude>
    <elevation>696.2</elevation>
    <locationLabels>
      <type>CNTRY</type>
      <id>FIPS:US</id>
      <displayName>United States</displayName>
    </locationLabels>
    <coverage>0.6648</coverage>
  </station>
  <station>
    <id>GHCND:US1PASS0010</id>
    <displayName>FRIENDSVILLE 6.8 NE, PA US</displayName>
    <minDate>2008-02-06</minDate>
    <maxDate>2013-01-16</maxDate>
    <latitude>41.995</latitude>
    <longitude>-75.965</longitude>
    <elevation>502.9</elevation>
    <locationLabels>
      <type>CNTRY</type>
      <id>FIPS:US</id>
      <displayName>United States</displayName>
    </locationLabels>
    <coverage>0.8345</coverage>
  </station>
  <station>
    <id>GHCND:USC00183400</id>
    <displayName>FRIENDSVILLE, MD US</displayName>
    <minDate>1948-08-07</minDate>
    <maxDate>1950-06-30</maxDate>
    <latitude>39.61667</latitude>
    <longitude>-79.46667</longitude>
    <elevation>698</elevation>
    <locationLabels>
      <type>CNTRY</type>
      <id>FIPS:US</id>
      <displayName>United States</displayName>
    </locationLabels>
    <coverage>0.8846</coverage>
  </station>
  <station>
    <id>GHCND:USC00183401</id>
    <displayName>FRIENDSVILLE, MD US</displayName>
    <minDate>1950-10-01</minDate>
    <maxDate>1952-06-30</maxDate>
    <latitude>39.66667</latitude>
    <longitude>-79.4</longitude>
    <elevation>460.9</elevation>
    <locationLabels>
      <type>CNTRY</type>
      <id>FIPS:US</id>
      <displayName>United States</displayName>
    </locationLabels>
    <coverage>0.9734</coverage>
  </station>
  <station>
    <id>GHCND:US1TXHRR089</id>
    <displayName>FRIENDSWOOD 1.4 NNE, TX US</displayName>
    <minDate>2012-03-23</minDate>
    <maxDate>2013-01-16</maxDate>
    <latitude>29.5289</latitude>
    <longitude>-95.1852</longitude>
    <elevation>8.5</elevation>
    <locationLabels>
      <type>CNTRY</type>
      <id>FIPS:US</id>
      <displayName>United States</displayName>
    </locationLabels>
    <coverage>0.9467</coverage>
  </station>
  <station>
    <id>GHCND:US1TXGV0005</id>
    <displayName>FRIENDSWOOD 1.9 SSW, TX US</displayName>
    <minDate>2006-10-10</minDate>
    <maxDate>2013-01-15</maxDate>
    <latitude>29.4867</latitude>
    <longitude>-95.2072</longitude>
    <elevation>11.9</elevation>
    <locationLabels>
      <type>CNTRY</type>
      <id>FIPS:US</id>
      <displayName>United States</displayName>
    </locationLabels>
    <coverage>0.6489</coverage>
  </station>
  <station>
    <id>GHCND:US1TXHRR031</id>
    <displayName>FRIENDSWOOD 2.5 NNE, TX US</displayName>
    <minDate>2008-09-03</minDate>
    <maxDate>2013-01-16</maxDate>
    <latitude>29.5453</latitude>
    <longitude>-95.1821</longitude>
    <elevation>9.4</elevation>
    <locationLabels>
      <type>CNTRY</type>
      <id>FIPS:US</id>
      <displayName>United States</displayName>
    </locationLabels>
    <coverage>0.9054</coverage>
  </station>
  <station>
    <id>GHCND:USC00293331</id>
    <displayName>FRIO DRAW, NM US</displayName>
    <minDate>1951-08-01</minDate>
    <maxDate>1957-06-30</maxDate>
    <latitude>34.66667</latitude>
    <longitude>-103.05</longitude>
    <elevation>1250.9</elevation>
    <locationLabels>
      <type>CNTRY</type>
      <id>FIPS:US</id>
      <displayName>United States</displayName>
    </locationLabels>
    <coverage>0.9977</coverage>
  </station>
  <station>
    <id>GHCND:USC00413366</id>
    <displayName>FRIO TOWN, TX US</displayName>
    <minDate>1947-09-01</minDate>
    <maxDate>1979-11-30</maxDate>
    <latitude>29.03333</latitude>
    <longitude>-99.31667</longitude>
    <elevation>192</elevation>
    <locationLabels>
      <type>CNTRY</type>
      <id>FIPS:US</id>
      <displayName>United States</displayName>
    </locationLabels>
    <coverage>0.7923</coverage>
  </station>
  <station>
    <id>GHCND:USC00413368</id>
    <displayName>FRIONA, TX US</displayName>
    <minDate>1927-11-01</minDate>
    <maxDate>2013-01-16</maxDate>
    <latitude>34.64</latitude>
    <longitude>-102.72306</longitude>
    <elevation>1222.2</elevation>
    <locationLabels>
      <type>CNTRY</type>
      <id>FIPS:US</id>
      <displayName>United States</displayName>
    </locationLabels>
    <coverage>0.8901</coverage>
  </station>
  <station>
    <id>GHCND:US1COSU0033</id>
    <displayName>FRISCO .5 WNW, CO US</displayName>
    <minDate>2005-05-15</minDate>
    <maxDate>2006-10-16</maxDate>
    <latitude>39.585</latitude>
    <longitude>-106.1017</longitude>
    <elevation>2770</elevation>
    <locationLabels>
      <type>CNTRY</type>
      <id>FIPS:US</id>
      <displayName>United States</displayName>
    </locationLabels>
    <coverage>0.5462</coverage>
  </station>
  <station>
    <id>GHCND:US1COSU0004</id>
    <displayName>FRISCO 0.5 N, CO US</displayName>
    <minDate>1998-12-13</minDate>
    <maxDate>2013-01-16</maxDate>
    <latitude>39.5823</latitude>
    <longitude>-106.0959</longitude>
    <elevation>2767</elevation>
    <locationLabels>
      <type>CNTRY</type>
      <id>FIPS:US</id>
      <displayName>United States</displayName>
    </locationLabels>
    <coverage>0.565</coverage>
  </station>
  <station>
    <id>GHCND:US1TXCLL040</id>
    <displayName>FRISCO 1.9 N, TX US</displayName>
    <minDate>2010-02-06</minDate>
    <maxDate>2013-01-16</maxDate>
    <latitude>33.1719</latitude>
    <longitude>-96.8117</longitude>
    <elevation>215.8</elevation>
    <locationLabels>
      <type>CNTRY</type>
      <id>FIPS:US</id>
      <displayName>United States</displayName>
    </locationLabels>
    <coverage>0.934</coverage>
  </station>
  <station>
    <id>GHCND:USC00313336</id>
    <displayName>FRISCO 2 NNE, NC US</displayName>
    <minDate>2010-06-01</minDate>
    <maxDate>2013-01-16</maxDate>
    <latitude>35.2512</latitude>
    <longitude>-75.6048</longitude>
    <elevation>0</elevation>
    <locationLabels>
      <type>CNTRY</type>
      <id>FIPS:US</id>
      <displayName>United States</displayName>
    </locationLabels>
    <coverage>0.9521</coverage>
  </station>
  <station>
    <id>GHCND:USC00013105</id>
    <displayName>FRISCO CITY 3 SSW, AL US</displayName>
    <minDate>1930-07-01</minDate>
    <maxDate>2000-11-30</maxDate>
    <latitude>31.38944</latitude>
    <longitude>-87.42028</longitude>
    <elevation>83.8</elevation>
    <locationLabels>
      <type>CNTRY</type>
      <id>FIPS:US</id>
      <displayName>United States</displayName>
    </locationLabels>
    <coverage>0.9083</coverage>
  </station>
  <station>
    <id>GHCND:USS0008S01S</id>
    <displayName>FRISCO DIVIDE, NM US</displayName>
    <minDate>1980-10-01</minDate>
    <maxDate>2013-01-13</maxDate>
    <latitude>33.7333</latitude>
    <longitude>-108.9333</longitude>
    <elevation>2438.4</elevation>
    <locationLabels>
      <type>CNTRY</type>
      <id>FIPS:US</id>
      <displayName>United States</displayName>
    </locationLabels>
    <coverage>0.8233</coverage>
  </station>
  <station>
    <id>GHCND:USC00313333</id>
    <displayName>FRISCO, NC US</displayName>
    <minDate>2005-11-01</minDate>
    <maxDate>2009-03-31</maxDate>
    <latitude>35.26028</latitude>
    <longitude>-75.5825</longitude>
    <elevation>1.5</elevation>
    <locationLabels>
      <type>CNTRY</type>
      <id>FIPS:US</id>
      <displayName>United States</displayName>
    </locationLabels>
    <coverage>0.9767</coverage>
  </station>
  <station>
    <id>GHCND:USC00413370</id>
    <displayName>FRISCO, TX US</displayName>
    <minDate>1966-11-01</minDate>
    <maxDate>2013-01-16</maxDate>
    <latitude>33.1519</latitude>
    <longitude>-96.8122</longitude>
    <elevation>225.6</elevation>
    <locationLabels>
      <type>CNTRY</type>
      <id>FIPS:US</id>
      <displayName>United States</displayName>
    </locationLabels>
    <coverage>0.9957</coverage>
  </station>
  <station>
    <id>GHCND:USC00423032</id>
    <displayName>FRISCO, UT US</displayName>
    <minDate>1897-01-01</minDate>
    <maxDate>1912-07-29</maxDate>
    <latitude>38.45</latitude>
    <longitude>-113.266667</longitude>
    <elevation>1996.4</elevation>
    <locationLabels>
      <type>CNTRY</type>
      <id>FIPS:US</id>
      <displayName>United States</displayName>
    </locationLabels>
    <coverage>0.8832</coverage>
  </station>
  <station>
    <id>GHCND:USC00023258</id>
    <displayName>FRITZ RANCH, AZ US</displayName>
    <minDate>1948-07-01</minDate>
    <maxDate>1980-05-31</maxDate>
    <latitude>33.33333</latitude>
    <longitude>-109.18333</longitude>
    <elevation>1318</elevation>
    <locationLabels>
      <type>CNTRY</type>
      <id>FIPS:US</id>
      <displayName>United States</displayName>
    </locationLabels>
    <coverage>0.9305</coverage>
  </station>
  <station>
    <id>GHCND:USW00093217</id>
    <displayName>FRITZSCHE ARMY AIR FIELD, CA US</displayName>
    <minDate>1960-04-04</minDate>
    <maxDate>1978-11-30</maxDate>
    <latitude>36.68333</latitude>
    <longitude>-121.76667</longitude>
    <elevation>43</elevation>
    <locationLabels>
      <type>CNTRY</type>
      <id>FIPS:US</id>
      <displayName>United States</displayName>
    </locationLabels>
    <coverage>0.9997</coverage>
  </station>
  <station>
    <id>GHCND:USS0012C13S</id>
    <displayName>FROHNER MEADOW, MT US</displayName>
    <minDate>1972-10-01</minDate>
    <maxDate>2013-01-13</maxDate>
    <latitude>46.45</latitude>
    <longitude>-112.2</longitude>
    <elevation>1975.1</elevation>
    <locationLabels>
      <type>CNTRY</type>
      <id>FIPS:US</id>
      <displayName>United States</displayName>
    </locationLabels>
    <coverage>0.872</coverage>
  </station>
  <station>
    <id>GHCND:US1MTRT0002</id>
    <displayName>FROID 0.1N, MT US</displayName>
    <minDate>2007-05-31</minDate>
    <maxDate>2012-10-17</maxDate>
    <latitude>48.3376</latitude>
    <longitude>-104.4941</longitude>
    <elevation>617.5</elevation>
    <locationLabels>
      <type>CNTRY</type>
      <id>FIPS:US</id>
      <displayName>United States</displayName>
    </locationLabels>
    <coverage>0.1073</coverage>
  </station>
  <station>
    <id>GHCND:USC00243304</id>
    <displayName>FROID 6 SE NUMBER 13, MT US</displayName>
    <minDate>1950-04-01</minDate>
    <maxDate>1951-09-30</maxDate>
    <latitude>48.26667</latitude>
    <longitude>-104.41667</longitude>
    <elevation>650.1</elevation>
    <locationLabels>
      <type>CNTRY</type>
      <id>FIPS:US</id>
      <displayName>United States</displayName>
    </locationLabels>
    <coverage>0.9526</coverage>
  </station>
  <station>
    <id>GHCND:USC00243309</id>
    <displayName>FROID, MT US</displayName>
    <minDate>1950-04-01</minDate>
    <maxDate>1951-09-30</maxDate>
    <latitude>48.33333</latitude>
    <longitude>-104.5</longitude>
    <elevation>618.7</elevation>
    <locationLabels>
      <type>CNTRY</type>
      <id>FIPS:US</id>
      <displayName>United States</displayName>
    </locationLabels>
    <coverage>0.9708</coverage>
  </station>
  <station>
    <id>GHCND:US1VAWR0001</id>
    <displayName>FRONT ROYAL 3.2 NNE, VA US</displayName>
    <minDate>2007-08-27</minDate>
    <maxDate>2012-05-03</maxDate>
    <latitude>38.9645</latitude>
    <longitude>-78.1528</longitude>
    <elevation>199</elevation>
    <locationLabels>
      <type>CNTRY</type>
      <id>FIPS:US</id>
      <displayName>United States</displayName>
    </locationLabels>
    <coverage>0.2366</coverage>
  </station>
  <station>
    <id>GHCND:USC00443229</id>
    <displayName>FRONT ROYAL, VA US</displayName>
    <minDate>1995-12-01</minDate>
    <maxDate>2013-01-16</maxDate>
    <latitude>38.9038</latitude>
    <longitude>-78.1821</longitude>
    <elevation>283.5</elevation>
    <locationLabels>
      <type>CNTRY</type>
      <id>FIPS:US</id>
      <displayName>United States</displayName>
    </locationLabels>
    <coverage>0.9971</coverage>
  </station>
  <station>
    <id>GHCND:USW00013731</id>
    <displayName>FRONT ROYAL, VA US</displayName>
    <minDate>1948-08-01</minDate>
    <maxDate>1956-06-30</maxDate>
    <latitude>39</latitude>
    <longitude>-78.23333</longitude>
    <elevation>207.9</elevation>
    <locationLabels>
      <type>CNTRY</type>
      <id>FIPS:US</id>
      <displayName>United States</displayName>
    </locationLabels>
    <coverage>0.9893</coverage>
  </station>
  <station>
    <id>GHCND:US1KSCR0011</id>
    <displayName>FRONTENAC 0.6 NE, KS US</displayName>
    <minDate>2010-07-14</minDate>
    <maxDate>2010-11-13</maxDate>
    <latitude>37.4626</latitude>
    <longitude>-94.6879</longitude>
    <elevation>285.3</elevation>
    <locationLabels>
      <type>CNTRY</type>
      <id>FIPS:US</id>
      <displayName>United States</displayName>
    </locationLabels>
    <coverage>0.9756</coverage>
  </station>
  <station>
    <id>GHCND:US1TXNV0001</id>
    <displayName>FROST 1.3 WNW, TX US</displayName>
    <minDate>2007-06-09</minDate>
    <maxDate>2013-01-15</maxDate>
    <latitude>32.0838</latitude>
    <longitude>-96.8293</longitude>
    <elevation>155.4</elevation>
    <locationLabels>
      <type>CNTRY</type>
      <id>FIPS:US</id>
      <displayName>United States</displayName>
    </locationLabels>
    <coverage>0.9492</coverage>
  </station>
  <station>
    <id>GHCND:USC00463251</id>
    <displayName>FROST 3 NE, WV US</displayName>
    <minDate>2001-06-01</minDate>
    <maxDate>2013-01-16</maxDate>
    <latitude>38.2894</latitude>
    <longitude>-79.8186</longitude>
    <elevation>890.3</elevation>
    <locationLabels>
      <type>CNTRY</type>
      <id>FIPS:US</id>
      <displayName>United States</displayName>
    </locationLabels>
    <coverage>0.955</coverage>
  </station>
  <station>
    <id>GHCND:USC00303076</id>
    <displayName>FROST VALLEY, NY US</displayName>
    <minDate>1948-05-01</minDate>
    <maxDate>1981-02-28</maxDate>
    <latitude>41.96667</latitude>
    <longitude>-74.55</longitude>
    <elevation>561.1</elevation>
    <locationLabels>
      <type>CNTRY</type>
      <id>FIPS:US</id>
      <displayName>United States</displayName>
    </locationLabels>
    <coverage>0.9973</coverage>
  </station>
  <station>
    <id>GHCND:USC00413379</id>
    <displayName>FROST, TX US</displayName>
    <minDate>1946-10-09</minDate>
    <maxDate>1985-02-28</maxDate>
    <latitude>32.08333</latitude>
    <longitude>-96.8</longitude>
    <elevation>159.1</elevation>
    <locationLabels>
      <type>CNTRY</type>
      <id>FIPS:US</id>
      <displayName>United States</displayName>
    </locationLabels>
    <coverage>0.9252</coverage>
  </station>
  <station>
    <id>GHCND:US1MDAL0006</id>
    <displayName>FROSTBURG 1.3 N, MD US</displayName>
    <minDate>2008-04-01</minDate>
    <maxDate>2009-02-22</maxDate>
    <latitude>39.6682</latitude>
    <longitude>-78.9282</longitude>
    <elevation>645.9</elevation>
    <locationLabels>
      <type>CNTRY</type>
      <id>FIPS:US</id>
      <displayName>United States</displayName>
    </locationLabels>
    <coverage>0.4665</coverage>
  </station>
  <station>
    <id>GHCND:USC00183415</id>
    <displayName>FROSTBURG 2, MD US</displayName>
    <minDate>1972-04-01</minDate>
    <maxDate>2013-01-16</maxDate>
    <latitude>39.6599</latitude>
    <longitude>-78.9358</longitude>
    <elevation>661.4</elevation>
    <locationLabels>
      <type>CNTRY</type>
      <id>FIPS:US</id>
      <displayName>United States</displayName>
    </locationLabels>
    <coverage>0.9972</coverage>
  </station>
  <station>
    <id>GHCND:USC00183410</id>
    <displayName>FROSTBURG, MD US</displayName>
    <minDate>1898-06-01</minDate>
    <maxDate>1971-12-31</maxDate>
    <latitude>39.65</latitude>
    <longitude>-78.93333</longitude>
    <elevation>652.9</elevation>
    <locationLabels>
      <type>CNTRY</type>
      <id>FIPS:US</id>
      <displayName>United States</displayName>
    </locationLabels>
    <coverage>0.9248</coverage>
  </station>
  <station>
    <id>GHCND:US1FLPK0023</id>
    <displayName>FROSTPROOF 3.1 ENE, FL US</displayName>
    <minDate>2008-02-01</minDate>
    <maxDate>2013-01-16</maxDate>
    <latitude>27.7596</latitude>
    <longitude>-81.4822</longitude>
    <elevation>24.1</elevation>
    <locationLabels>
      <type>CNTRY</type>
      <id>FIPS:US</id>
      <displayName>United States</displayName>
    </locationLabels>
    <coverage>0.9862</coverage>
  </station>
  <station>
    <id>GHCND:US1FLPK0035</id>
    <displayName>FROSTPROOF 4.6 SW, FL US</displayName>
    <minDate>2008-07-24</minDate>
    <maxDate>2013-01-16</maxDate>
    <latitude>27.7027</latitude>
    <longitude>-81.589</longitude>
    <elevation>48.2</elevation>
    <locationLabels>
      <type>CNTRY</type>
      <id>FIPS:US</id>
      <displayName>United States</displayName>
    </locationLabels>
    <coverage>0.9719</coverage>
  </station>
  <station>
    <id>GHCND:US1FLPK0043</id>
    <displayName>FROSTPROOF 6.3 ESE, FL US</displayName>
    <minDate>2010-12-10</minDate>
    <maxDate>2013-01-16</maxDate>
    <latitude>27.7038</latitude>
    <longitude>-81.4402</longitude>
    <elevation>26.2</elevation>
    <locationLabels>
      <type>CNTRY</type>
      <id>FIPS:US</id>
      <displayName>United States</displayName>
    </locationLabels>
    <coverage>0.974</coverage>
  </station>
  <station>
    <id>GHCND:USC00053138</id>
    <displayName>FROZE CREEK, CO US</displayName>
    <minDate>1948-09-01</minDate>
    <maxDate>1948-12-31</maxDate>
    <latitude>38</latitude>
    <longitude>-105.33333</longitude>
    <elevation>2500.9</elevation>
    <locationLabels>
      <type>CNTRY</type>
      <id>FIPS:US</id>
      <displayName>United States</displayName>
    </locationLabels>
    <coverage>0.8279</coverage>
  </station>
  <station>
    <id>GHCND:USC00233066</id>
    <displayName>FRUIT CITY, MO US</displayName>
    <minDate>1913-07-01</minDate>
    <maxDate>1918-04-30</maxDate>
    <latitude>37.3</latitude>
    <longitude>-91.066667</longitude>
    <locationLabels>
      <type>CNTRY</type>
      <id>FIPS:US</id>
      <displayName>United States</displayName>
    </locationLabels>
    <coverage>0.9212</coverage>
  </station>
  <station>
    <id>GHCND:US1FLDV0027</id>
    <displayName>FRUIT COVE 6.1 N, FL US</displayName>
    <minDate>2008-03-26</minDate>
    <maxDate>2012-07-06</maxDate>
    <latitude>30.1884</latitude>
    <longitude>-81.6017</longitude>
    <elevation>7</elevation>
    <locationLabels>
      <type>CNTRY</type>
      <id>FIPS:US</id>
      <displayName>United States</displayName>
    </locationLabels>
    <coverage>0.2295</coverage>
  </station>
  <station>
    <id>GHCND:US1COME0018</id>
    <displayName>FRUITA .3 NW, CO US</displayName>
    <minDate>2003-08-01</minDate>
    <maxDate>2010-12-27</maxDate>
    <latitude>39.1617</latitude>
    <longitude>-108.7325</longitude>
    <elevation>1381</elevation>
    <locationLabels>
      <type>CNTRY</type>
      <id>FIPS:US</id>
      <displayName>United States</displayName>
    </locationLabels>
    <coverage>0.697</coverage>
  </station>
  <station>
    <id>GHCND:USC00053147</id>
    <displayName>FRUITA 2 W, CO US</displayName>
    <minDate>2012-06-01</minDate>
    <maxDate>2012-11-30</maxDate>
    <latitude>39.1692</latitude>
    <longitude>-108.7761</longitude>
    <elevation>1360</elevation>
    <locationLabels>
      <type>CNTRY</type>
      <id>FIPS:US</id>
      <displayName>United States</displayName>
    </locationLabels>
    <coverage>0.9945</coverage>
  </station>
  <station>
    <id>GHCND:US1COME0010</id>
    <displayName>FRUITA 4.1 ENE, CO US</displayName>
    <minDate>2003-07-10</minDate>
    <maxDate>2008-06-20</maxDate>
    <latitude>39.1791</latitude>
    <longitude>-108.6569</longitude>
    <elevation>1420.1</elevation>
    <locationLabels>
      <type>CNTRY</type>
      <id>FIPS:US</id>
      <displayName>United States</displayName>
    </locationLabels>
    <coverage>0.4381</coverage>
  </station>
  <station>
    <id>GHCND:US1COME0007</id>
    <displayName>FRUITA 4.5 NNE, CO US</displayName>
    <minDate>2003-09-08</minDate>
    <maxDate>2013-01-16</maxDate>
    <latitude>39.2222</latitude>
    <longitude>-108.7063</longitude>
    <elevation>1427.1</elevation>
    <locationLabels>
      <type>CNTRY</type>
      <id>FIPS:US</id>
      <displayName>United States</displayName>
    </locationLabels>
    <coverage>0.9433</coverage>
  </station>
  <station>
    <id>GHCND:USC00053146</id>
    <displayName>FRUITA, CO US</displayName>
    <minDate>1893-01-01</minDate>
    <maxDate>2012-07-17</maxDate>
    <latitude>39.1652</latitude>
    <longitude>-108.733</longitude>
    <elevation>1373.1</elevation>
    <locationLabels>
      <type>CNTRY</type>
      <id>FIPS:US</id>
      <displayName>United States</displayName>
    </locationLabels>
    <coverage>0.8813</coverage>
  </station>
  <station>
    <id>GHCND:USC00423063</id>
    <displayName>FRUITLAND 1 ENE, UT US</displayName>
    <minDate>1987-12-01</minDate>
    <maxDate>1990-10-31</maxDate>
    <latitude>40.21667</latitude>
    <longitude>-110.81667</longitude>
    <elevation>2002.5</elevation>
    <locationLabels>
      <type>CNTRY</type>
      <id>FIPS:US</id>
      <displayName>United States</displayName>
    </locationLabels>
    <coverage>0.7355</coverage>
  </station>
  <station>
    <id>GHCND:USC00223198</id>
    <displayName>FRUITLAND PARK, MS US</displayName>
    <minDate>1917-01-24</minDate>
    <maxDate>1945-08-31</maxDate>
    <latitude>30.91667</latitude>
    <longitude>-89.16667</longitude>
    <elevation>92</elevation>
    <locationLabels>
      <type>CNTRY</type>
      <id>FIPS:US</id>
      <displayName>United States</displayName>
    </locationLabels>
    <coverage>0.8982</coverage>
  </station>
  <station>
    <id>GHCND:USC00293340</id>
    <displayName>FRUITLAND, NM US</displayName>
    <minDate>1893-01-01</minDate>
    <maxDate>2010-08-31</maxDate>
    <latitude>36.73806</latitude>
    <longitude>-108.34833</longitude>
    <elevation>1563.6</elevation>
    <locationLabels>
      <type>CNTRY</type>
      <id>FIPS:US</id>
      <displayName>United States</displayName>
    </locationLabels>
    <coverage>0.7895</coverage>
  </station>
  <station>
    <id>GHCND:USC00423056</id>
    <displayName>FRUITLAND, UT US</displayName>
    <minDate>1910-06-01</minDate>
    <maxDate>1966-02-28</maxDate>
    <latitude>40.21667</latitude>
    <longitude>-110.85</longitude>
    <elevation>2019</elevation>
    <locationLabels>
      <type>CNTRY</type>
      <id>FIPS:US</id>
      <displayName>United States</displayName>
    </locationLabels>
    <coverage>0.4886</coverage>
  </station>
  <station>
    <id>GHCND:US1WAYK0008</id>
    <displayName>FRUITVALE 6.9 W, WA US</displayName>
    <minDate>2009-03-22</minDate>
    <maxDate>2013-01-16</maxDate>
    <latitude>46.6118</latitude>
    <longitude>-120.6867</longitude>
    <elevation>518.8</elevation>
    <locationLabels>
      <type>CNTRY</type>
      <id>FIPS:US</id>
      <displayName>United States</displayName>
    </locationLabels>
    <coverage>0.9864</coverage>
  </station>
  <station>
    <id>GHCND:USC00043270</id>
    <displayName>FRUTO, CA US</displayName>
    <minDate>1906-03-01</minDate>
    <maxDate>1911-12-31</maxDate>
    <latitude>39.583333</latitude>
    <longitude>-122.45</longitude>
    <elevation>190.2</elevation>
    <locationLabels>
      <type>CNTRY</type>
      <id>FIPS:US</id>
      <displayName>United States</displayName>
    </locationLabels>
    <coverage>0.9784</coverage>
  </station>
  <station>
    <id>GHCND:USR0000OFRY</id>
    <displayName>FRY OREGON, WA US</displayName>
    <minDate>1985-01-12</minDate>
    <maxDate>1990-05-16</maxDate>
    <latitude>47.75</latitude>
    <longitude>-117.8167</longitude>
    <elevation>1280.2</elevation>
    <locationLabels>
      <type>CNTRY</type>
      <id>FIPS:US</id>
      <displayName>United States</displayName>
    </locationLabels>
    <coverage>0.7007</coverage>
  </station>
  <station>
    <id>GHCND:USS0011P13S</id>
    <displayName>FRY, AZ US</displayName>
    <minDate>1982-10-01</minDate>
    <maxDate>2013-01-13</maxDate>
    <latitude>35.0667</latitude>
    <longitude>-111.85</longitude>
    <elevation>2194.6</elevation>
    <locationLabels>
      <type>CNTRY</type>
      <id>FIPS:US</id>
      <displayName>United States</displayName>
    </locationLabels>
    <coverage>0.7625</coverage>
  </station>
  <station>
    <id>GHCND:USC00323277</id>
    <displayName>FRYBURG 1 SSE, ND US</displayName>
    <minDate>1918-04-01</minDate>
    <maxDate>1952-12-31</maxDate>
    <latitude>46.86667</latitude>
    <longitude>-103.3</longitude>
    <elevation>833</elevation>
    <locationLabels>
      <type>CNTRY</type>
      <id>FIPS:US</id>
      <displayName>United States</displayName>
    </locationLabels>
    <coverage>0.9331</coverage>
  </station>
  <station>
    <id>GHCND:USW00054772</id>
    <displayName>FRYEBURG EASTERN SLOPES REGL AIRPORT, ME US</displayName>
    <minDate>1996-07-01</minDate>
    <maxDate>2013-01-14</maxDate>
    <latitude>43.99056</latitude>
    <longitude>-70.9475</longitude>
    <elevation>135.6</elevation>
    <locationLabels>
      <type>CNTRY</type>
      <id>FIPS:US</id>
      <displayName>United States</displayName>
    </locationLabels>
    <coverage>0.9879</coverage>
  </station>
  <station>
    <id>GHCND:USC00173026</id>
    <displayName>FRYEBURG, ME US</displayName>
    <minDate>1992-01-01</minDate>
    <maxDate>1998-09-30</maxDate>
    <latitude>44.01667</latitude>
    <longitude>-70.9825</longitude>
    <elevation>129.5</elevation>
    <locationLabels>
      <type>CNTRY</type>
      <id>FIPS:US</id>
      <displayName>United States</displayName>
    </locationLabels>
    <coverage>0.9951</coverage>
  </station>
  <station>
    <id>GHCND:US1COWE0155</id>
    <displayName>FTL 4.5 NW, CO US</displayName>
    <minDate>1999-06-21</minDate>
    <maxDate>2002-10-04</maxDate>
    <latitude>40.122</latitude>
    <longitude>-104.8862</longitude>
    <elevation>1533.1</elevation>
    <locationLabels>
      <type>CNTRY</type>
      <id>FIPS:US</id>
      <displayName>United States</displayName>
    </locationLabels>
    <coverage>0.2463</coverage>
  </station>
  <station>
    <id>GHCND:US1NDDC0003</id>
    <displayName>FULLERTON 0.1 NNW, ND US</displayName>
    <minDate>2011-06-05</minDate>
    <maxDate>2012-12-16</maxDate>
    <latitude>46.1653</latitude>
    <longitude>-98.4271</longitude>
    <elevation>440.1</elevation>
    <locationLabels>
      <type>CNTRY</type>
      <id>FIPS:US</id>
      <displayName>United States</displayName>
    </locationLabels>
    <coverage>0.7701</coverage>
  </station>
  <station>
    <id>GHCND:USC00323287</id>
    <displayName>FULLERTON 1 ESE, ND US</displayName>
    <minDate>1898-01-01</minDate>
    <maxDate>2012-12-31</maxDate>
    <latitude>46.158</latitude>
    <longitude>-98.4</longitude>
    <elevation>437.4</elevation>
    <locationLabels>
      <type>CNTRY</type>
      <id>FIPS:US</id>
      <displayName>United States</displayName>
    </locationLabels>
    <coverage>0.9869</coverage>
  </station>
  <station>
    <id>GHCND:US10nanc004</id>
    <displayName>FULLERTON 2.9 SE, NE US</displayName>
    <minDate>2007-01-01</minDate>
    <maxDate>2012-07-02</maxDate>
    <latitude>41.3267</latitude>
    <longitude>-97.9438</longitude>
    <elevation>499</elevation>
    <locationLabels>
      <type>CNTRY</type>
      <id>FIPS:US</id>
      <displayName>United States</displayName>
    </locationLabels>
    <coverage>0.7622</coverage>
  </station>
  <station>
    <id>GHCND:USC00043279</id>
    <displayName>FULLERTON ARROUES RA, CA US</displayName>
    <minDate>1948-07-02</minDate>
    <maxDate>1965-06-30</maxDate>
    <latitude>33.9</latitude>
    <longitude>-117.91667</longitude>
    <elevation>98.1</elevation>
    <locationLabels>
      <type>CNTRY</type>
      <id>FIPS:US</id>
      <displayName>United States</displayName>
    </locationLabels>
    <coverage>0.9683</coverage>
  </station>
  <station>
    <id>GHCND:USC00043282</id>
    <displayName>FULLERTON CREEK 5, CA US</displayName>
    <minDate>1948-07-01</minDate>
    <maxDate>1958-12-31</maxDate>
    <latitude>33.91667</latitude>
    <longitude>-117.86667</longitude>
    <elevation>121.9</elevation>
    <locationLabels>
      <type>CNTRY</type>
      <id>FIPS:US</id>
      <displayName>United States</displayName>
    </locationLabels>
    <coverage>0.987</coverage>
  </station>
  <station>
    <id>GHCND:USC00043285</id>
    <displayName>FULLERTON DAM, CA US</displayName>
    <minDate>1948-07-01</minDate>
    <maxDate>1960-04-30</maxDate>
    <latitude>33.8963</latitude>
    <longitude>-117.888</longitude>
    <elevation>103.6</elevation>
    <locationLabels>
      <type>CNTRY</type>
      <id>FIPS:US</id>
      <displayName>United States</displayName>
    </locationLabels>
    <coverage>0.9789</coverage>
  </station>
  <station>
    <id>GHCND:USC00043288</id>
    <displayName>FULLERTON HILLCREST, CA US</displayName>
    <minDate>1933-03-01</minDate>
    <maxDate>1976-12-31</maxDate>
    <latitude>33.88333</latitude>
    <longitude>-117.91667</longitude>
    <elevation>100.9</elevation>
    <locationLabels>
      <type>CNTRY</type>
      <id>FIPS:US</id>
      <displayName>United States</displayName>
    </locationLabels>
    <coverage>0.8883</coverage>
  </station>
  <station>
    <id>GHCND:USW00003166</id>
    <displayName>FULLERTON MUNICIPAL AIRPORT, CA US</displayName>
    <minDate>1998-04-01</minDate>
    <maxDate>2013-01-14</maxDate>
    <latitude>33.87194</latitude>
    <longitude>-117.97889</longitude>
    <elevation>29.3</elevation>
    <locationLabels>
      <type>CNTRY</type>
      <id>FIPS:US</id>
      <displayName>United States</displayName>
    </locationLabels>
    <coverage>0.982</coverage>
  </station>
  <station>
    <id>GHCND:USC00253075</id>
    <displayName>FULLERTON, NE US</displayName>
    <minDate>1901-03-01</minDate>
    <maxDate>2013-01-11</maxDate>
    <latitude>41.3594</latitude>
    <longitude>-97.9761</longitude>
    <elevation>502.9</elevation>
    <locationLabels>
      <type>CNTRY</type>
      <id>FIPS:US</id>
      <displayName>United States</displayName>
    </locationLabels>
    <coverage>0.9071</coverage>
  </station>
  <station>
    <id>GHCND:US1TXFB0002</id>
    <displayName>FULSHEAR 3.5 E, TX US</displayName>
    <minDate>2007-08-21</minDate>
    <maxDate>2013-01-14</maxDate>
    <latitude>29.6945</latitude>
    <longitude>-95.8264</longitude>
    <elevation>42.1</elevation>
    <locationLabels>
      <type>CNTRY</type>
      <id>FIPS:US</id>
      <displayName>United States</displayName>
    </locationLabels>
    <coverage>0.9473</coverage>
  </station>
  <station>
    <id>GHCND:US1NYOS0020</id>
    <displayName>FULTON 0.2 W, NY US</displayName>
    <minDate>2010-01-17</minDate>
    <maxDate>2013-01-15</maxDate>
    <latitude>43.3165</latitude>
    <longitude>-76.4185</longitude>
    <elevation>121</elevation>
    <locationLabels>
      <type>CNTRY</type>
      <id>FIPS:US</id>
      <displayName>United States</displayName>
    </locationLabels>
    <coverage>0.3205</coverage>
  </station>
  <station>
    <id>GHCND:US1MOCW0008</id>
    <displayName>FULTON 1.6 WSW, MO US</displayName>
    <minDate>2009-05-06</minDate>
    <maxDate>2012-08-24</maxDate>
    <latitude>38.8472</latitude>
    <longitude>-91.9773</longitude>
    <elevation>264.9</elevation>
    <locationLabels>
      <type>CNTRY</type>
      <id>FIPS:US</id>
      <displayName>United States</displayName>
    </locationLabels>
    <coverage>0.1226</coverage>
  </station>
  <station>
    <id>GHCND:US1MOCW0001</id>
    <displayName>FULTON 1.7 SSE, MO US</displayName>
    <minDate>2007-01-01</minDate>
    <maxDate>2012-09-02</maxDate>
    <latitude>38.8291</latitude>
    <longitude>-91.939</longitude>
    <elevation>255.1</elevation>
    <locationLabels>
      <type>CNTRY</type>
      <id>FIPS:US</id>
      <displayName>United States</displayName>
    </locationLabels>
    <coverage>0.7013</coverage>
  </station>
  <station>
    <id>GHCND:US1MOCW0003</id>
    <displayName>FULTON 2.2 SSW, MO US</displayName>
    <minDate>2007-03-17</minDate>
    <maxDate>2008-01-08</maxDate>
    <latitude>38.8241</latitude>
    <longitude>-91.9643</longitude>
    <elevation>245.1</elevation>
    <locationLabels>
      <type>CNTRY</type>
      <id>FIPS:US</id>
      <displayName>United States</displayName>
    </locationLabels>
    <coverage>0.6409</coverage>
  </station>
  <station>
    <id>GHCND:USC00223208</id>
    <displayName>FULTON 3 W, MS US</displayName>
    <minDate>1894-12-01</minDate>
    <maxDate>2013-01-16</maxDate>
    <latitude>34.2613</latitude>
    <longitude>-88.4569</longitude>
    <elevation>106.7</elevation>
    <locationLabels>
      <type>CNTRY</type>
      <id>FIPS:US</id>
      <displayName>United States</displayName>
    </locationLabels>
    <coverage>0.884</coverage>
  </station>
  <station>
    <id>GHCND:US1MOFSA027</id>
    <displayName>FULTON 3.4 SW, MO US</displayName>
    <minDate>2006-05-01</minDate>
    <maxDate>2013-01-16</maxDate>
    <latitude>38.8217</latitude>
    <longitude>-91.9966</longitude>
    <elevation>267</elevation>
    <locationLabels>
      <type>CNTRY</type>
      <id>FIPS:US</id>
      <displayName>United States</displayName>
    </locationLabels>
    <coverage>0.9976</coverage>
  </station>
  <station>
    <id>GHCND:US1SDHN0007</id>
    <displayName>FULTON 7.3 NNW, SD US</displayName>
    <minDate>2012-06-01</minDate>
    <maxDate>2013-01-16</maxDate>
    <latitude>43.8189</latitude>
    <longitude>-97.8986</longitude>
    <elevation>398.7</elevation>
    <locationLabels>
      <type>CNTRY</type>
      <id>FIPS:US</id>
      <displayName>United States</displayName>
    </locationLabels>
    <coverage>0.9696</coverage>
  </station>
  <station>
    <id>GHCND:US1SDMN0001</id>
    <displayName>FULTON 9.4 N, SD US</displayName>
    <minDate>2007-05-01</minDate>
    <maxDate>2013-01-11</maxDate>
    <latitude>43.8624</latitude>
    <longitude>-97.7907</longitude>
    <elevation>406</elevation>
    <locationLabels>
      <type>CNTRY</type>
      <id>FIPS:US</id>
      <displayName>United States</displayName>
    </locationLabels>
    <coverage>0.9981</coverage>
  </station>
  <station>
    <id>GHCND:USC00113290</id>
    <displayName>FULTON DAM, IL US</displayName>
    <minDate>1938-01-01</minDate>
    <maxDate>2013-01-16</maxDate>
    <latitude>41.8978</latitude>
    <longitude>-90.1545</longitude>
    <elevation>180.4</elevation>
    <locationLabels>
      <type>CNTRY</type>
      <id>FIPS:US</id>
      <displayName>United States</displayName>
    </locationLabels>
    <coverage>0.9687</coverage>
  </station>
  <station>
    <id>GHCND:USW00054773</id>
    <displayName>FULTON OSWEGO CO AIRPORT, NY US</displayName>
    <minDate>1996-07-01</minDate>
    <maxDate>2013-01-14</maxDate>
    <latitude>43.34972</latitude>
    <longitude>-76.38472</longitude>
    <elevation>144.8</elevation>
    <locationLabels>
      <type>CNTRY</type>
      <id>FIPS:US</id>
      <displayName>United States</displayName>
    </locationLabels>
    <coverage>0.9727</coverage>
  </station>
  <station>
    <id>GHCND:USC00032670</id>
    <displayName>FULTON, AR US</displayName>
    <minDate>1892-01-01</minDate>
    <maxDate>2004-05-31</maxDate>
    <latitude>33.6128</latitude>
    <longitude>-93.8136</longitude>
    <elevation>79.2</elevation>
    <locationLabels>
      <type>CNTRY</type>
      <id>FIPS:US</id>
      <displayName>United States</displayName>
    </locationLabels>
    <coverage>0.8068</coverage>
  </station>
</stationCollection>
